[{"country":"10007","city":"10007010","village":"中正里","number":"N010000719","name":"彰化市兒童公園親子廁所","administration":"縣市政府","latitude":"24.083776","longitude":"120.550552","grade":"特優級","type2":"公園","type":"親子廁所","address":"彰化縣彰化市中正里長順街","exec":null,"diaper":null},{"country":"10007","city":"10007060","village":"廈粘村","number":"N060000137","name":"福興鄉第15公墓無障礙廁所","administration":"福興鄉公所","latitude":"24.03674","longitude":"120.415392","grade":"特優級","type2":"宗教禮儀場所","type":"無障礙廁所","address":"彰化縣福興鄉廈粘村下寮巷6-14號","exec":null,"diaper":null},{"country":"10007","city":"10007060","village":"廈粘村","number":"N060000136","name":"福興鄉第15公墓女廁","administration":"福興鄉公所","latitude":"24.03674","longitude":"120.415392","grade":"特優級","type2":"宗教禮儀場所","type":"女廁所","address":"彰化縣福興鄉廈粘村下寮巷6-14號","exec":null,"diaper":null},{"country":"10007","city":"10007060","village":"廈粘村","number":"N060000135","name":"福興鄉第15公墓男廁","administration":"福興鄉公所","latitude":"24.03674","longitude":"120.415392","grade":"特優級","type2":"宗教禮儀場所","type":"女廁所","address":"彰化縣福興鄉廈粘村下寮巷6-14號","exec":null,"diaper":null},{"country":"10007","city":"10007010","village":"阿夷里","number":"N010000722","name":"彰化市泰和公園-無障礙廁所","administration":"縣市政府","latitude":"24.09387139","longitude":"120.5523562","grade":"特優級","type2":"公園","type":"無障礙廁所","address":"彰化縣彰化市阿夷里泰和路二段六九號","exec":null,"diaper":null},{"country":"10007","city":"10007080","village":"長春村","number":"N080000141","name":"長春社區活動中心-無障礙廁所","administration":"花壇鄉長春社區發展協會","latitude":"24.01020971","longitude":"120.5760723","grade":"特優級","type2":"社福機構、集會場所","type":"無障礙廁所","address":"彰化縣花壇鄉長春村彰員路一段一七二巷四五號","exec":null,"diaper":null},{"country":"10007","city":"10007080","village":"長春村","number":"N080000140","name":"長春社區活動中心-女廁","administration":"長春社區發展協會","latitude":"24.0101803","longitude":"120.5760643","grade":"特優級","type2":"社福機構、集會場所","type":"女廁所","address":"彰化縣花壇鄉長春村彰員路一段一七二巷四五號","exec":null,"diaper":null},{"country":"10007","city":"10007080","village":"長春村","number":"N080000139","name":"長春社區活動中心-男廁","administration":"長春社區發展協會","latitude":"24.01018766","longitude":"120.576067","grade":"特優級","type2":"社福機構、集會場所","type":"男廁所","address":"彰化縣花壇鄉長春村彰員路一段一七二巷四五號","exec":null,"diaper":null},{"country":"10007","city":"10007080","village":"長沙村","number":"N080000136","name":"花壇衛生所2F女廁","administration":"花壇衛生所","latitude":"24.028583","longitude":"120.548969","grade":"特優級","type2":"民眾洽公場所","type":"女廁所","address":"彰化縣花壇鄉長沙村中正路10號","exec":null,"diaper":null},{"country":"10007","city":"10007080","village":"長沙村","number":"N080000135","name":"花壇衛生所2F男廁","administration":"花壇衛生所","latitude":"24.028583","longitude":"120.548969","grade":"特優級","type2":"民眾洽公場所","type":"男廁所","address":"彰化縣花壇鄉長沙村中正路10號","exec":null,"diaper":null},{"country":"10007","city":"10007080","village":"長沙村","number":"N080000134","name":"花壇衛生所1F無障礙混合廁所","administration":"花壇衛生所","latitude":"24.028583","longitude":"120.548969","grade":"特優級","type2":"民眾洽公場所","type":"無障礙廁所","address":"彰化縣花壇鄉長沙村中正路10號","exec":null,"diaper":null},{"country":"10007","city":"10007080","village":"長沙村","number":"N080000133","name":"花壇衛生所1F女廁","administration":"花壇衛生所","latitude":"24.028583","longitude":"120.548969","grade":"特優級","type2":"民眾洽公場所","type":"女廁所","address":"彰化縣花壇鄉長沙村中正路10號","exec":null,"diaper":null},{"country":"10007","city":"10007060","village":"橋頭村","number":"N060000139","name":"福興鄉公所2F-女廁 ","administration":"福興鄉公所","latitude":"24.04813444","longitude":"120.4439177","grade":"特優級","type2":"民眾洽公場所","type":"女廁所","address":"彰化縣福興鄉橋頭村彰鹿路7段495號","exec":null,"diaper":null},{"country":"10007","city":"10007060","village":"橋頭村","number":"N060000138","name":"福興鄉公所2F-男廁 ","administration":"福興鄉公所","latitude":"24.04813444","longitude":"120.4439177","grade":"特優級","type2":"民眾洽公場所","type":"男廁所","address":"彰化縣福興鄉橋頭村彰鹿路7段495號","exec":null,"diaper":null},{"country":"10007","city":"10007170","village":"仁雅村","number":"N170000150","name":"社頭鄉公所(無障礙廁所)","administration":"社頭鄉公所","latitude":"23.896806","longitude":"120.585836","grade":"特優級","type2":"民眾洽公場所","type":"無障礙廁所","address":"彰化縣社頭鄉仁雅村社斗路一段295號","exec":null,"diaper":null},{"country":"10007","city":"10007260","village":"溪州村","number":"N260000098","name":"溪州公園01-親子廁所","administration":"彰化縣政府","latitude":"23.841076","longitude":"120.495833","grade":"特優級","type2":"公園","type":"親子廁所","address":"彰化縣溪州鄉溪州村中央路三段138號","exec":null,"diaper":null},{"country":"10007","city":"10007260","village":"溪州村","number":"N260000097","name":"溪州公園01-無障礙廁所","administration":"彰化縣政府","latitude":"23.84071385","longitude":"120.495885","grade":"特優級","type2":"公園","type":"無障礙廁所","address":"彰化縣溪州鄉溪州村中央路三段138號","exec":null,"diaper":null},{"country":"10007","city":"10007260","village":"溪州村","number":"N260000095","name":"溪州公園05-無障礙","administration":"彰化縣政府","latitude":"23.841076","longitude":"120.495833","grade":"特優級","type2":"公園","type":"無障礙廁所","address":"彰化縣溪州鄉溪州村中央路三段138號","exec":null,"diaper":null},{"country":"10007","city":"10007260","village":"溪州村","number":"N260000094","name":"溪州公園04-無障礙","administration":"彰化縣政府","latitude":"23.841076","longitude":"120.495833","grade":"特優級","type2":"公園","type":"無障礙廁所","address":"彰化縣溪州鄉溪州村中央路三段138號","exec":null,"diaper":null},{"country":"10007","city":"10007260","village":"溪州村","number":"N260000093","name":"溪州公園03-無障礙","administration":"彰化縣政府","latitude":"23.841076","longitude":"120.495833","grade":"特優級","type2":"公園","type":"無障礙廁所","address":"彰化縣溪州鄉溪州村中央路三段138號","exec":null,"diaper":null},{"country":"10007","city":"10007260","village":"溪州村","number":"N260000092","name":"溪州公園02-無障礙","administration":"彰化縣政府","latitude":"23.841076","longitude":"120.495833","grade":"特優級","type2":"公園","type":"無障礙廁所","address":"彰化縣溪州鄉溪州村中央路三段138號","exec":null,"diaper":null},{"country":"10007","city":"10007010","village":"東興里","number":"N010000711","name":"縣政府第1行政大樓演藝廳廁所-女廁","administration":"縣市政府","latitude":"24.075551","longitude":"120.54474","grade":"特優級","type2":"民眾洽公場所","type":"女廁所","address":"彰化縣彰化市東興里中山路2段416號","exec":null,"diaper":null},{"country":"10007","city":"10007010","village":"東興里","number":"N010000710","name":"縣政府第1行政大樓演藝廳廁所-男廁","administration":"縣市政府","latitude":"24.075551","longitude":"120.54474","grade":"特優級","type2":"民眾洽公場所","type":"男廁所","address":"彰化縣彰化市東興里中山路2段416號","exec":null,"diaper":null},{"country":"10007","city":"10007210","village":"睦宜村","number":"N210000095","name":"田尾鄉公二環保公園公廁","administration":"田尾鄉公所","latitude":"23.885884","longitude":"120.549372","grade":"特優級","type2":"公園","type":"混合廁所","address":"彰化縣田尾鄉睦宜村富農路一段261巷6號","exec":null,"diaper":null},{"country":"10007","city":"10007190","village":"光復里","number":"N190000093","name":"彰化縣地方稅務局北斗分局1樓女廁","administration":"彰化縣地方稅務局北斗分局","latitude":"23.875218","longitude":"120.524182","grade":"特優級","type2":"民眾洽公場所","type":"女廁所","address":"彰化縣北斗鎮光復里中山路二段395號","exec":null,"diaper":null},{"country":"10007","city":"10007100","village":"三愛里","number":"N100000362","name":"圓林園滯洪池生態公園-無障礙廁所","administration":"彰化縣政府","latitude":"23.9727291","longitude":"120.5765088","grade":"特優級","type2":"公園","type":"無障礙廁所","address":"彰化縣員林市三愛里員林大道四段369號","exec":null,"diaper":null},{"country":"10007","city":"10007100","village":"三愛里","number":"N100000361","name":"圓林園滯洪池生態公園女廁","administration":"彰化縣政府","latitude":"23.9727291","longitude":"120.5765088","grade":"特優級","type2":"公園","type":"女廁所","address":"彰化縣員林市三愛里員林大道四段369號","exec":null,"diaper":null},{"country":"10007","city":"10007070","village":"福安村","number":"N070000090","name":"秀水分駐所(無障礙廁所)","administration":"秀水分駐所","latitude":"24.029392","longitude":"120.499334","grade":"特優級","type2":"民眾洽公場所","type":"無障礙廁所","address":"彰化縣秀水鄉福安村復新街9號","exec":null,"diaper":null},{"country":"10007","city":"10007070","village":"福安村","number":"N070000089","name":"秀水分駐所(女廁)","administration":"秀水分駐所","latitude":"24.029392","longitude":"120.499334","grade":"特優級","type2":"民眾洽公場所","type":"女廁所","address":"彰化縣秀水鄉福安村復新街9號","exec":null,"diaper":null},{"country":"10007","city":"10007110","village":"湖東里","number":"N110000153","name":"彰化縣溪湖戶政事務所(女廁)","administration":"彰化縣溪湖戶政事務所","latitude":"23.96694","longitude":"120.48352","grade":"特優級","type2":"民眾洽公場所","type":"女廁所","address":"彰化縣溪湖鎮湖東里青雅路68號","exec":null,"diaper":null},{"country":"10007","city":"10007110","village":"湖東里","number":"N110000152","name":"溪湖衛生所(無障礙廁)","administration":"溪湖鎮衛生所","latitude":"23.965774","longitude":"120.483326","grade":"特優級","type2":"民眾洽公場所","type":"無障礙廁所","address":"彰化縣溪湖鎮湖東里青雅路36號","exec":null,"diaper":null},{"country":"10007","city":"10007110","village":"湖東里","number":"N110000151","name":"溪湖衛生所(女廁)","administration":"溪湖鎮衛生所","latitude":"23.965774","longitude":"120.483326","grade":"特優級","type2":"民眾洽公場所","type":"女廁所","address":"彰化縣溪湖鎮湖東里青雅路36號","exec":null,"diaper":null},{"country":"10007","city":"10007110","village":"太平里","number":"N110000022","name":"溪湖鎮圖書館-3樓(女廁)","administration":"溪湖鎮公所","latitude":"23.962842","longitude":"120.47854","grade":"特優級","type2":"文化育樂活動場所","type":"女廁所","address":"彰化縣溪湖鎮太平里太平街147號","exec":null,"diaper":null},{"country":"10007","city":"10007110","village":"太平里","number":"N110000021","name":"溪湖鎮圖書館-2樓(女廁)","administration":"溪湖鎮公所","latitude":"23.96284","longitude":"120.478571","grade":"特優級","type2":"文化育樂活動場所","type":"女廁所","address":"彰化縣溪湖鎮太平里太平街147號","exec":null,"diaper":null},{"country":"10007","city":"10007110","village":"太平里","number":"N110000020","name":"溪湖鎮圖書館1樓(親子廁)","administration":"溪湖鎮公所","latitude":"23.96284","longitude":"120.478571","grade":"特優級","type2":"文化育樂活動場所","type":"親子廁所","address":"彰化縣溪湖鎮太平里太平街147號","exec":null,"diaper":null},{"country":"10007","city":"10007110","village":"太平里","number":"N110000019","name":"溪湖鎮圖書館1樓(女廁)","administration":"溪湖鎮公所","latitude":"23.96284","longitude":"120.478571","grade":"特優級","type2":"文化育樂活動場所","type":"女廁所","address":"彰化縣溪湖鎮太平里太平街147號","exec":null,"diaper":null},{"country":"10007","city":"10007110","village":"湖東里","number":"N110000150","name":"溪湖鎮公所-3樓(女廁)","administration":"溪湖鎮公所","latitude":"23.966391","longitude":"120.483541","grade":"特優級","type2":"民眾洽公場所","type":"女廁所","address":"彰化縣溪湖鎮湖東里青雅路58號","exec":null,"diaper":null},{"country":"10007","city":"10007110","village":"湖東里","number":"N110000149","name":"溪湖鎮公所-2樓(女廁)","administration":"溪湖鎮公所","latitude":"23.966391","longitude":"120.483541","grade":"特優級","type2":"民眾洽公場所","type":"女廁所","address":"彰化縣溪湖鎮湖東里青雅路58號","exec":null,"diaper":null},{"country":"10007","city":"10007110","village":"湖東里","number":"N110000148","name":"溪湖鎮公所1樓(無障礙廁)","administration":"溪湖鎮公所","latitude":"23.966391","longitude":"120.483541","grade":"特優級","type2":"民眾洽公場所","type":"無障礙廁所","address":"彰化縣溪湖鎮湖東里青雅路58號","exec":null,"diaper":null},{"country":"10007","city":"10007110","village":"湖東里","number":"N110000147","name":"溪湖鎮公所1樓(女廁)","administration":"溪湖鎮公所","latitude":"23.966391","longitude":"120.483541","grade":"特優級","type2":"民眾洽公場所","type":"女廁所","address":"彰化縣溪湖鎮湖東里青雅路58號","exec":null,"diaper":null},{"country":"10007","city":"10007010","village":"延平里","number":"N010000497","name":"秀傳醫院門診2F女廁","administration":"秀傳醫院","latitude":"24.062393","longitude":"120.544308","grade":"特優級","type2":"社福機構、集會場所","type":"女廁所","address":"彰化縣彰化市延平里延平里","exec":null,"diaper":null},{"country":"10007","city":"10007010","village":"延平里","number":"N010000496","name":"秀傳醫院門診2F男廁","administration":"秀傳醫院","latitude":"24.065049","longitude":"120.545889","grade":"特優級","type2":"社福機構、集會場所","type":"男廁所","address":"彰化縣彰化市延平里延平里","exec":null,"diaper":null},{"country":"10007","city":"10007230","village":"博愛村","number":"N230000054","name":"全家便利商店-芳苑王功店","administration":"全家便利商店芳苑王功店","latitude":"23.96466","longitude":"120.340113","grade":"特優級","type2":"商業營業場所","type":"混合廁所","address":"彰化縣芳苑鄉博愛村芳漢路王功路535號","exec":null,"diaper":null},{"country":"10007","city":"10007110","village":"頂庄里","number":"N110000157","name":"員林交流道加油站無障礙廁所","administration":"中油員林交流道站","latitude":"23.952882","longitude":"120.511","grade":"特優級","type2":"商業營業場所","type":"無障礙廁所","address":"彰化縣溪湖鎮頂庄里員鹿路1段104號","exec":null,"diaper":null},{"country":"10007","city":"10007110","village":"頂庄里","number":"N110000156","name":"員林交流道加油站女廁","administration":"中油員林交流道站","latitude":"23.952882","longitude":"120.511","grade":"特優級","type2":"商業營業場所","type":"女廁所","address":"彰化縣溪湖鎮頂庄里員鹿路1段104號","exec":null,"diaper":null},{"country":"10007","city":"10007110","village":"頂庄里","number":"N110000155","name":"員林交流道加油站男廁","administration":"中油員林交流道站","latitude":"23.952882","longitude":"120.511","grade":"特優級","type2":"商業營業場所","type":"男廁所","address":"彰化縣溪湖鎮頂庄里員鹿路1段104號","exec":null,"diaper":null},{"country":"10007","city":"10007200","village":"中西里","number":"N200000045","name":"小松加油站","administration":"小松加油站","latitude":"23.894003","longitude":"120.355264","grade":"特優級","type2":"商業營業場所","type":"混合廁所","address":"彰化縣二林鎮中西里舊二路358號","exec":null,"diaper":null},{"country":"10007","city":"10007010","village":"西勢里","number":"N010000113","name":"永慶加油站(女廁)","administration":"經濟部","latitude":"24.082032","longitude":"120.529986","grade":"特優級","type2":"商業營業場所","type":"女廁所","address":"彰化縣彰化市西勢里金馬路三段446號","exec":null,"diaper":null},{"country":"10007","city":"10007220","village":"合興村","number":"N220000041","name":"埤頭鄉公所-無障礙廁所","administration":"埤頭鄉公所","latitude":"23.89146916","longitude":"120.4621671","grade":"特優級","type2":"民眾洽公場所","type":"無障礙廁所","address":"彰化縣埤頭鄉合興村斗苑西路138號","exec":null,"diaper":null},{"country":"10007","city":"10007060","village":"橋頭村","number":"N060000041","name":"台灣中油中正路站","administration":"中油股份有限公司","latitude":"24.050668","longitude":"120.441737","grade":"特優級","type2":"商業營業場所","type":"混合廁所","address":"彰化縣福興鄉橋頭村中正路88號","exec":null,"diaper":null},{"country":"10007","city":"10007210","village":"饒平村","number":"N210000016","name":"田尾花卉批發巿場","administration":"田尾鄉公所","latitude":"23.888783","longitude":"120.535177","grade":"特優級","type2":"商業營業場所","type":"混合廁所","address":"彰化縣田尾鄉饒平村光復路2段583號","exec":null,"diaper":null},{"country":"10007","city":"10007190","village":"七星里","number":"N190000026","name":"北斗紅磚巿場","administration":"北斗鎮公所","latitude":"23.871908","longitude":"120.526276","grade":"特優級","type2":"商業營業場所","type":"混合廁所","address":"彰化縣北斗鎮七星里新市街40號","exec":null,"diaper":null},{"country":"10007","city":"10007190","village":"西德里","number":"N190000055","name":"北斗鎮公所1F(男廁)","administration":"北斗鎮公所","latitude":"23.871395","longitude":"120.521856","grade":"特優級","type2":"民眾洽公場所","type":"男廁所","address":"彰化縣北斗鎮西德里公所街2號","exec":null,"diaper":null},{"country":"10007","city":"10007110","village":"東溪里","number":"N110000103","name":"7-11溪東門市","administration":"統一超商溪湖東溪門市","latitude":"23.95361","longitude":"120.50012","grade":"特優級","type2":"商業營業場所","type":"混合廁所","address":"彰化縣溪湖鎮東溪里員鹿路一段403號","exec":null,"diaper":null},{"country":"10007","city":"10007110","village":"大竹里","number":"N110000072","name":"7-11彰溪門市","administration":"統一超商彰溪門市","latitude":"23.947535","longitude":"120.480502","grade":"特優級","type2":"商業營業場所","type":"混合廁所","address":"彰化縣溪湖鎮大竹里彰水路2段臨555號","exec":null,"diaper":null},{"country":"10007","city":"10007110","village":"大突里","number":"N110000055","name":"溪湖運動公園(男廁)","administration":"溪湖鎮公所","latitude":"23.968599","longitude":"120.475604","grade":"特優級","type2":"公園","type":"男廁所","address":"彰化縣溪湖鎮大突里地政路與福地街口","exec":null,"diaper":null},{"country":"10007","city":"10007070","village":"安東村","number":"N070000040","name":"秀水鄉立圖書館女廁","administration":"秀水鄉公所","latitude":"24.03539294","longitude":"120.5029426","grade":"特優級","type2":"文化育樂活動場所","type":"女廁所","address":"彰化縣秀水鄉安東村中山路290號","exec":null,"diaper":null},{"country":"10007","city":"10007070","village":"安東村","number":"N070000039","name":"秀水鄉立圖書館男廁","administration":"秀水鄉公所","latitude":"24.03538228","longitude":"120.5027783","grade":"特優級","type2":"文化育樂活動場所","type":"男廁所","address":"彰化縣秀水鄉安東村中山路290號","exec":null,"diaper":null},{"country":"10007","city":"10007060","village":"同安村","number":"N060000115","name":"7-ELEVEN福環門市","administration":"統一超商福環門市","latitude":"24.03051229","longitude":"120.4400682","grade":"特優級","type2":"商業營業場所","type":"混合廁所","address":"彰化縣福興鄉同安村員鹿路1段439號","exec":null,"diaper":null},{"country":"10007","city":"10007080","village":"岩竹村","number":"N080000089","name":"花壇虎山岩停車場","administration":"虎山岩管理委員會","latitude":"24.04356384","longitude":"120.5602205","grade":"特優級","type2":"觀光地區及風景區","type":"混合廁所","address":"彰化縣花壇鄉岩竹村虎山街1號","exec":null,"diaper":null},{"country":"10007","city":"10007100","village":"中正里","number":"N100000007","name":"員林公園公廁－男廁","administration":"員林市公所","latitude":"23.9576818","longitude":"120.5746032","grade":"特優級","type2":"公園","type":"男廁所","address":"彰化縣員林市中正里三民街1號","exec":null,"diaper":null},{"country":"10007","city":"10007100","village":"三愛里","number":"N100000360","name":"圓林園滯洪池生態公園男廁","administration":"彰化縣政府","latitude":"23.9727291","longitude":"120.5765088","grade":"特優級","type2":"公園","type":"男廁所","address":"彰化縣員林市三愛里員林大道四段369號","exec":null,"diaper":null},{"country":"10007","city":"10007100","village":"萬年里","number":"N100000359","name":"彰南國民運動中心-無障礙廁所","administration":"彰化縣政府","latitude":"23.9491691","longitude":"120.5814776","grade":"特優級","type2":"文化育樂活動場所","type":"無障礙廁所","address":"彰化縣員林市萬年里員林大道235號","exec":null,"diaper":null},{"country":"10007","city":"10007100","village":"萬年里","number":"N100000358","name":"彰南國民運動中心女廁","administration":"彰化縣政府","latitude":"23.9491691","longitude":"120.5814776","grade":"特優級","type2":"文化育樂活動場所","type":"女廁所","address":"彰化縣員林市萬年里員林大道235號","exec":null,"diaper":null},{"country":"10007","city":"10007100","village":"萬年里","number":"N100000357","name":"彰南國民運動中心男廁","administration":"彰化縣政府","latitude":"23.9491691","longitude":"120.5814776","grade":"特優級","type2":"文化育樂活動場所","type":"男廁所","address":"彰化縣員林市萬年里員林大道235號","exec":null,"diaper":null},{"country":"10007","city":"10007200","village":"華崙里","number":"N200000156","name":"慈恩休閒農場-(餐廳)無障礙廁所","administration":"慈恩休閒農場","latitude":"23.950382","longitude":"120.443012","grade":"特優級","type2":"觀光地區及風景區","type":"無障礙廁所","address":"彰化縣二林鎮華崙里光復路61巷40號","exec":null,"diaper":null},{"country":"10007","city":"10007180","village":"大園村","number":"N180000044","name":"大丘園休閒農場-女廁","administration":"大丘園休閒農場","latitude":"23.803663","longitude":"120.636785","grade":"特優級","type2":"商業營業場所","type":"女廁所","address":"彰化縣二水鄉大園村員集路二段442號","exec":null,"diaper":null},{"country":"10007","city":"10007180","village":"大園村","number":"N180000043","name":"大丘園休閒農場-男廁","administration":"大丘園休閒農場","latitude":"23.803663","longitude":"120.636785","grade":"特優級","type2":"商業營業場所","type":"男廁所","address":"彰化縣二水鄉大園村員集路二段442號","exec":null,"diaper":null},{"country":"10007","city":"10007050","village":"新港村","number":"N050000092","name":"伸港鄉公有零售市場-女廁","administration":"伸港鄉公所","latitude":"24.145257","longitude":"120.486777","grade":"特優級","type2":"商業營業場所","type":"女廁所","address":"彰化縣伸港鄉新港村新興路99號","exec":null,"diaper":null},{"country":"10007","city":"10007150","village":"埤腳村","number":"N150000106","name":"魔菇部落休閒農場-無障礙廁所","administration":"魔菇部落休閒農場","latitude":"23.974481","longitude":"120.520763","grade":"特優級","type2":"觀光地區及風景區","type":"無障礙廁所","address":"彰化縣埔心鄉埤腳村柳橋東路829號","exec":null,"diaper":null},{"country":"10007","city":"10007080","village":"灣東村","number":"N080000138","name":"大山休閒農場-女廁","administration":"大山休閒農場","latitude":"24.036358","longitude":"120.575479","grade":"特優級","type2":"商業營業場所","type":"女廁所","address":"彰化縣花壇鄉灣東村灣福路60巷13弄13號","exec":null,"diaper":null},{"country":"10007","city":"10007080","village":"灣東村","number":"N080000137","name":"大山休閒農場-男廁","administration":"大山休閒農場","latitude":"24.036358","longitude":"120.575479","grade":"特優級","type2":"商業營業場所","type":"男廁所","address":"彰化縣花壇鄉灣東村灣福路60巷13弄13號","exec":null,"diaper":null},{"country":"10007","city":"10007030","village":"和北里","number":"N030000221","name":"德美公園-女廁","administration":"彰化縣和美鎮公所","latitude":"24.113209","longitude":"120.498729","grade":"特優級","type2":"公園","type":"女廁所","address":"彰化縣和美鎮和北里和頭路47號","exec":null,"diaper":null},{"country":"10007","city":"10007030","village":"糖友里","number":"N030000220","name":"麗池公園-女廁","administration":"彰化縣和美鎮公所","latitude":"24.107039","longitude":"120.532413","grade":"特優級","type2":"公園","type":"女廁所","address":"彰化縣和美鎮糖友里糖友二街2號","exec":null,"diaper":null},{"country":"10007","city":"10007080","village":"南口村","number":"N080000016","name":"花壇鄉公所男廁","administration":"花壇鄉公所","latitude":"24.029878","longitude":"120.538332","grade":"特優級","type2":"民眾洽公場所","type":"男廁所","address":"彰化縣花壇鄉南口村中山路2段182號","exec":null,"diaper":null},{"country":"10007","city":"10007080","village":"花壇村","number":"N080000003","name":"勝中加油站女廁","administration":"勝中加油站","latitude":"24.01691641","longitude":"120.5341844","grade":"特優級","type2":"商業營業場所","type":"混合廁所","address":"彰化縣花壇鄉花壇村中山路一段311號","exec":null,"diaper":null},{"country":"10007","city":"10007020","village":"埔崙里","number":"N020000234","name":"鹿港鎮衛生所(男廁、無障礙混和)","administration":"縣市政府","latitude":"24.058606","longitude":"120.435086","grade":"特優級","type2":"民眾洽公場所","type":"男廁所","address":"彰化縣鹿港鎮埔崙里復興路425號","exec":null,"diaper":null},{"country":"10007","city":"10007020","village":"埔崙里","number":"N020000233","name":"鹿港鎮衛生所(女廁)","administration":"縣市政府","latitude":"24.058606","longitude":"120.435086","grade":"特優級","type2":"民眾洽公場所","type":"女廁所","address":"彰化縣鹿港鎮埔崙里復興路425號","exec":null,"diaper":null},{"country":"10007","city":"10007020","village":"永安里","number":"N020000232","name":"彰化縣警察局鹿港分局(無障礙廁)","administration":"縣市政府","latitude":"24.059218","longitude":"120.438014","grade":"特優級","type2":"民眾洽公場所","type":"無障礙廁所","address":"彰化縣鹿港鎮永安里東興路300號","exec":null,"diaper":null},{"country":"10007","city":"10007020","village":"永安里","number":"N020000231","name":"彰化縣警察局鹿港分局(女廁)","administration":"縣市政府","latitude":"24.059218","longitude":"120.438014","grade":"特優級","type2":"民眾洽公場所","type":"女廁所","address":"彰化縣鹿港鎮永安里東興路300號","exec":null,"diaper":null},{"country":"10007","city":"10007020","village":"永安里","number":"N020000230","name":"彰化縣警察局鹿港分局(男廁)","administration":"縣市政府","latitude":"24.059218","longitude":"120.438014","grade":"特優級","type2":"民眾洽公場所","type":"男廁所","address":"彰化縣鹿港鎮永安里東興路300號","exec":null,"diaper":null},{"country":"10007","city":"10007190","village":"新政里","number":"N190000095","name":"北斗戶政事務所","administration":"北斗戶政事務所","latitude":"23.874522","longitude":"120.52359","grade":"特優級","type2":"民眾洽公場所","type":"混合廁所","address":"彰化縣北斗鎮新政里地政路466號","exec":null,"diaper":null},{"country":"10007","city":"10007190","village":"光復里","number":"N190000094","name":"北斗鎮衛生所","administration":"北斗鎮衛生所","latitude":"23.87516","longitude":"120.524869","grade":"特優級","type2":"民眾洽公場所","type":"混合廁所","address":"彰化縣北斗鎮光復里地政路406巷17號","exec":null,"diaper":null},{"country":"10007","city":"10007110","village":"大竹里","number":"N110000174","name":"溪湖中央公園男廁(北側)","administration":"溪湖鎮公所","latitude":"23.948938","longitude":"120.479501","grade":"特優級","type2":"公園","type":"男廁所","address":"彰化縣溪湖鎮大竹里彰水路二段725號","exec":null,"diaper":null},{"country":"10007","city":"10007110","village":"大竹里","number":"N110000173","name":"溪湖中央公園女廁(北側)","administration":"溪湖鎮公所","latitude":"23.948938","longitude":"120.479501","grade":"特優級","type2":"公園","type":"女廁所","address":"彰化縣溪湖鎮大竹里彰水路二段725號","exec":null,"diaper":null},{"country":"10007","city":"10007040","village":"寓埔村","number":"N040000050","name":"線西鄉衛生所1F-無障礙廁所","administration":"線西鄉衛生所","latitude":"24.130334","longitude":"120.470448","grade":"特優級","type2":"民眾洽公場所","type":"無障礙廁所","address":"彰化縣線西鄉寓埔村和線路957巷6號","exec":null,"diaper":null},{"country":"10007","city":"10007040","village":"寓埔村","number":"N040000049","name":"線西鄉衛生所1F-女廁","administration":"線西鄉衛生所","latitude":"24.130334","longitude":"120.470448","grade":"特優級","type2":"民眾洽公場所","type":"女廁所","address":"彰化縣線西鄉寓埔村和線路957巷6號","exec":null,"diaper":null},{"country":"10007","city":"10007040","village":"寓埔村","number":"N040000048","name":"線西鄉衛生所1F-男廁","administration":"線西鄉衛生所","latitude":"24.13032578","longitude":"120.4703858","grade":"特優級","type2":"民眾洽公場所","type":"男廁所","address":"彰化縣線西鄉寓埔村和線路957巷6號","exec":null,"diaper":null},{"country":"10007","city":"10007080","village":"長沙村","number":"N080000132","name":"花壇衛生所1F男廁","administration":"花壇衛生所","latitude":"24.028583","longitude":"120.548969","grade":"特優級","type2":"民眾洽公場所","type":"男廁所","address":"彰化縣花壇鄉長沙村中正路10號","exec":null,"diaper":null},{"country":"10007","city":"10007110","village":"大竹里","number":"N110000175","name":"溪湖中央公園無障礙兼親子廁所","administration":"溪湖鎮公所","latitude":"23.948938","longitude":"120.479501","grade":"特優級","type2":"公園","type":"親子廁所","address":"彰化縣溪湖鎮大竹里彰水路二段725號","exec":null,"diaper":null},{"country":"10007","city":"10007010","village":"光復里","number":"N010000090","name":"介壽生活藝文館外女廁","administration":"文化局","latitude":"24.081285","longitude":"120.542251","grade":"特優級","type2":"文化育樂活動場所","type":"女廁所","address":"彰化縣彰化市光復里民生路259號","exec":null,"diaper":null},{"country":"10007","city":"10007010","village":"光復里","number":"N010000089","name":"介壽生活藝文館外男廁","administration":"文化局","latitude":"24.081285","longitude":"120.542251","grade":"特優級","type2":"文化育樂活動場所","type":"男廁所","address":"彰化縣彰化市光復里民生路259號","exec":null,"diaper":null},{"country":"10007","city":"10007010","village":"光復里","number":"N010000088","name":"介壽生活藝文館2F","administration":"文化局","latitude":"24.081285","longitude":"120.542251","grade":"特優級","type2":"文化育樂活動場所","type":"混合廁所","address":"彰化縣彰化市光復里民生路259號","exec":null,"diaper":null},{"country":"10007","city":"10007230","village":"漢寶村","number":"N230000096","name":"臺灣漢寶園休閒農場-03女廁","administration":"農業部","latitude":"24.007475","longitude":"120.360301","grade":"特優級","type2":"觀光地區及風景區","type":"女廁所","address":"彰化縣芳苑鄉漢寶村成功路486號","exec":null,"diaper":null},{"country":"10007","city":"10007230","village":"漢寶村","number":"N230000095","name":"臺灣漢寶園休閒農場-03男廁","administration":"農業部","latitude":"24.007475","longitude":"120.360301","grade":"特優級","type2":"觀光地區及風景區","type":"男廁所","address":"彰化縣芳苑鄉漢寶村成功路486號","exec":null,"diaper":null},{"country":"10007","city":"10007200","village":"華崙里","number":"N200000165","name":"慈恩休閒農場-(外側)男廁","administration":"慈恩休閒農場","latitude":"23.950382","longitude":"120.443012","grade":"特優級","type2":"觀光地區及風景區","type":"男廁所","address":"彰化縣二林鎮華崙里光復路61巷40號","exec":null,"diaper":null},{"country":"10007","city":"10007200","village":"西庄里","number":"N200000164","name":"東螺溪休閒農場-混合廁所","administration":"農業部","latitude":"23.995132","longitude":"120.412741","grade":"特優級","type2":"觀光地區及風景區","type":"混合廁所","address":"彰化縣二林鎮西庄里二溪路七段2巷臨1201號","exec":null,"diaper":null},{"country":"10007","city":"10007200","village":"華崙里","number":"N200000163","name":"慈恩休閒農場-(外側)女廁","administration":"慈恩休閒農場","latitude":"23.950382","longitude":"120.443012","grade":"特優級","type2":"觀光地區及風景區","type":"女廁所","address":"彰化縣二林鎮華崙里光復路61巷40號","exec":null,"diaper":null},{"country":"10007","city":"10007200","village":"北平里","number":"N200000162","name":"金喜休閒農場-無障礙廁所","administration":"金喜休閒農場","latitude":"23.914328","longitude":"120.369004","grade":"特優級","type2":"觀光地區及風景區","type":"無障礙廁所","address":"彰化縣二林鎮北平里新生路569巷48弄107號","exec":null,"diaper":null},{"country":"10007","city":"10007200","village":"華崙里","number":"N200000161","name":"慈恩休閒農場-(外側)無障礙廁所","administration":"慈恩休閒農場","latitude":"23.950382","longitude":"120.443012","grade":"特優級","type2":"觀光地區及風景區","type":"無障礙廁所","address":"彰化縣二林鎮華崙里光復路61巷40號","exec":null,"diaper":null},{"country":"10007","city":"10007200","village":"北平里","number":"N200000160","name":"金喜休閒農場-女廁","administration":"金喜休閒農場","latitude":"23.914328","longitude":"120.369004","grade":"特優級","type2":"觀光地區及風景區","type":"女廁所","address":"彰化縣二林鎮北平里新生路569巷48弄107號","exec":null,"diaper":null},{"country":"10007","city":"10007200","village":"華崙里","number":"N200000159","name":"慈恩休閒農場-(餐廳)男廁","administration":"慈恩休閒農場","latitude":"23.950382","longitude":"120.443012","grade":"特優級","type2":"觀光地區及風景區","type":"男廁所","address":"彰化縣二林鎮華崙里光復路61巷40號","exec":null,"diaper":null},{"country":"10007","city":"10007200","village":"北平里","number":"N200000158","name":"金喜休閒農場-男廁","administration":"農業部","latitude":"23.914328","longitude":"120.369004","grade":"特優級","type2":"觀光地區及風景區","type":"男廁所","address":"彰化縣二林鎮北平里新生路569巷48弄107號","exec":null,"diaper":null},{"country":"10007","city":"10007200","village":"華崙里","number":"N200000157","name":"慈恩休閒農場-(餐廳)女廁","administration":"慈恩休閒農場","latitude":"23.950382","longitude":"120.443012","grade":"特優級","type2":"觀光地區及風景區","type":"女廁所","address":"彰化縣二林鎮華崙里光復路61巷40號","exec":null,"diaper":null},{"country":"10007","city":"10007130","village":"村上村","number":"N130000154","name":"大村火車站-無障礙廁所","administration":"大村火車站","latitude":"23.990057","longitude":"120.56065","grade":"特優級","type2":"交通","type":"無障礙廁所","address":"彰化縣大村鄉村上村福進路100號","exec":null,"diaper":null},{"country":"10007","city":"10007200","village":"西平里","number":"N200000155","name":"二林鎮第一公有零售市場","administration":"二林鎮第一公有零售市場","latitude":"23.900113","longitude":"120.367733","grade":"特優級","type2":"商業營業場所","type":"混合廁所","address":"彰化縣二林鎮西平里儒林路二段433號","exec":null,"diaper":null},{"country":"10007","city":"10007150","village":"太平村","number":"N150000105","name":"埔心鄉公園-女廁","administration":"埔心鄉公所","latitude":"23.93758466","longitude":"120.5528541","grade":"特優級","type2":"公園","type":"女廁所","address":"彰化縣埔心鄉太平村太平西段 76地號","exec":null,"diaper":null},{"country":"10007","city":"10007160","village":"崙子村","number":"N160000096","name":"永靖火車站無障礙廁所","administration":"永靖火車站","latitude":"23.928609","longitude":"120.57149","grade":"特優級","type2":"交通","type":"無障礙廁所","address":"彰化縣永靖鄉崙子村永崙路25號","exec":null,"diaper":null},{"country":"10007","city":"10007160","village":"崙子村","number":"N160000095","name":"永靖火車站女廁","administration":"永靖火車站","latitude":"23.928609","longitude":"120.57149","grade":"特優級","type2":"交通","type":"女廁所","address":"彰化縣永靖鄉崙子村永崙路25號","exec":null,"diaper":null},{"country":"10007","city":"10007160","village":"崙子村","number":"N160000094","name":"永靖火車站男廁","administration":"彰化火車站","latitude":"23.928609","longitude":"120.57149","grade":"特優級","type2":"交通","type":"男廁所","address":"彰化縣永靖鄉崙子村永崙路25號","exec":null,"diaper":null},{"country":"10007","city":"10007200","village":"北平里","number":"N200000154","name":"二林鎮公有零售市場新生區","administration":"二林鎮公有零售市場","latitude":"23.903079","longitude":"120.368143","grade":"特優級","type2":"商業營業場所","type":"混合廁所","address":"彰化縣二林鎮北平里新生路168號","exec":null,"diaper":null},{"country":"10007","city":"10007150","village":"義民村","number":"N150000032","name":"埔心衛生所女廁","administration":"縣市政府","latitude":"23.95301843","longitude":"120.5439448","grade":"特優級","type2":"民眾洽公場所","type":"女廁所","address":"埔心鄉義民村員鹿路二段340號","exec":null,"diaper":null},{"country":"10007","city":"10007060","village":"同安村","number":"N060000116","name":"福安宮女廁","administration":"福安宮","latitude":"24.02973817","longitude":"120.4412699","grade":"特優級","type2":"宗教禮儀場所","type":"女廁所","address":"彰化縣福興鄉同安村員鹿路220號","exec":null,"diaper":null},{"country":"10007","city":"10007090","village":"社口村","number":"N090000045","name":"芬園鄉公所4F-男廁","administration":"芬園鄉公所","latitude":"24.013718","longitude":"120.629031","grade":"特優級","type2":"民眾洽公場所","type":"男廁所","address":"彰化縣芬園鄉社口村芬草路300號","exec":null,"diaper":null},{"country":"10007","city":"10007090","village":"社口村","number":"N090000044","name":"芬園鄉公所3F-男廁","administration":"芬園鄉公所","latitude":"24.013718","longitude":"120.629031","grade":"特優級","type2":"民眾洽公場所","type":"男廁所","address":"彰化縣芬園鄉社口村芬草路300號","exec":null,"diaper":null},{"country":"10007","city":"10007090","village":"社口村","number":"N090000043","name":"芬園鄉公所2F-男廁","administration":"芬園鄉公所","latitude":"24.013718","longitude":"120.629031","grade":"特優級","type2":"民眾洽公場所","type":"男廁所","address":"彰化縣芬園鄉社口村芬草路300號","exec":null,"diaper":null},{"country":"10007","city":"10007020","village":"頂厝里","number":"N020000062","name":"自來水公司女廁","administration":"自來水公司","latitude":"24.061187","longitude":"120.44277","grade":"特優級","type2":"民眾洽公場所","type":"女廁所","address":"彰化縣鹿港鎮頂厝里鹿和路一段184號","exec":null,"diaper":null},{"country":"10007","city":"10007020","village":"埔崙里","number":"N020000059","name":"鹿港體育場女廁","administration":"鹿港鎮公所","latitude":"24.0610618","longitude":"120.4361415","grade":"特優級","type2":"文化育樂活動場所","type":"女廁所","address":"彰化縣鹿港鎮埔崙里中正路531號","exec":null,"diaper":null},{"country":"10007","city":"10007020","village":"東崎里","number":"N020000045","name":"鹿港基督教醫院長青院區北側(女)","administration":"鹿港基督教醫院","latitude":"24.05726065","longitude":"120.4713965","grade":"特優級","type2":"社福機構、集會場所","type":"女廁所","address":"彰化縣鹿港鎮東崎里鹿東路二段888號","exec":null,"diaper":null},{"country":"10007","city":"10007020","village":"東崎里","number":"N020000044","name":"鹿港基督教醫院長青院區南側(女)","administration":"鹿港基督教醫院","latitude":"24.05671202","longitude":"120.4710531","grade":"特優級","type2":"社福機構、集會場所","type":"女廁所","address":"彰化縣鹿港鎮東崎里鹿東路二段888號","exec":null,"diaper":null},{"country":"10007","city":"10007060","village":"同安村","number":"N060000114","name":"萊爾富彰縣番花店","administration":"萊爾富彰縣番花店","latitude":"24.02699932","longitude":"120.441817","grade":"特優級","type2":"商業營業場所","type":"混合廁所","address":"彰化縣福興鄉同安村番花路2段867號","exec":null,"diaper":null},{"country":"10007","city":"10007060","village":"福興村","number":"N060000098","name":"7-ELEVEN龍舟門市","administration":"統一超商龍舟門市","latitude":"24.046621","longitude":"120.436485","grade":"特優級","type2":"商業營業場所","type":"混合廁所","address":"彰化縣福興鄉福興村龍舟路51號","exec":null,"diaper":null},{"country":"10007","city":"10007060","village":"橋頭村","number":"N060000045","name":"福興鄉立圖書館-混合廁所","administration":"福興鄉公所","latitude":"24.04813444","longitude":"120.4439177","grade":"特優級","type2":"文化育樂活動場所","type":"混合廁所","address":"彰化縣福興鄉橋頭村彰鹿路7段495號","exec":null,"diaper":null},{"country":"10007","city":"10007100","village":"中正里","number":"N100000015","name":"皓生醫院女廁","administration":"皓生醫院","latitude":"23.9591087","longitude":"120.570871","grade":"特優級","type2":"社福機構、集會場所","type":"女廁所","address":"彰化縣員林市中正里萬年路3段133號","exec":null,"diaper":null},{"country":"10007","city":"10007100","village":"中正里","number":"N100000024","name":"員林市立圖書館一館-無障礙廁所","administration":"員林市公所","latitude":"23.9590363","longitude":"120.5723961","grade":"特優級","type2":"文化育樂活動場所","type":"無障礙廁所","address":"彰化縣員林市中正里三民街2之1號","exec":null,"diaper":null},{"country":"10007","city":"10007100","village":"中正里","number":"N100000023","name":"員林市立圖書館一館女廁","administration":"員林市公所","latitude":"23.9590363","longitude":"120.5723961","grade":"特優級","type2":"文化育樂活動場所","type":"女廁所","address":"彰化縣員林市中正里三民街2之1號","exec":null,"diaper":null},{"country":"10007","city":"10007100","village":"中正里","number":"N100000038","name":"員林市公所1樓女廁","administration":"員林市公所","latitude":"23.9590654","longitude":"120.5716977","grade":"特優級","type2":"民眾洽公場所","type":"女廁所","address":"彰化縣員林市中正里三民街18號","exec":null,"diaper":null},{"country":"10007","city":"10007260","village":"溪州村","number":"N260000039","name":"溪州公園06-女廁","administration":"彰化縣政府","latitude":"23.841076","longitude":"120.495833","grade":"特優級","type2":"公園","type":"女廁所","address":"彰化縣溪州鄉溪州村中央路三段138號","exec":null,"diaper":null},{"country":"10007","city":"10007260","village":"溪州村","number":"N260000038","name":"溪州公園05-女廁","administration":"縣市政府","latitude":"23.841076","longitude":"120.495833","grade":"特優級","type2":"公園","type":"女廁所","address":"彰化縣溪州鄉溪州村中央路三段138號","exec":null,"diaper":null},{"country":"10007","city":"10007260","village":"溪州村","number":"N260000037","name":"溪州公園04-女廁","administration":"彰化縣政府","latitude":"23.841076","longitude":"120.495833","grade":"特優級","type2":"公園","type":"女廁所","address":"彰化縣溪州鄉溪州村中央路三段138號","exec":null,"diaper":null},{"country":"10007","city":"10007260","village":"溪州村","number":"N260000036","name":"溪州公園03-女廁","administration":"彰化縣政府","latitude":"23.841076","longitude":"120.495833","grade":"特優級","type2":"公園","type":"女廁所","address":"彰化縣溪州鄉溪州村中央路三段138號","exec":null,"diaper":null},{"country":"10007","city":"10007260","village":"溪州村","number":"N260000035","name":"溪州公園02-女廁","administration":"彰化縣政府","latitude":"23.841076","longitude":"120.495833","grade":"特優級","type2":"公園","type":"女廁所","address":"彰化縣溪州鄉溪州村中央路三段138號","exec":null,"diaper":null},{"country":"10007","city":"10007120","village":"頂潭里","number":"N120000023","name":"晉天宮(女廁)","administration":"晉天宮","latitude":"23.872136","longitude":"120.589545","grade":"特優級","type2":"宗教禮儀場所","type":"女廁所","address":"彰化縣田中鎮頂潭里崁頂路153號","exec":null,"diaper":null},{"country":"10007","city":"10007120","village":"中潭里","number":"N120000032","name":"天峯寺(女廁)","administration":"天峯寺","latitude":"23.867184","longitude":"120.584265","grade":"特優級","type2":"宗教禮儀場所","type":"女廁所","address":"彰化縣田中鎮中潭里員集路3段125巷175號","exec":null,"diaper":null},{"country":"10007","city":"10007090","village":"社口村","number":"N090000049","name":"芬園鄉公所4F-女廁","administration":"芬園鄉公所","latitude":"24.013718","longitude":"120.629031","grade":"特優級","type2":"民眾洽公場所","type":"女廁所","address":"彰化縣芬園鄉社口村芬草路300號","exec":null,"diaper":null},{"country":"10007","city":"10007090","village":"社口村","number":"N090000048","name":"芬園鄉公所3F-女廁","administration":"芬園鄉公所","latitude":"24.013718","longitude":"120.629031","grade":"特優級","type2":"民眾洽公場所","type":"女廁所","address":"彰化縣芬園鄉社口村芬草路300號","exec":null,"diaper":null},{"country":"10007","city":"10007090","village":"社口村","number":"N090000047","name":"芬園鄉公所2F-女廁","administration":"芬園鄉公所","latitude":"24.013718","longitude":"120.629031","grade":"特優級","type2":"民眾洽公場所","type":"女廁所","address":"彰化縣芬園鄉社口村芬草路300號","exec":null,"diaper":null},{"country":"10007","city":"10007090","village":"社口村","number":"N090000046","name":"芬園鄉公所1F-女廁","administration":"芬園鄉公所","latitude":"24.013718","longitude":"120.629031","grade":"特優級","type2":"民眾洽公場所","type":"女廁所","address":"彰化縣芬園鄉社口村芬草路300號","exec":null,"diaper":null},{"country":"10007","city":"10007150","village":"埔心村","number":"N150000009","name":"7-11紫騰店","administration":"7-11紫騰店","latitude":"23.949687","longitude":"120.531167","grade":"特優級","type2":"商業營業場所","type":"混合廁所","address":"彰化縣埔心鄉埔心村員鹿路3段338號","exec":null,"diaper":null},{"country":"10007","city":"10007220","village":"埤頭村","number":"N220000005","name":"7-11興鳳店","administration":"統一超商興鳳門市","latitude":"23.88951723","longitude":"120.4742793","grade":"特優級","type2":"商業營業場所","type":"混合廁所","address":"彰化縣埤頭鄉埤頭村斗苑東路731號","exec":null,"diaper":null},{"country":"10007","city":"10007190","village":"重慶里","number":"N190000024","name":"全家寶斗店","administration":"全家寶斗店","latitude":"23.87204","longitude":"120.523717","grade":"特優級","type2":"商業營業場所","type":"混合廁所","address":"彰化縣北斗鎮重慶里斗苑路一段193號","exec":null,"diaper":null},{"country":"10007","city":"10007060","village":"福寶村","number":"N060000089","name":"福寶社區活動中心(無障礙廁)","administration":"福寶社區活動中心","latitude":"24.041627","longitude":"120.412253","grade":"特優級","type2":"社福機構、集會場所","type":"無障礙廁所","address":"彰化縣福興鄉福寶村新生路24-10號","exec":null,"diaper":null},{"country":"10007","city":"10007060","village":"福寶村","number":"N060000088","name":"福寶社區活動中心(女廁)","administration":"福寶社區活動中心","latitude":"24.041627","longitude":"120.412253","grade":"特優級","type2":"社福機構、集會場所","type":"女廁所","address":"彰化縣福興鄉福寶村新生路24-10號","exec":null,"diaper":null},{"country":"10007","city":"10007060","village":"福寶村","number":"N060000087","name":"福寶社區活動中心(男廁)","administration":"福寶社區活動中心","latitude":"24.041627","longitude":"120.412253","grade":"特優級","type2":"社福機構、集會場所","type":"男廁所","address":"彰化縣福興鄉福寶村新生路24-10號","exec":null,"diaper":null},{"country":"10007","city":"10007060","village":"外中村","number":"N060000025","name":"福興消防分隊女廁","administration":"福興消防隊","latitude":"24.01668522","longitude":"120.4675448","grade":"特優級","type2":"民眾洽公場所","type":"女廁所","address":"彰化縣福興鄉外中村復興路33號","exec":null,"diaper":null},{"country":"10007","city":"10007060","village":"外中村","number":"N060000026","name":"外中派出所公廁","administration":"外中派出所","latitude":"24.01814542","longitude":"120.4718149","grade":"特優級","type2":"民眾洽公場所","type":"混合廁所","address":"彰化縣福興鄉外中村外中街237號","exec":null,"diaper":null},{"country":"10007","city":"10007060","village":"外中村","number":"N060000024","name":"福興消防分隊男廁","administration":"福興消防隊","latitude":"24.01780242","longitude":"120.472008","grade":"特優級","type2":"民眾洽公場所","type":"男廁所","address":"彰化縣福興鄉外中村復興路33號","exec":null,"diaper":null},{"country":"10007","city":"10007080","village":"中口村","number":"N080000030","name":"台亞加油站","administration":"台塑企業","latitude":"24.041215","longitude":"120.535002","grade":"特優級","type2":"商業營業場所","type":"混合廁所","address":"彰化縣花壇鄉中口村中山路二段542號","exec":null,"diaper":null},{"country":"10007","city":"10007250","village":"竹塘村","number":"N250000034","name":"竹塘鄉立圖書館男廁","administration":"竹塘鄉公所","latitude":"23.86056","longitude":"120.42772","grade":"特優級","type2":"文化育樂活動場所","type":"男廁所","address":"彰化縣竹塘鄉竹塘村竹林路一段","exec":null,"diaper":null},{"country":"10007","city":"10007030","village":"和東里","number":"N030000027","name":"和美衛生所","administration":"和美鎮衛生所","latitude":"24.11085816","longitude":"120.4993397","grade":"特優級","type2":"民眾洽公場所","type":"混合廁所","address":"彰化縣和美鎮和東里彰美路五段319號","exec":null,"diaper":null},{"country":"10007","city":"10007030","village":"和北里","number":"N030000039","name":"和美消防隊","administration":"和美消防隊","latitude":"24.117387","longitude":"120.498654","grade":"特優級","type2":"民眾洽公場所","type":"混合廁所","address":"彰化縣和美鎮和北里德美路520號","exec":null,"diaper":null},{"country":"10007","city":"10007050","village":"新港村","number":"N050000048","name":"伸港鄉立圖書館1樓無障礙廁所","administration":"伸港鄉立圖書館","latitude":"24.14505011","longitude":"120.4852474","grade":"特優級","type2":"文化育樂活動場所","type":"無障礙廁所","address":"彰化縣伸港鄉新港村中正路89號","exec":null,"diaper":null},{"country":"10007","city":"10007150","village":"義民村","number":"N150000022","name":"埔心鄉立圖書館1樓","administration":"埔心鄉立圖書館","latitude":"23.95317531","longitude":"120.5435371","grade":"特優級","type2":"文化育樂活動場所","type":"女廁所","address":"彰化縣埔心鄉義民村員鹿路2段328號","exec":null,"diaper":null},{"country":"10007","city":"10007130","village":"大橋村","number":"N130000102","name":"大村鄉立圖書館1樓","administration":"彰化縣大村鄉公所","latitude":"23.99739736","longitude":"120.5472493","grade":"特優級","type2":"文化育樂活動場所","type":"混合廁所","address":"彰化縣大村鄉大橋村慶安路429巷25號","exec":null,"diaper":null},{"country":"10007","city":"10007120","village":"三民里","number":"N120000131","name":"泰峰加油站","administration":"泰峰加油站","latitude":"23.86950309","longitude":"120.5570877","grade":"特優級","type2":"商業營業場所","type":"混合廁所","address":"彰化縣田中鎮三民里中州路二段637號","exec":null,"diaper":null},{"country":"10007","city":"10007140","village":"好修村","number":"N140000028","name":"埔鹽站男廁","administration":"台灣中油公司埔鹽站","latitude":"24.007323","longitude":"120.459695","grade":"特優級","type2":"商業營業場所","type":"男廁所","address":"彰化縣埔鹽鄉好修村員鹿路二段99號","exec":null,"diaper":null},{"country":"10007","city":"10007100","village":"忠孝里","number":"N100000344","name":"員東路站男廁","administration":"台灣中油公司員東路站","latitude":"23.9577814","longitude":"120.5767727","grade":"特優級","type2":"商業營業場所","type":"男廁所","address":"彰化縣員林市忠孝里員東路二段413號","exec":null,"diaper":null},{"country":"10007","city":"10007170","village":"里仁村","number":"N170000102","name":"員村員集路站","administration":"員村員集路站","latitude":"23.87975538","longitude":"120.5871177","grade":"特優級","type2":"商業營業場所","type":"混合廁所","address":"彰化縣社頭鄉里仁村員集路一段150號","exec":null,"diaper":null},{"country":"10007","city":"10007170","village":"橋頭村","number":"N170000064","name":"員村社頭站","administration":"員村社頭站","latitude":"23.90899693","longitude":"120.5829871","grade":"特優級","type2":"商業營業場所","type":"混合廁所","address":"彰化縣社頭鄉橋頭村中山路三段72號","exec":null,"diaper":null},{"country":"10007","city":"10007030","village":"鐵山里","number":"N030000127","name":"員村和美站","administration":"員村加油站股份有限公司","latitude":"24.102461","longitude":"120.517915","grade":"特優級","type2":"商業營業場所","type":"混合廁所","address":"彰化縣和美鎮鐵山里彰美路三段355號","exec":null,"diaper":null},{"country":"10007","city":"10007070","village":"安東村","number":"N070000012","name":"勝美加油站","administration":"勝美加油站","latitude":"24.037937","longitude":"120.502743","grade":"特優級","type2":"商業營業場所","type":"混合廁所","address":"彰化縣秀水鄉安東村彰水路一段489號","exec":null,"diaper":null},{"country":"10007","city":"10007110","village":"大竹里","number":"N110000070","name":"台糖糖友站","administration":"台糖糖友站","latitude":"23.952589","longitude":"120.480731","grade":"特優級","type2":"商業營業場所","type":"混合廁所","address":"彰化縣溪湖鎮大竹里彰水路二段820號","exec":null,"diaper":null},{"country":"10007","city":"10007120","village":"新庄里","number":"N120000116","name":"隆億加油站","administration":"隆億加油站","latitude":"23.858832","longitude":"120.595823","grade":"特優級","type2":"商業營業場所","type":"混合廁所","address":"彰化縣田中鎮新庄里東閔路二段389號","exec":null,"diaper":null},{"country":"10007","city":"10007200","village":"豐田里","number":"N200000067","name":"台糖儒林站","administration":"台糖儒林站","latitude":"23.899897","longitude":"120.374971","grade":"特優級","type2":"商業營業場所","type":"混合廁所","address":"彰化縣二林鎮豐田里仁愛路175號","exec":null,"diaper":null},{"country":"10007","city":"10007050","village":"大同村","number":"N050000058","name":"新港加油站","administration":"新港加油站","latitude":"24.159888","longitude":"120.485776","grade":"特優級","type2":"商業營業場所","type":"混合廁所","address":"彰化縣伸港鄉大同村建國路33號","exec":null,"diaper":null},{"country":"10007","city":"10007230","village":"新寶村","number":"N230000062","name":"新寶加油站","administration":"經濟部","latitude":"23.975769","longitude":"120.352736","grade":"特優級","type2":"商業營業場所","type":"混合廁所","address":"彰化縣芳苑鄉新寶村中正路382-1號","exec":null,"diaper":null},{"country":"10007","city":"10007200","village":"萬興里","number":"N200000112","name":"台糖萬興站　","administration":"經濟部","latitude":"23.956783","longitude":"120.416219","grade":"特優級","type2":"商業營業場所","type":"混合廁所","address":"彰化縣二林鎮萬興里二溪路六段539號","exec":null,"diaper":null},{"country":"10007","city":"10007260","village":"坑厝村","number":"N260000040","name":"中油溪州站男廁","administration":"台灣中油","latitude":"23.85092917","longitude":"120.4794645","grade":"特優級","type2":"商業營業場所","type":"男廁所","address":"彰化縣溪州鄉坑厝村中山路三段6號","exec":null,"diaper":null},{"country":"10007","city":"10007010","village":"崙平里","number":"N010000674","name":"南北管音樂戲曲館地下室(女廁)","administration":"縣市政府","latitude":"24.069223","longitude":"120.530343","grade":"特優級","type2":"文化育樂活動場所","type":"女廁所","address":"彰化縣彰化市崙平里平和7街66號","exec":null,"diaper":null},{"country":"10007","city":"10007010","village":"崙平里","number":"N010000673","name":"南北管音樂戲曲館2樓(女廁)","administration":"縣市政府","latitude":"24.070874","longitude":"120.532345","grade":"特優級","type2":"文化育樂活動場所","type":"女廁所","address":"彰化縣彰化市崙平里平和7街66號","exec":null,"diaper":null},{"country":"10007","city":"10007010","village":"崙平里","number":"N010000672","name":"南北管音樂戲曲館1樓(女廁)","administration":"縣市政府","latitude":"24.070874","longitude":"120.532345","grade":"特優級","type2":"文化育樂活動場所","type":"女廁所","address":"彰化縣彰化市崙平里平和7街66號","exec":null,"diaper":null},{"country":"10007","city":"10007010","village":"介壽里","number":"N010000475","name":"彰化縣體育館3樓側門(女廁)","administration":"縣市政府","latitude":"24.067318","longitude":"120.551886","grade":"特優級","type2":"民眾洽公場所","type":"女廁所","address":"彰化縣彰化市介壽里健興路1號","exec":null,"diaper":null},{"country":"10007","city":"10007010","village":"介壽里","number":"N010000474","name":"彰化縣體育館2樓側門(女廁)","administration":"縣市政府","latitude":"24.067318","longitude":"120.551886","grade":"特優級","type2":"民眾洽公場所","type":"女廁所","address":"彰化縣彰化市介壽里健興路1號","exec":null,"diaper":null},{"country":"10007","city":"10007140","village":"好修村","number":"N140000045","name":"埔鹽鄉立圖書館2樓(女廁)","administration":"埔鹽鄉公所","latitude":"24.000519","longitude":"120.463235","grade":"特優級","type2":"文化育樂活動場所","type":"女廁所","address":"彰化縣埔鹽鄉好修村員鹿路二段60號","exec":null,"diaper":null},{"country":"10007","city":"10007140","village":"好修村","number":"N140000032","name":"福懋埔鹽加油站(女廁)","administration":"福懋埔鹽加油站","latitude":"24.002056","longitude":"120.462085","grade":"特優級","type2":"商業營業場所","type":"女廁所","address":"彰化縣埔鹽鄉好修村員鹿路二段96號","exec":null,"diaper":null},{"country":"10007","city":"10007140","village":"好修村","number":"N140000055","name":"埔鹽鄉公所-前棟(女廁)","administration":"埔鹽鄉公所","latitude":"24.000631","longitude":"120.463059","grade":"特優級","type2":"民眾洽公場所","type":"女廁所","address":"彰化縣埔鹽鄉好修村中正路192號","exec":null,"diaper":null},{"country":"10007","city":"10007140","village":"好修村","number":"N140000044","name":"埔鹽鄉立圖書館1樓(女廁)","administration":"埔鹽鄉公所","latitude":"24.000519","longitude":"120.463235","grade":"特優級","type2":"文化育樂活動場所","type":"女廁所","address":"彰化縣埔鹽鄉好修村員鹿路二段60號","exec":null,"diaper":null},{"country":"10007","city":"10007120","village":"龍潭里","number":"N120000034","name":"彰化高鐵站2樓男廁","administration":"交通部","latitude":"23.873788","longitude":"120.574535","grade":"特優級","type2":"交通","type":"男廁所","address":"彰化縣田中鎮龍潭里站區路二段99號","exec":null,"diaper":null},{"country":"10007","city":"10007120","village":"龍潭里","number":"N120000033","name":"彰化高鐵站1樓男廁","administration":"交通部","latitude":"23.87585078","longitude":"120.5731058","grade":"特優級","type2":"交通","type":"男廁所","address":"彰化縣田中鎮龍潭里站區路二段99號","exec":null,"diaper":null},{"country":"10007","city":"10007010","village":"中山里","number":"N010000181","name":"八卦山大佛6號公廁-男廁","administration":"彰化縣政府城觀處","latitude":"24.08001595","longitude":"120.5497287","grade":"特優級","type2":"觀光地區及風景區","type":"男廁所","address":"彰化縣彰化市中山里卦山路","exec":null,"diaper":null},{"country":"10007","city":"10007020","village":"永安里","number":"N020000220","name":"星巴克鹿港門市","administration":"縣市政府","latitude":"24.060656","longitude":"120.437849","grade":"特優級","type2":"商業營業場所","type":"混合廁所","address":"彰化縣鹿港鎮永安里中正路512號","exec":null,"diaper":null},{"country":"10007","city":"10007040","village":"寓埔村","number":"N040000016","name":"統一超商禾順門市-男廁","administration":"統一超商禾順門市","latitude":"24.13392","longitude":"120.462734","grade":"特優級","type2":"商業營業場所","type":"男廁所","address":"彰化縣線西鄉寓埔村沿海路一段849巷10號","exec":null,"diaper":null},{"country":"10007","city":"10007260","village":"溪州村","number":"N260000047","name":"統一超商(花博店)","administration":"私人","latitude":"23.849993","longitude":"120.494609","grade":"特優級","type2":"商業營業場所","type":"混合廁所","address":"彰化縣溪州鄉溪州村中央路三段263號.265號.267號","exec":null,"diaper":null},{"country":"10007","city":"10007100","village":"鎮興里","number":"N100000288","name":"全家便利商店 新員山","administration":"全家便利商店 新員山","latitude":"23.9626666","longitude":"120.6006208","grade":"特優級","type2":"商業營業場所","type":"混合廁所","address":"彰化縣員林市鎮興里山腳路三段269號","exec":null,"diaper":null},{"country":"10007","city":"10007030","village":"鐵山里","number":"N030000131","name":"萊爾富黃蓉店","administration":"萊爾富國際股份有限公司","latitude":"24.10095","longitude":"120.521449","grade":"特優級","type2":"商業營業場所","type":"混合廁所","address":"彰化縣和美鎮鐵山里線東路3段496.498號","exec":null,"diaper":null},{"country":"10007","city":"10007100","village":"大饒里","number":"N100000223","name":"員林演藝廳1F前台 女廁","administration":"縣市政府","latitude":"23.9494347","longitude":"120.5788457","grade":"特優級","type2":"文化育樂活動場所","type":"女廁所","address":"彰化縣員林市大饒里員林大道二段99號","exec":null,"diaper":null},{"country":"10007","city":"10007100","village":"大饒里","number":"N100000222","name":"員林演藝廳1F前台 男廁","administration":"縣市政府","latitude":"23.94951314","longitude":"120.5789745","grade":"特優級","type2":"文化育樂活動場所","type":"男廁所","address":"彰化縣員林市大饒里員林大道二段99號","exec":null,"diaper":null},{"country":"10007","city":"10007160","village":"永西村","number":"N160000093","name":"永靖鄉衛生所男廁","administration":"永靖衛生所","latitude":"23.925035","longitude":"120.547668","grade":"特優級","type2":"民眾洽公場所","type":"男廁所","address":"彰化縣永靖鄉永西村西興路91號","exec":null,"diaper":null},{"country":"10007","city":"10007160","village":"永西村","number":"N160000092","name":"永靖鄉衛生所女廁","administration":"永靖衛生所","latitude":"23.925035","longitude":"120.547668","grade":"特優級","type2":"民眾洽公場所","type":"女廁所","address":"彰化縣永靖鄉永西村西興路91號","exec":null,"diaper":null},{"country":"10007","city":"10007080","village":"花壇村","number":"N080000009","name":"全家正花店","administration":"全家正花店","latitude":"24.02390763","longitude":"120.541563","grade":"特優級","type2":"商業營業場所","type":"混合廁所","address":"彰化縣花壇鄉花壇村中山路一段380號","exec":null,"diaper":null},{"country":"10007","city":"10007100","village":"林厝里","number":"N100000263","name":"萊爾富(山腳店)","administration":"萊爾富(山腳店)","latitude":"23.9358277","longitude":"120.5998648","grade":"特優級","type2":"商業營業場所","type":"混合廁所","address":"彰化縣員林市林厝里山腳路一段34號","exec":null,"diaper":null},{"country":"10007","city":"10007180","village":"裕民村","number":"N180000027","name":"二水鄉公所3F(男廁)","administration":"二水鄉公所","latitude":"23.806626","longitude":"120.618984","grade":"特優級","type2":"民眾洽公場所","type":"男廁所","address":"彰化縣二水鄉裕民村南通路2段764號","exec":null,"diaper":null},{"country":"10007","city":"10007180","village":"裕民村","number":"N180000026","name":"二水鄉公所2F(女廁)","administration":"二水鄉公所","latitude":"23.806626","longitude":"120.618984","grade":"特優級","type2":"民眾洽公場所","type":"女廁所","address":"彰化縣二水鄉裕民村南通路2段764號","exec":null,"diaper":null},{"country":"10007","city":"10007180","village":"裕民村","number":"N180000025","name":"二水鄉公所2F(男廁)","administration":"二水鄉公所","latitude":"23.806626","longitude":"120.618984","grade":"特優級","type2":"民眾洽公場所","type":"男廁所","address":"彰化縣二水鄉裕民村南通路2段764號","exec":null,"diaper":null},{"country":"10007","city":"10007180","village":"裕民村","number":"N180000024","name":"二水鄉公所1F(女廁)","administration":"二水鄉公所","latitude":"23.806626","longitude":"120.618984","grade":"特優級","type2":"民眾洽公場所","type":"女廁所","address":"彰化縣二水鄉裕民村南通路2段764號","exec":null,"diaper":null},{"country":"10007","city":"10007070","village":"莊雅村","number":"N070000053","name":"衛生所(女廁)","administration":"秀水衛生所","latitude":"24.03833434","longitude":"120.5073237","grade":"特優級","type2":"民眾洽公場所","type":"女廁所","address":"彰化縣秀水鄉莊雅村中山路99號","exec":null,"diaper":null},{"country":"10007","city":"10007070","village":"安東村","number":"N070000052","name":"秀水體育館(女廁)","administration":"秀水鄉公所","latitude":"24.036176","longitude":"120.503624","grade":"特優級","type2":"文化育樂活動場所","type":"女廁所","address":"彰化縣秀水鄉安東村瓦瑤街17號","exec":null,"diaper":null},{"country":"10007","city":"10007070","village":"福安村","number":"N070000074","name":"秀水公園(女廁)","administration":"秀水鄉公所","latitude":"24.029682","longitude":"120.499167","grade":"特優級","type2":"公園","type":"女廁所","address":"彰化縣秀水鄉福安村復新街7號","exec":null,"diaper":null},{"country":"10007","city":"10007070","village":"安東村","number":"N070000051","name":"秀水鄉公所(女廁)","administration":"秀水鄉公所","latitude":"24.035423","longitude":"120.50297","grade":"特優級","type2":"民眾洽公場所","type":"女廁所","address":"彰化縣秀水鄉安東村中山路290號","exec":null,"diaper":null},{"country":"10007","city":"10007010","village":"光復里","number":"N010000096","name":"彰化市公所後棟2F(女廁)","administration":"彰化市公所","latitude":"24.080886","longitude":"120.542188","grade":"特優級","type2":"民眾洽公場所","type":"女廁所","address":"彰化縣彰化市光復里光復路74號","exec":null,"diaper":null},{"country":"10007","city":"10007010","village":"卦山里","number":"N010000242","name":"八卦山9號公廁(女廁)","administration":"縣市政府","latitude":"24.078378","longitude":"120.546167","grade":"特優級","type2":"觀光地區及風景區","type":"女廁所","address":"彰化縣彰化市卦山里卦山路","exec":null,"diaper":null},{"country":"10007","city":"10007010","village":"卦山里","number":"N010000241","name":"八卦山脈生態遊客中心(女廁)","administration":"縣市政府","latitude":"24.078534","longitude":"120.555682","grade":"特優級","type2":"觀光地區及風景區","type":"女廁所","address":"彰化縣彰化市卦山里卦山路13之7號","exec":null,"diaper":null},{"country":"10007","city":"10007010","village":"卦山里","number":"N010000240","name":"彰化縣水利資源處(無障礙)","administration":"縣市政府","latitude":"24.075827","longitude":"120.554798","grade":"特優級","type2":"民眾洽公場所","type":"無障礙廁所","address":"彰化縣彰化市卦山里公園路一段409號","exec":null,"diaper":null},{"country":"10007","city":"10007010","village":"卦山里","number":"N010000239","name":"彰化縣水利資源處(女廁)","administration":"縣市政府","latitude":"24.075827","longitude":"120.554798","grade":"特優級","type2":"民眾洽公場所","type":"女廁所","address":"彰化縣彰化市卦山里公園路一段409號","exec":null,"diaper":null},{"country":"10007","city":"10007010","village":"成功里","number":"N010000348","name":"彰化縣地方稅務局東側(女廁)","administration":"縣市政府","latitude":"24.070439","longitude":"120.541532","grade":"特優級","type2":"民眾洽公場所","type":"女廁所","address":"彰化縣彰化市成功里中山路2段187號","exec":null,"diaper":null},{"country":"10007","city":"10007010","village":"成功里","number":"N010000347","name":"彰化縣地方稅務局西側(女廁)","administration":"縣市政府","latitude":"24.070439","longitude":"120.541532","grade":"特優級","type2":"民眾洽公場所","type":"女廁所","address":"彰化縣彰化市成功里中山路2段187號","exec":null,"diaper":null},{"country":"10007","city":"10007010","village":"阿夷里","number":"N010000587","name":"彰北國民運動中心4樓廁所(女廁)","administration":"彰北國民運動中心","latitude":"24.093067","longitude":"120.550573","grade":"特優級","type2":"文化育樂活動場所","type":"女廁所","address":"彰化縣彰化市阿夷里建國東路2號","exec":null,"diaper":null},{"country":"10007","city":"10007010","village":"阿夷里","number":"N010000586","name":"彰北國民運動中心3樓廁所(女廁)","administration":"彰北國民運動中心","latitude":"24.093067","longitude":"120.550573","grade":"特優級","type2":"文化育樂活動場所","type":"女廁所","address":"彰化縣彰化市阿夷里建國東路2號","exec":null,"diaper":null},{"country":"10007","city":"10007010","village":"阿夷里","number":"N010000585","name":"彰北國民運動中心2樓廁所(女廁)","administration":"彰北國民運動中心","latitude":"24.093067","longitude":"120.550573","grade":"特優級","type2":"文化育樂活動場所","type":"女廁所","address":"彰化縣彰化市阿夷里建國東路2號","exec":null,"diaper":null},{"country":"10007","city":"10007010","village":"阿夷里","number":"N010000584","name":"彰北國民運動中心1樓廁所(女廁)","administration":"彰北國民運動中心","latitude":"24.093067","longitude":"120.550573","grade":"特優級","type2":"文化育樂活動場所","type":"女廁所","address":"彰化縣彰化市阿夷里建國東路2號","exec":null,"diaper":null},{"country":"10007","city":"10007010","village":"介壽里","number":"N010000473","name":"彰化縣環保局1號(女廁)","administration":"縣市政府","latitude":"24.06707588","longitude":"120.5524694","grade":"特優級","type2":"民眾洽公場所","type":"女廁所","address":"彰化縣彰化市介壽里健興路1號","exec":null,"diaper":null},{"country":"10007","city":"10007100","village":"黎明里","number":"N100000087","name":"員榮醫院1樓女廁","administration":"員榮醫院","latitude":"23.9535198","longitude":"120.5722615","grade":"特優級","type2":"社福機構、集會場所","type":"女廁所","address":"彰化縣員林市黎明里中正路201號","exec":null,"diaper":null},{"country":"10007","city":"10007140","village":"好修村","number":"N140000043","name":"埔鹽鄉鄉立圖書館3樓(女廁)","administration":"埔鹽鄉公所","latitude":"24.000519","longitude":"120.463235","grade":"特優級","type2":"文化育樂活動場所","type":"女廁所","address":"彰化縣埔鹽鄉好修村員鹿路二段60號","exec":null,"diaper":null},{"country":"10007","city":"10007130","village":"大村村","number":"N130000023","name":"員林郭醫院大村分院5樓(女廁)","administration":"員林郭醫院大村分院","latitude":"23.999018","longitude":"120.538972","grade":"特優級","type2":"社福機構、集會場所","type":"女廁所","address":"彰化縣大村鄉大村村田洋橫巷2-9號","exec":null,"diaper":null},{"country":"10007","city":"10007130","village":"大村村","number":"N130000022","name":"員林郭醫院大村分院3樓(女廁)","administration":"員林郭醫院大村分院","latitude":"23.999018","longitude":"120.538972","grade":"特優級","type2":"社福機構、集會場所","type":"女廁所","address":"彰化縣大村鄉大村村田洋橫巷2-9號","exec":null,"diaper":null},{"country":"10007","city":"10007010","village":"阿夷里","number":"N010000582","name":"彰北國民運動中心2樓廁所(男廁)","administration":"彰北國民運動中心","latitude":"24.09284594","longitude":"120.5504165","grade":"特優級","type2":"文化育樂活動場所","type":"男廁所","address":"彰化縣彰化市阿夷里建國東路2號","exec":null,"diaper":null},{"country":"10007","city":"10007010","village":"阿夷里","number":"N010000581","name":"彰北國民運動中心3樓廁所(男廁)","administration":"縣市政府","latitude":"24.0929243","longitude":"120.550395","grade":"特優級","type2":"文化育樂活動場所","type":"男廁所","address":"彰化縣彰化市阿夷里建國東路2號","exec":null,"diaper":null},{"country":"10007","city":"10007010","village":"阿夷里","number":"N010000580","name":"彰北國民運動中心4樓廁所(男廁)","administration":"縣市政府","latitude":"24.09302616","longitude":"120.5503349","grade":"特優級","type2":"文化育樂活動場所","type":"男廁所","address":"彰化縣彰化市阿夷里建國東路2號","exec":null,"diaper":null},{"country":"10007","city":"10007090","village":"茄荖村","number":"N090000050","name":"7-11茄荖門市-混合廁所","administration":"7-11茄荖門市","latitude":"24.01312777","longitude":"120.642693","grade":"特優級","type2":"商業營業場所","type":"混合廁所","address":"彰化縣芬園鄉茄荖村芬草路一段607號","exec":null,"diaper":null},{"country":"10007","city":"10007060","village":"萬豐村","number":"N060000028","name":"全家福利店","administration":"全家福利店","latitude":"24.015377","longitude":"120.487932","grade":"特優級","type2":"商業營業場所","type":"混合廁所","address":"彰化縣福興鄉萬豐村彰水路50、52號","exec":null,"diaper":null},{"country":"10007","city":"10007060","village":"外中村","number":"N060000022","name":"全家番花店","administration":"全家番花店","latitude":"24.019629","longitude":"120.471052","grade":"特優級","type2":"商業營業場所","type":"混合廁所","address":"彰化縣福興鄉外中村番花路1段853號","exec":null,"diaper":null},{"country":"10007","city":"10007060","village":"廈粘村","number":"N060000067","name":"7-ELEVEN管興門市","administration":"統一超商管興門市","latitude":"24.03057","longitude":"120.415015","grade":"特優級","type2":"商業營業場所","type":"混合廁所","address":"彰化縣福興鄉廈粘村沿海路3段286號","exec":null,"diaper":null},{"country":"10007","city":"10007060","village":"橋頭村","number":"N060000042","name":"7-ELEVEN鹿東門市","administration":"統一超商鹿東門市","latitude":"24.05337","longitude":"120.441184","grade":"特優級","type2":"商業營業場所","type":"混合廁所","address":"彰化縣福興鄉橋頭村中正路224號","exec":null,"diaper":null},{"country":"10007","city":"10007060","village":"番婆村","number":"N060000033","name":"7-ELEVEN日新門市","administration":"統一超商日新門市","latitude":"24.045407","longitude":"120.459868","grade":"特優級","type2":"商業營業場所","type":"混合廁所","address":"彰化縣福興鄉番婆村彰鹿路6段547號","exec":null,"diaper":null},{"country":"10007","city":"10007050","village":"七嘉村","number":"N050000090","name":"文德宮","administration":"文德宮","latitude":"24.148296","longitude":"120.494607","grade":"特優級","type2":"宗教禮儀場所","type":"混合廁所","address":"彰化縣伸港鄉七嘉村嘉二路47號","exec":null,"diaper":null},{"country":"10007","city":"10007010","village":"南瑤里","number":"N010000329","name":"彰化縣警察局-西北側一樓(男廁)","administration":"內政部","latitude":"24.065905","longitude":"120.534336","grade":"特優級","type2":"民眾洽公場所","type":"男廁所","address":"彰化縣彰化市南瑤里中正路2段778號","exec":null,"diaper":null},{"country":"10007","city":"10007010","village":"南瑤里","number":"N010000328","name":"彰化縣警察局-東北側一樓(無障礙)","administration":"內政部","latitude":"24.065905","longitude":"120.534336","grade":"特優級","type2":"民眾洽公場所","type":"無障礙廁所","address":"彰化縣彰化市南瑤里中正路2段778號","exec":null,"diaper":null},{"country":"10007","city":"10007010","village":"南瑤里","number":"N010000327","name":"彰化縣警察局-東南側一樓(女廁)","administration":"內政部","latitude":"24.065905","longitude":"120.534336","grade":"特優級","type2":"民眾洽公場所","type":"女廁所","address":"彰化縣彰化市南瑤里中正路2段778號","exec":null,"diaper":null},{"country":"10007","city":"10007010","village":"南瑤里","number":"N010000326","name":"彰化縣警察局-東南側二樓(男廁)","administration":"內政部","latitude":"24.065905","longitude":"120.534336","grade":"特優級","type2":"民眾洽公場所","type":"男廁所","address":"彰化縣彰化市南瑤里中正路2段778號","exec":null,"diaper":null},{"country":"10007","city":"10007010","village":"南瑤里","number":"N010000325","name":"彰化縣警察局-東南側二樓(女廁)","administration":"內政部","latitude":"24.065905","longitude":"120.534336","grade":"特優級","type2":"民眾洽公場所","type":"女廁所","address":"彰化縣彰化市南瑤里中正路2段778號","exec":null,"diaper":null},{"country":"10007","city":"10007010","village":"南瑤里","number":"N010000324","name":"彰化縣警察局-東北側二樓(男廁)","administration":"內政部","latitude":"24.065905","longitude":"120.534336","grade":"特優級","type2":"民眾洽公場所","type":"男廁所","address":"彰化縣彰化市南瑤里中正路2段778號","exec":null,"diaper":null},{"country":"10007","city":"10007010","village":"南瑤里","number":"N010000323","name":"彰化縣警察局-西北側二樓(女廁)","administration":"內政部","latitude":"24.065905","longitude":"120.534336","grade":"特優級","type2":"民眾洽公場所","type":"女廁所","address":"彰化縣彰化市南瑤里中正路2段778","exec":null,"diaper":null},{"country":"10007","city":"10007010","village":"南瑤里","number":"N010000322","name":"彰化縣警察局-西北側二樓(男廁)","administration":"內政部","latitude":"24.065905","longitude":"120.534336","grade":"特優級","type2":"民眾洽公場所","type":"男廁所","address":"彰化縣彰化市南瑤里中正路2段778號","exec":null,"diaper":null},{"country":"10007","city":"10007010","village":"南瑤里","number":"N010000321","name":"彰化縣警察局-西北側三樓(男廁)","administration":"內政部","latitude":"24.065905","longitude":"120.534336","grade":"特優級","type2":"民眾洽公場所","type":"男廁所","address":"彰化縣彰化市南瑤里中正路2段778號","exec":null,"diaper":null},{"country":"10007","city":"10007010","village":"南瑤里","number":"N010000320","name":"彰化縣警察局-西北側三樓(女廁)","administration":"內政部","latitude":"24.065905","longitude":"120.534336","grade":"特優級","type2":"民眾洽公場所","type":"女廁所","address":"彰化縣彰化市南瑤里中正路2段778號","exec":null,"diaper":null},{"country":"10007","city":"10007010","village":"南瑤里","number":"N010000319","name":"彰化縣警察局-東北側三樓(男廁)","administration":"內政部","latitude":"24.065905","longitude":"120.534336","grade":"特優級","type2":"民眾洽公場所","type":"男廁所","address":"彰化縣彰化市南瑤里中正路2段778號","exec":null,"diaper":null},{"country":"10007","city":"10007010","village":"南瑤里","number":"N010000308","name":"彰化縣警察局-東北側六樓(男廁)","administration":"內政部","latitude":"24.065905","longitude":"120.534336","grade":"特優級","type2":"民眾洽公場所","type":"男廁所","address":"彰化縣彰化市南瑤里中正路2段778號","exec":null,"diaper":null},{"country":"10007","city":"10007010","village":"南瑤里","number":"N010000307","name":"彰化縣警察局-東南側六樓(女廁)","administration":"內政部","latitude":"24.065905","longitude":"120.534336","grade":"特優級","type2":"民眾洽公場所","type":"女廁所","address":"彰化縣彰化市南瑤里中正路2段778號","exec":null,"diaper":null},{"country":"10007","city":"10007190","village":"西德里","number":"N190000045","name":"7-11斗金門市","administration":"統一超商斗金門市","latitude":"23.871196","longitude":"120.522124","grade":"特優級","type2":"商業營業場所","type":"混合廁所","address":"彰化縣北斗鎮西德里中正路57號","exec":null,"diaper":null},{"country":"10007","city":"10007190","village":"文昌里","number":"N190000040","name":"7-11寶斗門市","administration":"統一超商寶斗門市","latitude":"23.878398","longitude":"120.527975","grade":"特優級","type2":"商業營業場所","type":"混合廁所","address":"彰化縣北斗鎮文昌里復興路281號","exec":null,"diaper":null},{"country":"10007","city":"10007020","village":"景福里","number":"N020000217","name":"7-11鹿鑫店","administration":"7-11鹿鑫店","latitude":"24.056331","longitude":"120.437776","grade":"特優級","type2":"商業營業場所","type":"混合廁所","address":"彰化縣鹿港鎮景福里復興路289號291號293號","exec":null,"diaper":null},{"country":"10007","city":"10007020","village":"廖厝里","number":"N020000163","name":"全家柑仔店","administration":"經濟部","latitude":"24.083197","longitude":"120.475793","grade":"特優級","type2":"","type":"混合廁所","address":"彰化縣鹿港鎮鹿和路三段423號","exec":null,"diaper":null},{"country":"10007","city":"10007020","village":"海埔里","number":"N020000067","name":"7-11鹿濱店","administration":"7-11鹿濱店","latitude":"24.07561","longitude":"120.420379","grade":"特優級","type2":"商業營業場所","type":"混合廁所","address":"彰化縣鹿港鎮海埔里彰濱五路二段392號","exec":null,"diaper":null},{"country":"10007","city":"10007020","village":"中興里","number":"N020000022","name":"7-11鹿港店","administration":"7-11鹿港店","latitude":"24.055827","longitude":"120.433892","grade":"特優級","type2":"商業營業場所","type":"混合廁所","address":"彰化縣鹿港鎮中興里中山路257號","exec":null,"diaper":null},{"country":"10007","city":"10007020","village":"頂番里","number":"N020000156","name":"7-11頂番店","administration":"經濟部","latitude":"24.08723","longitude":"120.480166","grade":"特優級","type2":"","type":"混合廁所","address":"彰化縣鹿港鎮頂草路一段61號","exec":null,"diaper":null},{"country":"10007","city":"10007020","village":"頂番里","number":"N020000155","name":"7-11頂王店","administration":"7-11頂王店","latitude":"24.090871","longitude":"120.476997","grade":"特優級","type2":"商業營業場所","type":"混合廁所","address":"彰化縣鹿港鎮頂番里頂草路二段135號","exec":null,"diaper":null},{"country":"10007","city":"10007020","village":"海埔里","number":"N020000066","name":"7-11風車店","administration":"7-11風車店","latitude":"24.072066","longitude":"120.430234","grade":"特優級","type2":"商業營業場所","type":"混合廁所","address":"彰化縣鹿港鎮海埔里彰濱五路二段76號","exec":null,"diaper":null},{"country":"10007","city":"10007030","village":"山犁里","number":"N030000099","name":"全家八大店","administration":"全家便利商店股份有限公司","latitude":"24.107676","longitude":"120.494424","grade":"特優級","type2":"商業營業場所","type":"混合廁所","address":"彰化縣和美鎮山犁里鹿和路6段310號","exec":null,"diaper":null},{"country":"10007","city":"10007030","village":"山犁里","number":"N030000098","name":"7-11新勝利店","administration":"統一超商股份有限公司","latitude":"24.109494","longitude":"120.495827","grade":"特優級","type2":"商業營業場所","type":"混合廁所","address":"彰化縣和美鎮山犁里鹿和路6段402之2號","exec":null,"diaper":null},{"country":"10007","city":"10007030","village":"山犁里","number":"N030000210","name":"和美仁愛店","administration":"統一超商股份有限公司","latitude":"24.10187","longitude":"120.49115","grade":"特優級","type2":"商業營業場所","type":"混合廁所","address":"彰化縣和美鎮山犁里鹿和路6段臨22號","exec":null,"diaper":null},{"country":"10007","city":"10007030","village":"雅溝里","number":"N030000095","name":"全家金好雅店","administration":"全家便利商店股份有限公司","latitude":"24.098807","longitude":"120.489814","grade":"特優級","type2":"商業營業場所","type":"混合廁所","address":"彰化縣和美鎮雅溝里鹿和路5段188巷3號","exec":null,"diaper":null},{"country":"10007","city":"10007030","village":"竹營里","number":"N030000003","name":"7-11和美店","administration":"統一超商股份有限公司","latitude":"24.115713","longitude":"120.500416","grade":"特優級","type2":"商業營業場所","type":"混合廁所","address":"彰化縣和美鎮竹營里和頭路189號","exec":null,"diaper":null},{"country":"10007","city":"10007030","village":"柑井里","number":"N030000142","name":"全家頂美店","administration":"全家便利商店股份有限公司","latitude":"24.112507","longitude":"120.516897","grade":"特優級","type2":"商業營業場所","type":"混合廁所","address":"彰化縣和美鎮柑井里美寮路2段2號","exec":null,"diaper":null},{"country":"10007","city":"10007150","village":"舊館村","number":"N150000065","name":"全家埔心署醫店","administration":"全家埔心署醫店","latitude":"23.950341","longitude":"120.526401","grade":"特優級","type2":"商業營業場所","type":"混合廁所","address":"彰化縣埔心鄉舊館村中興路35號","exec":null,"diaper":null},{"country":"10007","city":"10007150","village":"瓦北村","number":"N150000043","name":"7-11員全門市","administration":"7-11員全門市","latitude":"23.958487","longitude":"120.559015","grade":"特優級","type2":"商業營業場所","type":"混合廁所","address":"彰化縣埔心鄉瓦北村源泉路2段22號","exec":null,"diaper":null},{"country":"10007","city":"10007150","village":"經口村","number":"N150000057","name":"7-11順心門市","administration":"7-11順心門市","latitude":"23.940418","longitude":"120.559786","grade":"特優級","type2":"商業營業場所","type":"混合廁所","address":"彰化縣埔心鄉經口村中山路145號","exec":null,"diaper":null},{"country":"10007","city":"10007150","village":"義民村","number":"N150000011","name":"7-11員埔門市","administration":"7-11員埔門市","latitude":"23.952877","longitude":"120.545542","grade":"特優級","type2":"商業營業場所","type":"混合廁所","address":"彰化縣埔心鄉義民村員鹿路2段248號","exec":null,"diaper":null},{"country":"10007","city":"10007150","village":"東門村","number":"N150000003","name":"全家埔心永坡店","administration":"經濟部","latitude":"23.951398","longitude":"120.540567","grade":"特優級","type2":"商業營業場所","type":"混合廁所","address":"彰化縣埔心鄉東門村中正路1段497號","exec":null,"diaper":null},{"country":"10007","city":"10007150","village":"東門村","number":"N150000002","name":"7-11埔成門市","administration":"經濟部","latitude":"23.951084","longitude":"120.547417","grade":"特優級","type2":"商業營業場所","type":"混合廁所","address":"彰化縣埔心鄉東門村中正路1段137號","exec":null,"diaper":null},{"country":"10007","city":"10007120","village":"東路里","number":"N120000068","name":"全家便利商店新生門市","administration":"全家便利商店新生門市","latitude":"23.862591","longitude":"120.585036","grade":"特優級","type2":"商業營業場所","type":"混合廁所","address":"彰化縣田中鎮東路里員集路二段566號","exec":null,"diaper":null},{"country":"10007","city":"10007120","village":"西路里","number":"N120000058","name":"全家便利商店金斗門市","administration":"全家便利商店金斗門市","latitude":"23.861682","longitude":"120.579927","grade":"特優級","type2":"商業營業場所","type":"混合廁所","address":"彰化縣田中鎮西路里斗中路一段232號","exec":null,"diaper":null},{"country":"10007","city":"10007120","village":"西路里","number":"N120000057","name":"統一超商加吉利門市","administration":"統一超商加吉利門市","latitude":"23.85915187","longitude":"120.5827296","grade":"特優級","type2":"商業營業場所","type":"混合廁所","address":"彰化縣田中鎮西路里中正路276號","exec":null,"diaper":null},{"country":"10007","city":"10007120","village":"碧峰里","number":"N120000004","name":"統一超商內安門市","administration":"統一超商內安門市","latitude":"23.853137","longitude":"120.602504","grade":"特優級","type2":"商業營業場所","type":"混合廁所","address":"彰化縣田中鎮碧峰里中南路二段562號","exec":null,"diaper":null},{"country":"10007","city":"10007050","village":"定興村","number":"N050000024","name":"全家超商全興店","administration":"全家超商全興店","latitude":"24.17742","longitude":"120.499931","grade":"特優級","type2":"商業營業場所","type":"混合廁所","address":"彰化縣伸港鄉定興村興工路736號","exec":null,"diaper":null},{"country":"10007","city":"10007050","village":"新港村","number":"N050000030","name":"全家超商新港店","administration":"全家超商新港店","latitude":"24.148865","longitude":"120.486512","grade":"特優級","type2":"商業營業場所","type":"混合廁所","address":"彰化縣伸港鄉新港村新港路308號","exec":null,"diaper":null},{"country":"10007","city":"10007050","village":"大同村","number":"N050000061","name":"全家超商上旺店","administration":"全家超商上旺店","latitude":"24.162462","longitude":"120.487122","grade":"特優級","type2":"商業營業場所","type":"混合廁所","address":"彰化縣伸港鄉大同村中興路二段317號","exec":null,"diaper":null},{"country":"10007","city":"10007110","village":"大竹里","number":"N110000076","name":"全家溪湖雙溪店","administration":"全家溪湖雙溪店","latitude":"23.9509","longitude":"120.48034","grade":"特優級","type2":"商業營業場所","type":"混合廁所","address":"彰化縣溪湖鎮大竹里彰水路二段745號","exec":null,"diaper":null},{"country":"10007","city":"10007110","village":"大竹里","number":"N110000075","name":"萊爾富甜心店","administration":"萊爾富溪湖甜心店","latitude":"23.952637","longitude":"120.480307","grade":"特優級","type2":"商業營業場所","type":"混合廁所","address":"彰化縣溪湖鎮大竹里彰水路二段823號","exec":null,"diaper":null},{"country":"10007","city":"10007110","village":"大竹里","number":"N110000074","name":"7-11溪湖門市","administration":"統一超商溪湖門市","latitude":"23.955822","longitude":"120.480165","grade":"特優級","type2":"商業營業場所","type":"混合廁所","address":"彰化縣溪湖鎮大竹里彰水路三段105號","exec":null,"diaper":null},{"country":"10007","city":"10007110","village":"大竹里","number":"N110000073","name":"全家溪湖大竹店","administration":"全家溪湖大竹店","latitude":"23.9581","longitude":"120.47721","grade":"特優級","type2":"商業營業場所","type":"混合廁所","address":"彰化縣溪湖鎮大竹里西環路243號","exec":null,"diaper":null},{"country":"10007","city":"10007110","village":"光華里","number":"N110000023","name":"7-11新安可門市","administration":"統一超商新安可門市","latitude":"23.96111","longitude":"120.477147","grade":"特優級","type2":"商業營業場所","type":"混合廁所","address":"彰化縣溪湖鎮光華里西環路373號","exec":null,"diaper":null},{"country":"10007","city":"10007110","village":"光平里","number":"N110000002","name":"7-11美溪門市","administration":"統一超商美溪門市","latitude":"23.963477","longitude":"120.48141","grade":"特優級","type2":"商業營業場所","type":"混合廁所","address":"彰化縣溪湖鎮光平里大溪路二段451號1樓","exec":null,"diaper":null},{"country":"10007","city":"10007110","village":"光平里","number":"N110000001","name":"全家溪湖門市","administration":"全家溪湖門市","latitude":"23.951091","longitude":"120.48037","grade":"特優級","type2":"商業營業場所","type":"混合廁所","address":"彰化縣溪湖鎮光平里大溪路二段404號","exec":null,"diaper":null},{"country":"10007","city":"10007110","village":"湖東里","number":"N110000115","name":"7-11向福門市","administration":"統一超商向福門市","latitude":"23.967361","longitude":"120.48579","grade":"特優級","type2":"商業營業場所","type":"混合廁所","address":"彰化縣溪湖鎮湖東里大溪路二段140號","exec":null,"diaper":null},{"country":"10007","city":"10007070","village":"福安村","number":"N070000076","name":"全家超市好水店","administration":"全家超市好水店","latitude":"24.032136","longitude":"120.498267","grade":"特優級","type2":"商業營業場所","type":"混合廁所","address":"彰化縣秀水鄉福安村彰水路2段628號","exec":null,"diaper":null},{"country":"10007","city":"10007070","village":"金興村","number":"N070000022","name":"全家超市金興店","administration":"全家超市金興店","latitude":"24.013712","longitude":"120.519319","grade":"特優級","type2":"商業營業場所","type":"混合廁所","address":"彰化縣秀水鄉金興村番花路297號右17","exec":null,"diaper":null},{"country":"10007","city":"10007070","village":"金興村","number":"N070000021","name":"統一超商秀鑫門市","administration":"統一超商秀鑫門市","latitude":"24.01484","longitude":"120.526165","grade":"特優級","type2":"商業營業場所","type":"混合廁所","address":"彰化縣秀水鄉金興村番花路101號","exec":null,"diaper":null},{"country":"10007","city":"10007070","village":"埔崙村","number":"N070000092","name":"統一超商秀發門市","administration":"統一超商秀發門市","latitude":"24.02441837","longitude":"120.4893107","grade":"特優級","type2":"商業營業場所","type":"混合廁所","address":"彰化縣秀水鄉埔崙村番花路558號","exec":null,"diaper":null},{"country":"10007","city":"10007070","village":"安溪村","number":"N070000014","name":"統一超商秀安門市","administration":"統一超商秀安門市","latitude":"24.053747","longitude":"120.509741","grade":"特優級","type2":"商業營業場所","type":"混合廁所","address":"彰化縣秀水鄉安溪村彰鹿路19號","exec":null,"diaper":null},{"country":"10007","city":"10007130","village":"大村村","number":"N130000019","name":"7-11智慶店","administration":"7-11智慶店","latitude":"23.997896","longitude":"120.546225","grade":"特優級","type2":"商業營業場所","type":"混合廁所","address":"彰化縣大村鄉大村村大智路1段197號","exec":null,"diaper":null},{"country":"10007","city":"10007020","village":"景福里","number":"N020000123","name":"鹿港鎮公所女廁2F","administration":"鹿港鎮公所","latitude":"24.057269","longitude":"120.435052","grade":"特優級","type2":"民眾洽公場所","type":"女廁所","address":"彰化縣鹿港鎮景福里民權路168號","exec":null,"diaper":null},{"country":"10007","city":"10007020","village":"景福里","number":"N020000122","name":"鹿港鎮公所男廁2F","administration":"鹿港鎮公所","latitude":"24.057269","longitude":"120.435052","grade":"特優級","type2":"民眾洽公場所","type":"男廁所","address":"彰化縣鹿港鎮景福里民權路168號","exec":null,"diaper":null},{"country":"10007","city":"10007020","village":"海埔里","number":"N020000205","name":"彰濱秀傳醫院兒童廁所","administration":"縣市政府","latitude":"24.07875328","longitude":"120.411315","grade":"特優級","type2":"社福機構、集會場所","type":"混合廁所","address":"彰化縣鹿港鎮海埔里鹿工路6號","exec":null,"diaper":null},{"country":"10007","city":"10007200","village":"豐田里","number":"N200000153","name":"二林衛生所無障礙廁所","administration":"衛生福利部","latitude":"23.899359","longitude":"120.372774","grade":"特優級","type2":"民眾洽公場所","type":"無障礙廁所","address":"彰化縣二林鎮豐田里大成路一段115號","exec":null,"diaper":null},{"country":"10007","city":"10007200","village":"豐田里","number":"N200000152","name":"二林衛生所女廁","administration":"二林衛生所","latitude":"23.899359","longitude":"120.372774","grade":"特優級","type2":"民眾洽公場所","type":"女廁所","address":"彰化縣二林鎮豐田里大成路一段115號","exec":null,"diaper":null},{"country":"10007","city":"10007200","village":"豐田里","number":"N200000151","name":"二林衛生所男廁","administration":"二林衛生所","latitude":"23.899359","longitude":"120.372774","grade":"特優級","type2":"民眾洽公場所","type":"男廁所","address":"彰化縣二林鎮豐田里大成路一段115號","exec":null,"diaper":null},{"country":"10007","city":"10007110","village":"大竹里","number":"N110000177","name":"溪湖中央公園男廁(南側)","administration":"溪湖鎮公所","latitude":"23.948938","longitude":"120.479501","grade":"特優級","type2":"公園","type":"男廁所","address":"彰化縣溪湖鎮大竹里彰水路二段725號","exec":null,"diaper":null},{"country":"10007","city":"10007110","village":"大竹里","number":"N110000176","name":"溪湖中央公園女廁(南側)","administration":"溪湖鎮公所","latitude":"23.948938","longitude":"120.479501","grade":"特優級","type2":"公園","type":"女廁所","address":"彰化縣溪湖鎮大竹里彰水路二段725號","exec":null,"diaper":null},{"country":"10007","city":"10007100","village":"三愛里","number":"N100000331","name":"7-11真愛店","administration":"7-11真愛店","latitude":"23.9666808","longitude":"120.5764201","grade":"特優級","type2":"商業營業場所","type":"混合廁所","address":"彰化縣員林市三愛里大同路二段2號","exec":null,"diaper":null},{"country":"10007","city":"10007210","village":"饒平村","number":"N210000013","name":"田尾加油站一站無障礙廁所","administration":"縣市政府","latitude":"23.890611","longitude":"120.527243","grade":"特優級","type2":"商業營業場所","type":"無障礙廁所","address":"彰化縣田尾鄉饒平村中山路一段393號","exec":null,"diaper":null},{"country":"10007","city":"10007260","village":"溪厝村","number":"N260000009","name":"中油溪州站女廁","administration":"台灣中油","latitude":"23.8529","longitude":"120.480569","grade":"特優級","type2":"商業營業場所","type":"女廁所","address":"彰化縣溪州鄉溪厝村中山路三段6號","exec":null,"diaper":null},{"country":"10007","city":"10007150","village":"瓦北村","number":"N150000042","name":"埔心加油站無障礙廁所","administration":"台灣中油公司埔心站","latitude":"23.953235","longitude":"120.553501","grade":"特優級","type2":"商業營業場所","type":"無障礙廁所","address":"彰化縣埔心鄉瓦北村員鹿路1段421號","exec":null,"diaper":null},{"country":"10007","city":"10007150","village":"瓦南村","number":"N150000048","name":"快速道站女廁","administration":"快速道站直營店","latitude":"23.946098","longitude":"120.563147","grade":"特優級","type2":"商業營業場所","type":"女廁所","address":"彰化縣埔心鄉瓦南村中山路281號","exec":null,"diaper":null},{"country":"10007","city":"10007150","village":"瓦北村","number":"N150000041","name":"埔心加油站女廁","administration":"埔心加油站","latitude":"23.953235","longitude":"120.553501","grade":"特優級","type2":"商業營業場所","type":"女廁所","address":"彰化縣埔心鄉瓦北村員鹿路1段421號","exec":null,"diaper":null},{"country":"10007","city":"10007120","village":"龍潭里","number":"N120000040","name":"彰化高鐵站2樓無障礙廁所","administration":"交通部","latitude":"23.87453614","longitude":"120.5746615","grade":"特優級","type2":"交通","type":"無障礙廁所","address":"彰化縣田中鎮龍潭里站區路二段99號","exec":null,"diaper":null},{"country":"10007","city":"10007120","village":"龍潭里","number":"N120000039","name":"彰化高鐵站2樓親子廁所","administration":"交通部","latitude":"23.8744969","longitude":"120.5745757","grade":"特優級","type2":"交通","type":"親子廁所","address":"彰化縣田中鎮龍潭里站區路二段99號","exec":null,"diaper":null},{"country":"10007","city":"10007120","village":"龍潭里","number":"N120000038","name":"彰化高鐵站2樓女廁","administration":"交通部","latitude":"23.87445765","longitude":"120.5746508","grade":"特優級","type2":"交通","type":"女廁所","address":"彰化縣田中鎮龍潭里站區路二段99號","exec":null,"diaper":null},{"country":"10007","city":"10007010","village":"南瑤里","number":"N010000303","name":"南瑤宮(男廁)","administration":"民政處","latitude":"24.067765","longitude":"120.538526","grade":"特優級","type2":"宗教禮儀場所","type":"男廁所","address":"彰化縣彰化市南瑤里南瑤路43號","exec":null,"diaper":null},{"country":"10007","city":"10007050","village":"溪底村","number":"N050000013","name":"溪底社區活動中心","administration":"溪底活動中心","latitude":"24.15693486","longitude":"120.5036581","grade":"特優級","type2":"社福機構、集會場所","type":"混合廁所","address":"彰化縣伸港鄉溪底村溪底路100之3號","exec":null,"diaper":null},{"country":"10007","city":"10007030","village":"和北里","number":"N030000034","name":"7-11德美店","administration":"統一超商股份有限公司","latitude":"24.118485","longitude":"120.495619","grade":"特優級","type2":"商業營業場所","type":"混合廁所","address":"彰化縣和美鎮和北里德美路700號","exec":null,"diaper":null},{"country":"10007","city":"10007140","village":"好修村","number":"N140000041","name":"埔鹽鄉立圖書館2樓(男廁)","administration":"埔鹽鄉公所","latitude":"24.000519","longitude":"120.463235","grade":"特優級","type2":"文化育樂活動場所","type":"男廁所","address":"彰化縣埔鹽鄉好修村員鹿路二段60號","exec":null,"diaper":null},{"country":"10007","city":"10007120","village":"中路里","number":"N120000115","name":"田中鎮圖書館1樓","administration":"田中鎮圖書館","latitude":"23.85654677","longitude":"120.5887216","grade":"特優級","type2":"文化育樂活動場所","type":"混合廁所","address":"彰化縣田中鎮中路里田中鎮圖書館1樓","exec":null,"diaper":null},{"country":"10007","city":"10007120","village":"中路里","number":"N120000114","name":"田中鎮圖書館3樓男廁","administration":"田中鎮圖書館","latitude":"23.857199","longitude":"120.590194","grade":"特優級","type2":"文化育樂活動場所","type":"男廁所","address":"彰化縣田中鎮中路里中新路229號","exec":null,"diaper":null},{"country":"10007","city":"10007120","village":"中路里","number":"N120000113","name":"田中鎮圖書館3樓女廁","administration":"田中鎮圖書館","latitude":"23.857199","longitude":"120.590194","grade":"特優級","type2":"文化育樂活動場所","type":"女廁所","address":"彰化縣田中鎮中路里中新路229號","exec":null,"diaper":null},{"country":"10007","city":"10007120","village":"中路里","number":"N120000112","name":"田中鎮圖書館2樓","administration":"田中鎮圖書館","latitude":"23.860065","longitude":"120.589477","grade":"特優級","type2":"文化育樂活動場所","type":"男廁所","address":"彰化縣田中鎮中路里中新路229號","exec":null,"diaper":null},{"country":"10007","city":"10007190","village":"西德里","number":"N190000043","name":"河濱公園","administration":"北斗鎮公所","latitude":"23.86839442","longitude":"120.5204165","grade":"特優級","type2":"公園","type":"混合廁所","address":"彰化縣北斗鎮西德里河濱街40-42號","exec":null,"diaper":null},{"country":"10007","city":"10007060","village":"福興村","number":"N060000103","name":"福興鄉老人文康活動中心-女廁","administration":"福興鄉公所","latitude":"24.04669915","longitude":"120.4283631","grade":"特優級","type2":"社福機構、集會場所","type":"女廁所","address":"彰化縣福興鄉福興村福興路51巷2號","exec":null,"diaper":null},{"country":"10007","city":"10007060","village":"福興村","number":"N060000102","name":"福興鄉老人文康活動中心-男廁","administration":"福興鄉公所","latitude":"24.04669915","longitude":"120.4283631","grade":"特優級","type2":"社福機構、集會場所","type":"男廁所","address":"彰化縣福興鄉福興村福興路51巷2號","exec":null,"diaper":null},{"country":"10007","city":"10007060","village":"福興村","number":"N060000101","name":"福興鄉老人文康活動中心-無障礙廁","administration":"福興鄉公所","latitude":"24.04669915","longitude":"120.4283631","grade":"特優級","type2":"社福機構、集會場所","type":"無障礙廁所","address":"彰化縣福興鄉福興村福興路51巷2號","exec":null,"diaper":null},{"country":"10007","city":"10007230","village":"芳苑村","number":"N230000007","name":"芳苑鄉立圖書館女廁","administration":"芳苑鄉圖書館","latitude":"23.92463822","longitude":"120.3202835","grade":"特優級","type2":"文化育樂活動場所","type":"女廁所","address":"彰化縣芳苑鄉芳苑村斗苑路芳苑段","exec":null,"diaper":null},{"country":"10007","city":"10007130","village":"茄苳村","number":"N130000046","name":"劍門休閒農場","administration":"劍門休閒農場","latitude":"24.00808053","longitude":"120.5396855","grade":"特優級","type2":"商業營業場所","type":"混合廁所","address":"彰化縣大村鄉茄苳村茄苳路2段143巷72號","exec":null,"diaper":null},{"country":"10007","city":"10007090","village":"社口村","number":"N090000016","name":"芬園環保公園-混合廁所","administration":"芬園鄉公所","latitude":"24.015438","longitude":"120.629988","grade":"特優級","type2":"公園","type":"混合廁所","address":"彰化縣芬園鄉社口村復興路92號","exec":null,"diaper":null},{"country":"10007","city":"10007120","village":"北路里","number":"N120000044","name":"田中鎮兒童公園-無障礙","administration":"田中鎮公所","latitude":"23.860065","longitude":"120.589477","grade":"特優級","type2":"公園","type":"無障礙廁所","address":"彰化縣田中鎮北路里福安路45號","exec":null,"diaper":null},{"country":"10007","city":"10007120","village":"梅州里","number":"N120000141","name":"景崧文化教育園區","administration":"教育處","latitude":"23.85753289","longitude":"120.5817533","grade":"特優級","type2":"文化育樂活動場所","type":"混合廁所","address":"彰化縣田中鎮梅州里中州路一段416號","exec":null,"diaper":null},{"country":"10007","city":"10007240","village":"大城村","number":"N240000021","name":"大城運動公園-男廁","administration":"縣市政府","latitude":"23.85715512","longitude":"120.3217131","grade":"特優級","type2":"公園","type":"男廁所","address":"彰化縣大城鄉大城村中城段132地號 ","exec":null,"diaper":null},{"country":"10007","city":"10007010","village":"卦山里","number":"N010000238","name":"彰化縣水利資源處下方男廁","administration":"縣市政府","latitude":"24.07529","longitude":"120.552929","grade":"特優級","type2":"民眾洽公場所","type":"混合廁所","address":"彰化縣彰化市卦山里公園路一段409號","exec":null,"diaper":null},{"country":"10007","city":"10007010","village":"卦山里","number":"N010000237","name":"彰化縣水利資源處(男廁)","administration":"縣市政府","latitude":"24.07529","longitude":"120.552929","grade":"特優級","type2":"民眾洽公場所","type":"男廁所","address":"彰化縣彰化市卦山里公園路一段409號","exec":null,"diaper":null},{"country":"10007","city":"10007010","village":"卦山里","number":"N010000236","name":"勞工保險局彰化辦事處","administration":"縣市政府","latitude":"24.07589303","longitude":"120.5507469","grade":"特優級","type2":"民眾洽公場所","type":"混合廁所","address":"彰化縣彰化市卦山里公園路一段239號","exec":null,"diaper":null},{"country":"10007","city":"10007010","village":"西安里","number":"N010000384","name":"民族路派出所","administration":"縣市政府","latitude":"24.072496","longitude":"120.540091","grade":"特優級","type2":"民眾洽公場所","type":"混合廁所","address":"彰化縣彰化市西安里西安里","exec":null,"diaper":null},{"country":"10007","city":"10007010","village":"介壽里","number":"N010000447","name":"彰化縣立體育場田徑場8號門1樓女廁","administration":"縣市政府","latitude":"24.06635187","longitude":"120.5544126","grade":"特優級","type2":"文化育樂活動場所","type":"混合廁所","address":"彰化縣彰化市介壽里健興路1號","exec":null,"diaper":null},{"country":"10007","city":"10007010","village":"介壽里","number":"N010000446","name":"彰化縣立體育場田徑場8號門1樓男廁","administration":"縣市政府","latitude":"24.06637146","longitude":"120.5544198","grade":"特優級","type2":"文化育樂活動場所","type":"男廁所","address":"彰化縣彰化市介壽里健興路1號","exec":null,"diaper":null},{"country":"10007","city":"10007010","village":"介壽里","number":"N010000445","name":"彰化縣立體育場田徑場5號門1樓女廁","administration":"縣市政府","latitude":"24.06643187","longitude":"120.554409","grade":"特優級","type2":"文化育樂活動場所","type":"混合廁所","address":"彰化縣彰化市介壽里健興路1號","exec":null,"diaper":null},{"country":"10007","city":"10007010","village":"介壽里","number":"N010000444","name":"彰化縣立體育場田徑場5號門1樓男廁","administration":"縣市政府","latitude":"24.06644003","longitude":"120.5543822","grade":"特優級","type2":"文化育樂活動場所","type":"男廁所","address":"彰化縣彰化市介壽里健興路1號","exec":null,"diaper":null},{"country":"10007","city":"10007010","village":"介壽里","number":"N010000443","name":"彰化縣立體育場田徑場4號門1樓女廁","administration":"縣市政府","latitude":"24.06641554","longitude":"120.5544144","grade":"特優級","type2":"文化育樂活動場所","type":"無障礙廁所","address":"彰化縣彰化市介壽里健興路1號","exec":null,"diaper":null},{"country":"10007","city":"10007010","village":"介壽里","number":"N010000442","name":"彰化縣立體育場田徑場4號門1樓男廁","administration":"縣市政府","latitude":"24.06641064","longitude":"120.5544412","grade":"特優級","type2":"文化育樂活動場所","type":"男廁所","address":"彰化縣彰化市介壽里健興路1號","exec":null,"diaper":null},{"country":"10007","city":"10007010","village":"介壽里","number":"N010000441","name":"彰化縣立體育場田徑場左側體健科女廁","administration":"縣市政府","latitude":"24.06637636","longitude":"120.5537796","grade":"特優級","type2":"文化育樂活動場所","type":"女廁所","address":"彰化縣彰化市介壽里健興路1號","exec":null,"diaper":null},{"country":"10007","city":"10007030","village":"柑井里","number":"N030000148","name":"大中華國際美食館-後棟女廁","administration":"大中華國際美食館","latitude":"24.10496928","longitude":"120.5088285","grade":"特優級","type2":"其他","type":"女廁所","address":"彰化縣和美鎮柑井里彰美路四段306號","exec":null,"diaper":null},{"country":"10007","city":"10007030","village":"柑井里","number":"N030000147","name":"大中華國際美食館-後棟男廁","administration":"大中華國際美食館","latitude":"24.10499131","longitude":"120.5088517","grade":"特優級","type2":"其他","type":"男廁所","address":"彰化縣和美鎮柑井里彰美路四段306號","exec":null,"diaper":null},{"country":"10007","city":"10007030","village":"柑井里","number":"N030000146","name":"大中華國際美食館-前棟無障礙廁所","administration":"大中華國際美食館","latitude":"24.10498642","longitude":"120.5088338","grade":"特優級","type2":"其他","type":"無障礙廁所","address":"彰化縣和美鎮柑井里彰美路四段306號","exec":null,"diaper":null},{"country":"10007","city":"10007030","village":"柑井里","number":"N030000145","name":"大中華國際美食館-前棟女廁","administration":"大中華國際美食館","latitude":"24.10498682","longitude":"120.5088262","grade":"特優級","type2":"其他","type":"女廁所","address":"彰化縣和美鎮柑井里彰美路四段306號","exec":null,"diaper":null},{"country":"10007","city":"10007030","village":"柑井里","number":"N030000144","name":"大中華國際美食館-前棟男廁","administration":"縣市政府","latitude":"24.10498886","longitude":"120.5088499","grade":"特優級","type2":"其他","type":"男廁所","address":"彰化縣和美鎮柑井里彰美路四段306號","exec":null,"diaper":null},{"country":"10007","city":"10007210","village":"饒平村","number":"N210000015","name":"台灣中油車亭田尾站 無障礙廁所","administration":"台灣中油車亭田尾站","latitude":"23.89393851","longitude":"120.532083","grade":"特優級","type2":"商業營業場所","type":"無障礙廁所","address":"彰化縣田尾鄉饒平村中山路一段575號","exec":null,"diaper":null},{"country":"10007","city":"10007210","village":"饒平村","number":"N210000014","name":"台灣中油車亭田尾站-女廁","administration":"台灣中油車亭田尾站","latitude":"23.89393851","longitude":"120.532083","grade":"特優級","type2":"商業營業場所","type":"女廁所","address":"彰化縣田尾鄉饒平村中山路一段575號","exec":null,"diaper":null},{"country":"10007","city":"10007010","village":"三村里","number":"N010000561","name":"中彰彰興站無障礙廁所","administration":"中彰彰興站","latitude":"24.092213","longitude":"120.587368","grade":"特優級","type2":"商業營業場所","type":"無障礙廁所","address":"彰化縣彰化市三村里彰興路二段81號","exec":null,"diaper":null},{"country":"10007","city":"10007010","village":"三村里","number":"N010000560","name":"中彰彰興站女廁","administration":"中彰彰興站","latitude":"24.092213","longitude":"120.587368","grade":"特優級","type2":"商業營業場所","type":"女廁所","address":"彰化縣彰化市三村里彰興路二段81號","exec":null,"diaper":null},{"country":"10007","city":"10007010","village":"國聖里","number":"N010000565","name":"彰化國聖站女廁","administration":"台灣中油公司國聖站","latitude":"24.094935","longitude":"120.56988","grade":"特優級","type2":"商業營業場所","type":"女廁所","address":"彰化縣彰化市國聖里中山路三段708號","exec":null,"diaper":null},{"country":"10007","city":"10007030","village":"和東里","number":"N030000008","name":"和美加油站無障礙廁所","administration":"台灣中油股份有限公司","latitude":"24.106855","longitude":"120.502958","grade":"特優級","type2":"商業營業場所","type":"無障礙廁所","address":"彰化縣和美鎮和東里彰美路五段85號","exec":null,"diaper":null},{"country":"10007","city":"10007030","village":"和東里","number":"N030000007","name":"和美加油站女廁","administration":"台灣中油股份有限公司","latitude":"24.106855","longitude":"120.502958","grade":"特優級","type2":"商業營業場所","type":"女廁所","address":"彰化縣和美鎮和東里彰美路五段85號","exec":null,"diaper":null},{"country":"10007","city":"10007010","village":"陽明里","number":"N010000632","name":"中油彰化站女廁","administration":"中油公司","latitude":"24.08451277","longitude":"120.5528927","grade":"特優級","type2":"商業營業場所","type":"女廁所","address":"彰化縣彰化市陽明里中山路三段27號","exec":null,"diaper":null},{"country":"10007","city":"10007040","village":"寓埔村","number":"N040000017","name":"統一超商禾順門市-女廁","administration":"統一超商禾順門市","latitude":"24.13392","longitude":"120.462734","grade":"特優級","type2":"商業營業場所","type":"女廁所","address":"彰化縣線西鄉寓埔村沿海路一段849巷10號","exec":null,"diaper":null},{"country":"10007","city":"10007220","village":"合興村","number":"N220000045","name":"埤頭鄉民代表會","administration":"埤頭鄉公所","latitude":"23.89146916","longitude":"120.4621671","grade":"特優級","type2":"民眾洽公場所","type":"混合廁所","address":"彰化縣埤頭鄉合興村斗苑西路138號","exec":null,"diaper":null},{"country":"10007","city":"10007260","village":"溪州村","number":"N260000043","name":"溪州公有零售市場公廁-無障礙","administration":"溪州鄉公所","latitude":"23.85224","longitude":"120.495538","grade":"特優級","type2":"商業營業場所","type":"無障礙廁所","address":"彰化縣溪州鄉溪州村復興路27號","exec":null,"diaper":null},{"country":"10007","city":"10007100","village":"中正里","number":"N100000037","name":"圖書館二館1樓公廁-混合廁","administration":"員林市公所","latitude":"23.9593535","longitude":"120.5719997","grade":"特優級","type2":"文化育樂活動場所","type":"混合廁所","address":"彰化縣員林市中正里三民街8巷12號","exec":null,"diaper":null},{"country":"10007","city":"10007100","village":"出水里","number":"N100000271","name":"舊百果山中心公園公廁-男廁","administration":"員林市公所","latitude":"23.9481219","longitude":"120.6054881","grade":"特優級","type2":"公園","type":"男廁所","address":"彰化縣員林市出水里出水巷1號","exec":null,"diaper":null},{"country":"10007","city":"10007100","village":"大明里","number":"N100000237","name":"南區公園公廁-男廁","administration":"員林市公所","latitude":"23.9393148","longitude":"120.5809883","grade":"特優級","type2":"公園","type":"男廁所","address":"彰化縣員林市大明里大饒路733號","exec":null,"diaper":null},{"country":"10007","city":"10007100","village":"中正里","number":"N100000009","name":"員林公園公廁－無障礙廁所","administration":"員林市公所","latitude":"23.9576818","longitude":"120.5746032","grade":"特優級","type2":"公園","type":"無障礙廁所","address":"彰化縣員林市中正里三民街1號","exec":null,"diaper":null},{"country":"10007","city":"10007100","village":"中正里","number":"N100000008","name":"員林公園公廁－女廁","administration":"員林市公所","latitude":"23.9576818","longitude":"120.5746032","grade":"特優級","type2":"公園","type":"女廁所","address":"彰化縣員林市中正里三民街1號","exec":null,"diaper":null},{"country":"10007","city":"10007120","village":"北路里","number":"N120000046","name":"田中鎮兒童公園公廁-女廁","administration":"田中鎮公所","latitude":"23.862988","longitude":"120.586187","grade":"特優級","type2":"公園","type":"女廁所","address":"彰化縣田中鎮北路里福安路45號","exec":null,"diaper":null},{"country":"10007","city":"10007120","village":"北路里","number":"N120000045","name":"田中鎮兒童公園公廁-男廁","administration":"田中鎮公所","latitude":"23.862988","longitude":"120.586187","grade":"特優級","type2":"公園","type":"男廁所","address":"彰化縣田中鎮北路里福安路45號","exec":null,"diaper":null},{"country":"10007","city":"10007200","village":"東和里","number":"N200000004","name":"和平公園女廁","administration":"和平公園","latitude":"23.904","longitude":"120.36411","grade":"特優級","type2":"觀光地區及風景區","type":"女廁所","address":"彰化縣二林鎮東和里吉利街","exec":null,"diaper":null},{"country":"10007","city":"10007200","village":"東和里","number":"N200000003","name":"和平公園男廁","administration":"和平公園","latitude":"23.904","longitude":"120.36411","grade":"特優級","type2":"觀光地區及風景區","type":"男廁所","address":"彰化縣二林鎮東和里吉利街","exec":null,"diaper":null},{"country":"10007","city":"10007010","village":"卦山里","number":"N010000218","name":"彰化縣立美術館1F(男廁)","administration":"縣市政府","latitude":"24.07757718","longitude":"120.5460464","grade":"特優級","type2":"文化育樂活動場所","type":"男廁所","address":"彰化縣彰化市卦山里卦山路3號","exec":null,"diaper":null},{"country":"10007","city":"10007010","village":"卦山里","number":"N010000217","name":"彰化縣立美術館1F(無障礙廁所)","administration":"縣市政府","latitude":"24.075676","longitude":"120.552952","grade":"特優級","type2":"文化育樂活動場所","type":"無障礙廁所","address":"彰化縣彰化市卦山里卦山路3號","exec":null,"diaper":null},{"country":"10007","city":"10007020","village":"海埔里","number":"N020000188","name":"彰濱秀傳健康博物館","administration":"彰濱秀傳醫院","latitude":"24.07822433","longitude":"120.4110789","grade":"特優級","type2":"社福機構、集會場所","type":"混合廁所","address":"彰化縣鹿港鎮海埔里鹿工路6號","exec":null,"diaper":null},{"country":"10007","city":"10007020","village":"泰興里","number":"N020000128","name":"鹿港民俗文物館(女廁)","administration":"鹿港民俗文物館","latitude":"24.05417459","longitude":"120.4361415","grade":"特優級","type2":"觀光地區及風景區","type":"女廁所","address":"彰化縣鹿港鎮泰興里中山路152號","exec":null,"diaper":null},{"country":"10007","city":"10007020","village":"泰興里","number":"N020000127","name":"鹿港民俗文物館(男廁)","administration":"鹿港民俗文物館","latitude":"24.05419908","longitude":"120.4362059","grade":"特優級","type2":"觀光地區及風景區","type":"男廁所","address":"彰化縣鹿港鎮泰興里中山路152號","exec":null,"diaper":null},{"country":"10007","city":"10007020","village":"洛津里","number":"N020000007","name":"公會堂親子廁所","administration":"鹿港鎮公所","latitude":"24.05661405","longitude":"120.4322362","grade":"特優級","type2":"文化育樂活動場所","type":"親子廁所","address":"彰化縣鹿港鎮洛津里埔頭街72號","exec":null,"diaper":null},{"country":"10007","city":"10007020","village":"洛津里","number":"N020000006","name":"公會堂女廁","administration":"鹿港鎮公所","latitude":"24.05677081","longitude":"120.4321879","grade":"特優級","type2":"文化育樂活動場所","type":"女廁所","address":"彰化縣鹿港鎮洛津里埔頭街72號","exec":null,"diaper":null},{"country":"10007","city":"10007020","village":"洛津里","number":"N020000005","name":"公會堂男廁","administration":"鹿港鎮公所","latitude":"24.05492897","longitude":"120.4330301","grade":"特優級","type2":"文化育樂活動場所","type":"男廁所","address":"彰化縣鹿港鎮洛津里埔頭街72號","exec":null,"diaper":null},{"country":"10007","city":"10007020","village":"泰興里","number":"N020000126","name":"丁家大宅","administration":"丁家大宅","latitude":"24.05318507","longitude":"120.435884","grade":"特優級","type2":"觀光地區及風景區","type":"混合廁所","address":"彰化縣鹿港鎮泰興里中山路132號","exec":null,"diaper":null},{"country":"10007","city":"10007020","village":"東石里","number":"N020000100","name":"天后宮停車場-女廁","administration":"天后宮管委會","latitude":"24.059324","longitude":"120.431464","grade":"特優級","type2":"宗教禮儀場所","type":"女廁所","address":"彰化縣鹿港鎮東石里媽祖路1號","exec":null,"diaper":null},{"country":"10007","city":"10007020","village":"玉順里","number":"N020000099","name":"天后宮樓下無障礙廁所","administration":"天后宮","latitude":"24.05931799","longitude":"120.4314852","grade":"特優級","type2":"宗教禮儀場所","type":"無障礙廁所","address":"彰化縣鹿港鎮玉順里後寮巷87號","exec":null,"diaper":null},{"country":"10007","city":"10007020","village":"玉順里","number":"N020000098","name":"天后宮-女廁","administration":"天后宮","latitude":"24.05941106","longitude":"120.4313403","grade":"特優級","type2":"宗教禮儀場所","type":"女廁所","address":"彰化縣鹿港鎮玉順里後寮巷87號","exec":null,"diaper":null},{"country":"10007","city":"10007010","village":"永福里","number":"N010000066","name":"孔廟-女廁","administration":"縣市政府","latitude":"24.079008","longitude":"120.543387","grade":"特優級","type2":"宗教禮儀場所","type":"女廁所","address":"彰化縣彰化市永福里孔門路30號","exec":null,"diaper":null},{"country":"10007","city":"10007010","village":"大同里","number":"N010000266","name":"古月民俗館-4樓","administration":"彰化市公所","latitude":"24.07814597","longitude":"120.5427003","grade":"特優級","type2":"觀光地區及風景區","type":"混合廁所","address":"彰化縣彰化市大同里中華路57號","exec":null,"diaper":null},{"country":"10007","city":"10007010","village":"大同里","number":"N010000265","name":"古月民俗館-3樓(無障礙廁所)","administration":"彰化市公所","latitude":"24.07816556","longitude":"120.5426788","grade":"特優級","type2":"觀光地區及風景區","type":"無障礙廁所","address":"彰化縣彰化市大同里中華路57號","exec":null,"diaper":null},{"country":"10007","city":"10007010","village":"大同里","number":"N010000264","name":"古月民俗館-2樓","administration":"彰化市公所","latitude":"24.07827821","longitude":"120.542872","grade":"特優級","type2":"觀光地區及風景區","type":"混合廁所","address":"彰化縣彰化市大同里中華路57號","exec":null,"diaper":null},{"country":"10007","city":"10007010","village":"大同里","number":"N010000263","name":"古月民俗館-1樓","administration":"彰化市公所","latitude":"24.07810679","longitude":"120.5427861","grade":"特優級","type2":"觀光地區及風景區","type":"混合廁所","address":"彰化縣彰化市大同里中華路57號","exec":null,"diaper":null},{"country":"10007","city":"10007100","village":"大饒里","number":"N100000227","name":"員林演藝廳1F小劇場 女廁","administration":"縣市政府","latitude":"23.94940529","longitude":"120.5788243","grade":"特優級","type2":"文化育樂活動場所","type":"女廁所","address":"彰化縣員林市大饒里員林大道二段99號","exec":null,"diaper":null},