[{"country":"10020","city":"10020010","village":"過溝里","number":"I010000906","name":"嘉義in89豪華影城7F女廁","address":"嘉義市東　區過溝里民族路","administration":"其他","latitude":"23.476438","longitude":"120.452734","grade":"特優級","type2":"休閒娛樂場所","type":"女廁所","exec":null,"diaper":null},{"country":"10020","city":"10020010","village":"過溝里","number":"I010000905","name":"嘉義in89豪華影城7F男廁","address":"嘉義市東　區過溝里民族路","administration":"其他","latitude":"23.476438","longitude":"120.452734","grade":"特優級","type2":"休閒娛樂場所","type":"男廁所","exec":null,"diaper":null},{"country":"10020","city":"10020010","village":"過溝里","number":"I010000904","name":"嘉義in89豪華影城6F無障礙廁所","address":"嘉義市東　區過溝里民族路","administration":"其他","latitude":"23.476438","longitude":"120.452734","grade":"特優級","type2":"休閒娛樂場所","type":"無障礙廁所","exec":null,"diaper":null},{"country":"10020","city":"10020010","village":"過溝里","number":"I010000903","name":"嘉義in89豪華影城6F女廁","address":"嘉義市東　區過溝里民族路","administration":"其他","latitude":"23.476438","longitude":"120.452734","grade":"特優級","type2":"休閒娛樂場所","type":"女廁所","exec":null,"diaper":null},{"country":"10020","city":"10020010","village":"過溝里","number":"I010000902","name":"嘉義in89豪華影城6F男廁","address":"嘉義市東　區過溝里民族路","administration":"其他","latitude":"23.476438","longitude":"120.452734","grade":"特優級","type2":"休閒娛樂場所","type":"男廁所","exec":null,"diaper":null},{"country":"10020","city":"10020010","village":"過溝里","number":"I010000898","name":"嘉義in89豪華影城4F女廁","address":"嘉義市東　區過溝里民族路","administration":"其他","latitude":"23.476438","longitude":"120.452734","grade":"特優級","type2":"休閒娛樂場所","type":"女廁所","exec":null,"diaper":null},{"country":"10020","city":"10020010","village":"過溝里","number":"I010000897","name":"嘉義in89豪華影城4F男廁","address":"嘉義市東　區過溝里民族路","administration":"其他","latitude":"23.476438","longitude":"120.452734","grade":"特優級","type2":"休閒娛樂場所","type":"男廁所","exec":null,"diaper":null},{"country":"10020","city":"10020010","village":"過溝里","number":"I010000896","name":"嘉義in89豪華影城3F無障礙廁所","address":"嘉義市東　區過溝里民族路","administration":"其他","latitude":"23.476438","longitude":"120.452734","grade":"特優級","type2":"休閒娛樂場所","type":"無障礙廁所","exec":null,"diaper":null},{"country":"10020","city":"10020010","village":"過溝里","number":"I010000895","name":"嘉義in89豪華影城3F親子廁所","address":"嘉義市東　區過溝里民族路","administration":"其他","latitude":"23.476438","longitude":"120.452734","grade":"特優級","type2":"休閒娛樂場所","type":"親子廁所","exec":null,"diaper":null},{"country":"10020","city":"10020010","village":"過溝里","number":"I010000894","name":"嘉義in89豪華影城3F女廁","address":"嘉義市東　區過溝里民族路","administration":"其他","latitude":"23.476438","longitude":"120.452734","grade":"特優級","type2":"休閒娛樂場所","type":"女廁所","exec":null,"diaper":null},{"country":"10020","city":"10020010","village":"過溝里","number":"I010000893","name":"嘉義in89豪華影城3F男廁","address":"嘉義市東　區過溝里民族路","administration":"其他","latitude":"23.476438","longitude":"120.452734","grade":"特優級","type2":"休閒娛樂場所","type":"男廁所","exec":null,"diaper":null},{"country":"10020","city":"10020010","village":"過溝里","number":"I010000892","name":"嘉義in89豪華影城2F親子廁所","address":"嘉義市東　區過溝里民族路","administration":"其他","latitude":"23.476438","longitude":"120.452734","grade":"特優級","type2":"休閒娛樂場所","type":"親子廁所","exec":null,"diaper":null},{"country":"10020","city":"10020010","village":"過溝里","number":"I010000891","name":"嘉義in89豪華影城2F女廁","address":"嘉義市東　區過溝里民族路","administration":"其他","latitude":"23.476438","longitude":"120.452734","grade":"特優級","type2":"休閒娛樂場所","type":"女廁所","exec":null,"diaper":null},{"country":"10020","city":"10020010","village":"過溝里","number":"I010000890","name":"嘉義in89豪華影城2F男廁","address":"嘉義市東　區過溝里民族路","administration":"其他","latitude":"23.476438","longitude":"120.452734","grade":"特優級","type2":"休閒娛樂場所","type":"男廁所","exec":null,"diaper":null},{"country":"10020","city":"10020020","village":"大溪里","number":"I020000806","name":"台亞嘉義高鐵大道站無障礙廁所","address":"嘉義市西　區大溪里高鐵大道271號","administration":"縣市政府","latitude":"23.481871","longitude":"120.419281","grade":"特優級","type2":"商業營業場所","type":"無障礙廁所","exec":null,"diaper":null},{"country":"10020","city":"10020020","village":"大溪里","number":"I020000805","name":"台亞嘉義高鐵大道站女廁","address":"嘉義市西　區大溪里高鐵大道271號","administration":"縣市政府","latitude":"23.481871","longitude":"120.419281","grade":"特優級","type2":"商業營業場所","type":"女廁所","exec":null,"diaper":null},{"country":"10020","city":"10020020","village":"大溪里","number":"I020000804","name":"台亞嘉義高鐵大道站男廁","address":"嘉義市西　區大溪里高鐵大道271號","administration":"縣市政府","latitude":"23.481871","longitude":"120.419281","grade":"特優級","type2":"商業營業場所","type":"男廁所","exec":null,"diaper":null},{"country":"10020","city":"10020010","village":"北門里","number":"I010000889","name":"文化中心音樂廳男廁","address":"嘉義市東　區北門里忠孝路","administration":"縣市政府","latitude":"23.48768","longitude":"120.45253","grade":"特優級","type2":"文化育樂活動場所","type":"男廁所","exec":null,"diaper":null},{"country":"10020","city":"10020020","village":"紅瓦里","number":"I020000818","name":"嘉油鐵馬道無障礙廁","address":"嘉義市西　區紅瓦里南京路209號","administration":"觀光工程科","latitude":"23.4582479","longitude":"120.4374471","grade":"特優級","type2":"文化育樂活動場所","type":"無障礙廁所","exec":null,"diaper":null},{"country":"10020","city":"10020020","village":"紅瓦里","number":"I020000817","name":"嘉油鐵馬道女廁","address":"嘉義市西　區紅瓦里南京路209號","administration":"觀光工程科","latitude":"23.4582479","longitude":"120.4374471","grade":"特優級","type2":"文化育樂活動場所","type":"女廁所","exec":null,"diaper":null},{"country":"10020","city":"10020020","village":"紅瓦里","number":"I020000816","name":"嘉油鐵馬道男廁","address":"嘉義市西　區紅瓦里南京路209號","administration":"觀光工程科","latitude":"23.4582479","longitude":"120.4374471","grade":"特優級","type2":"文化育樂活動場所","type":"男廁所","exec":null,"diaper":null},{"country":"10020","city":"10020010","village":"東川里","number":"I010000919","name":"嘉義縣公車大雅站無障礙廁所","address":"嘉義市東　區東川里大雅路","administration":"嘉義縣政府","latitude":"23.47666825","longitude":"120.4654859","grade":"特優級","type2":"交通","type":"無障礙廁所","exec":null,"diaper":null},{"country":"10020","city":"10020010","village":"東川里","number":"I010000918","name":"嘉義縣公車大雅站女廁","address":"嘉義市東　區東川里大雅路","administration":"嘉義縣政府","latitude":"23.47666825","longitude":"120.4654859","grade":"特優級","type2":"交通","type":"女廁所","exec":null,"diaper":null},{"country":"10020","city":"10020010","village":"東川里","number":"I010000917","name":"嘉義縣公車大雅站男廁","address":"嘉義市東　區東川里大雅路","administration":"嘉義縣政府","latitude":"23.47666825","longitude":"120.4654859","grade":"特優級","type2":"交通","type":"男廁所","exec":null,"diaper":null},{"country":"10020","city":"10020020","village":"香湖里","number":"I020000812","name":"北香湖公園3號無障礙廁所","address":"嘉義市西　區香湖里文化路600號","administration":"縣市政府","latitude":"23.48975729","longitude":"120.447502","grade":"特優級","type2":"公園","type":"無障礙廁所","exec":null,"diaper":null},{"country":"10020","city":"10020020","village":"香湖里","number":"I020000811","name":"北香湖公園3號女廁","address":"嘉義市西　區香湖里文化路600號","administration":"縣市政府","latitude":"23.48976959","longitude":"120.4473102","grade":"特優級","type2":"公園","type":"女廁所","exec":null,"diaper":null},{"country":"10020","city":"10020020","village":"香湖里","number":"I020000810","name":"北香湖公園3號男廁","address":"嘉義市西　區香湖里文化路600號","administration":"縣市政府","latitude":"23.48974991","longitude":"120.4477461","grade":"特優級","type2":"公園","type":"男廁所","exec":null,"diaper":null},{"country":"10020","city":"10020020","village":"香湖里","number":"I020000809","name":"北香湖公園4號無障礙廁所","address":"嘉義市西　區香湖里文化路600號","administration":"縣市政府","latitude":"23.49253945","longitude":"120.4493406","grade":"特優級","type2":"公園","type":"無障礙廁所","exec":null,"diaper":null},{"country":"10020","city":"10020020","village":"香湖里","number":"I020000808","name":"北香湖公園4號女廁","address":"嘉義市西　區香湖里文化路600號","administration":"縣市政府","latitude":"23.49249271","longitude":"120.4493406","grade":"特優級","type2":"公園","type":"女廁所","exec":null,"diaper":null},{"country":"10020","city":"10020020","village":"香湖里","number":"I020000807","name":"北香湖公園4號男廁","address":"嘉義市西　區香湖里文化路600號","administration":"縣市政府","latitude":"23.49251054","longitude":"120.4493158","grade":"特優級","type2":"公園","type":"男廁所","exec":null,"diaper":null},{"country":"10020","city":"10020010","village":"王田里","number":"I010000218","name":"嘉義樹木園男廁","address":"嘉義市東　區王田里山子頂270號","administration":"農業部","latitude":"23.47842","longitude":"120.4678","grade":"特優級","type2":"觀光地區及風景區","type":"男廁所","exec":null,"diaper":null},{"country":"10020","city":"10020020","village":"垂楊里","number":"I020000115","name":"嘉義噴水雞肉飯新民店","address":"嘉義市西　區垂楊里嘉義市西區新民路880號","administration":"縣市政府","latitude":"23.47242343","longitude":"120.4397142","grade":"特優級","type2":"商業營業場所","type":"混合廁所","exec":null,"diaper":null},{"country":"10020","city":"10020020","village":"福民里","number":"I020000114","name":"日式色鼎燒烤嘉義館女廁","address":"嘉義市西　區福民里嘉義市西區興業西路269號","administration":"縣市政府","latitude":"23.46780297","longitude":"120.4398215","grade":"特優級","type2":"商業營業場所","type":"女廁所","exec":null,"diaper":null},{"country":"10020","city":"10020020","village":"福民里","number":"I020000113","name":"日式色鼎燒烤嘉義館男廁","address":"嘉義市西　區福民里嘉義市西區興業西路269號","administration":"縣市政府","latitude":"23.4678325","longitude":"120.4398108","grade":"特優級","type2":"商業營業場所","type":"男廁所","exec":null,"diaper":null},{"country":"10020","city":"10020010","village":"新店里","number":"I010000216","name":"真武宮女廁","address":"嘉義市東　區新店里林森東路","administration":"縣市政府","latitude":"23.48963921","longitude":"120.466826","grade":"特優級","type2":"宗教禮儀場所","type":"女廁所","exec":null,"diaper":null},{"country":"10020","city":"10020020","village":"國華里","number":"I020000661","name":"秀泰生活嘉義店4F-男廁-1","address":"嘉義市西　區國華里文化路299號","administration":"其他","latitude":"23.4851522","longitude":"120.4479432","grade":"特優級","type2":"休閒娛樂場所","type":"男廁所","exec":null,"diaper":null},{"country":"10020","city":"10020020","village":"國華里","number":"I020000660","name":"秀泰生活嘉義店3F-女廁","address":"嘉義市西　區國華里文化路299號","administration":"其他","latitude":"23.4851522","longitude":"120.447911","grade":"特優級","type2":"休閒娛樂場所","type":"女廁所","exec":null,"diaper":null},{"country":"10020","city":"10020020","village":"國華里","number":"I020000659","name":"秀泰生活嘉義店3F-男廁","address":"嘉義市西　區國華里文化路299號","administration":"其他","latitude":"23.485205","longitude":"120.448045","grade":"特優級","type2":"休閒娛樂場所","type":"男廁所","exec":null,"diaper":null},{"country":"10020","city":"10020020","village":"國華里","number":"I020000658","name":"秀泰生活嘉義店2F-無障礙廁所","address":"嘉義市西　區國華里文化路299號","administration":"其他","latitude":"23.485205","longitude":"120.448045","grade":"特優級","type2":"休閒娛樂場所","type":"無障礙廁所","exec":null,"diaper":null},{"country":"10020","city":"10020020","village":"國華里","number":"I020000657","name":"秀泰生活嘉義店2F-女廁","address":"嘉義市西　區國華里文化路299號","administration":"其他","latitude":"23.485205","longitude":"120.448045","grade":"特優級","type2":"休閒娛樂場所","type":"女廁所","exec":null,"diaper":null},{"country":"10020","city":"10020020","village":"國華里","number":"I020000656","name":"秀泰生活嘉義店2F-男廁","address":"嘉義市西　區國華里文化路299號","administration":"其他","latitude":"23.485205","longitude":"120.448045","grade":"特優級","type2":"休閒娛樂場所","type":"男廁所","exec":null,"diaper":null},{"country":"10020","city":"10020020","village":"國華里","number":"I020000655","name":"秀泰生活嘉義店B1-無障礙廁所","address":"嘉義市西　區國華里文化路299號","administration":"其他","latitude":"23.485205","longitude":"120.448045","grade":"特優級","type2":"休閒娛樂場所","type":"無障礙廁所","exec":null,"diaper":null},{"country":"10020","city":"10020020","village":"國華里","number":"I020000654","name":"秀泰生活嘉義店B1-女廁","address":"嘉義市西　區國華里文化路299號","administration":"其他","latitude":"23.485205","longitude":"120.448045","grade":"特優級","type2":"休閒娛樂場所","type":"女廁所","exec":null,"diaper":null},{"country":"10020","city":"10020020","village":"國華里","number":"I020000653","name":"秀泰生活嘉義店B1-男廁","address":"嘉義市西　區國華里文化路299號","administration":"其他","latitude":"23.485205","longitude":"120.448045","grade":"特優級","type2":"休閒娛樂場所","type":"男廁所","exec":null,"diaper":null},{"country":"10020","city":"10020010","village":"長竹里","number":"I010000005","name":"嘉峰加油站男女廁","address":"嘉義市東　區長竹里大雅路二段497號","administration":"其他","latitude":"23.4777","longitude":"120.4708","grade":"特優級","type2":"商業營業場所","type":"混合廁所","exec":null,"diaper":null},{"country":"10020","city":"10020020","village":"香湖里","number":"I020000198","name":"北香湖公園男廁(櫻花林區)","address":"嘉義市西　區香湖里嘉義市西區文化路600號","administration":"縣市政府","latitude":"23.49103645","longitude":"120.4461193","grade":"特優級","type2":"公園","type":"男廁所","exec":null,"diaper":null},{"country":"10020","city":"10020010","village":"林森里","number":"I010000751","name":"檜意森活村T-10無障礙廁所","address":"嘉義市東　區林森里林森東路","administration":"農業部","latitude":"23.48627643","longitude":"120.4542813","grade":"特優級","type2":"觀光地區及風景區","type":"無障礙廁所","exec":null,"diaper":null},{"country":"10020","city":"10020010","village":"林森里","number":"I010000750","name":"檜意森活村T-10女廁","address":"嘉義市東　區林森里林森東路","administration":"農業部","latitude":"23.48627889","longitude":"120.4543027","grade":"特優級","type2":"觀光地區及風景區","type":"女廁所","exec":null,"diaper":null},{"country":"10020","city":"10020010","village":"林森里","number":"I010000749","name":"檜意森活村T-10男廁","address":"嘉義市東　區林森里林森東路","administration":"農業部","latitude":"23.48627151","longitude":"120.4542947","grade":"特優級","type2":"觀光地區及風景區","type":"男廁所","exec":null,"diaper":null},{"country":"10020","city":"10020010","village":"林森里","number":"I010000748","name":"檜意森活村T-04無障礙廁所","address":"嘉義市東　區林森里林森東路","administration":"農業部","latitude":"23.48615097","longitude":"120.4541498","grade":"特優級","type2":"觀光地區及風景區","type":"無障礙廁所","exec":null,"diaper":null},{"country":"10020","city":"10020010","village":"林森里","number":"I010000747","name":"檜意森活村T-04女廁","address":"嘉義市東　區林森里林森東路","administration":"農業部","latitude":"23.48612145","longitude":"120.454123","grade":"特優級","type2":"觀光地區及風景區","type":"女廁所","exec":null,"diaper":null},{"country":"10020","city":"10020010","village":"林森里","number":"I010000746","name":"檜意森活村T-04男廁","address":"嘉義市東　區林森里森東路","administration":"農業部","latitude":"23.48617557","longitude":"120.4542518","grade":"特優級","type2":"觀光地區及風景區","type":"男廁所","exec":null,"diaper":null},{"country":"10020","city":"10020010","village":"東興里","number":"I010000155","name":"7-11嘉和門市","address":"嘉義市東　區東興里中山路171號","administration":"縣市政府","latitude":"23.48168","longitude":"120.45582","grade":"特優級","type2":"商業營業場所","type":"混合廁所","exec":null,"diaper":null},{"country":"10020","city":"10020010","village":"中山里","number":"I010000733","name":"聖馬爾定1樓女廁(民權院區)","address":"嘉義市東　區中山里民權路","administration":"其他","latitude":"23.48450276","longitude":"120.4619122","grade":"特優級","type2":"社福機構、集會場所","type":"女廁所","exec":null,"diaper":null},{"country":"10020","city":"10020010","village":"中山里","number":"I010000732","name":"聖馬爾定1樓男廁(民權院區)","address":"嘉義市東　區中山里民權路","administration":"其他","latitude":"23.48446339","longitude":"120.4619122","grade":"特優級","type2":"社福機構、集會場所","type":"男廁所","exec":null,"diaper":null},{"country":"10020","city":"10020010","village":"蘭潭里","number":"I010000419","name":"聖馬爾定10樓男廁","address":"嘉義市東　區蘭潭里大雅路二段565號","administration":"其他","latitude":"23.47674849","longitude":"120.4673195","grade":"特優級","type2":"社福機構、集會場所","type":"男廁所","exec":null,"diaper":null},{"country":"10020","city":"10020010","village":"蘭潭里","number":"I010000418","name":"聖馬爾定9樓女廁","address":"嘉義市東　區蘭潭里大雅路二段565號","administration":"其他","latitude":"23.4766304","longitude":"120.4673195","grade":"特優級","type2":"社福機構、集會場所","type":"女廁所","exec":null,"diaper":null},{"country":"10020","city":"10020010","village":"蘭潭里","number":"I010000417","name":"聖馬爾定9樓男廁","address":"嘉義市東　區蘭潭里大雅路二段565號","administration":"其他","latitude":"23.47674849","longitude":"120.4674053","grade":"特優級","type2":"社福機構、集會場所","type":"男廁所","exec":null,"diaper":null},{"country":"10020","city":"10020010","village":"蘭潭里","number":"I010000416","name":"聖馬爾定8樓女廁","address":"嘉義市東　區蘭潭里大雅路二段565號","administration":"其他","latitude":"23.47670913","longitude":"120.4674053","grade":"特優級","type2":"社福機構、集會場所","type":"女廁所","exec":null,"diaper":null},{"country":"10020","city":"10020010","village":"蘭潭里","number":"I010000415","name":"聖馬爾定8樓男廁","address":"嘉義市東　區蘭潭里大雅路二段565號","administration":"其他","latitude":"23.47682722","longitude":"120.4674912","grade":"特優級","type2":"社福機構、集會場所","type":"男廁所","exec":null,"diaper":null},{"country":"10020","city":"10020010","village":"蘭潭里","number":"I010000414","name":"聖馬爾定7樓女廁","address":"嘉義市東　區蘭潭里大雅路二段565號","administration":"其他","latitude":"23.47678786","longitude":"120.4674053","grade":"特優級","type2":"社福機構、集會場所","type":"女廁所","exec":null,"diaper":null},{"country":"10020","city":"10020010","village":"蘭潭里","number":"I010000413","name":"聖馬爾定7樓男廁","address":"嘉義市東　區蘭潭里大雅路二段565號","administration":"其他","latitude":"23.47686658","longitude":"120.4673624","grade":"特優級","type2":"社福機構、集會場所","type":"男廁所","exec":null,"diaper":null},{"country":"10020","city":"10020010","village":"蘭潭里","number":"I010000412","name":"聖馬爾定6樓女廁","address":"嘉義市東　區蘭潭里大雅路二段565號","administration":"其他","latitude":"23.47674849","longitude":"120.4674053","grade":"特優級","type2":"社福機構、集會場所","type":"女廁所","exec":null,"diaper":null},{"country":"10020","city":"10020010","village":"蘭潭里","number":"I010000411","name":"聖馬爾定6樓男廁","address":"嘉義市東　區蘭潭里大雅路二段565號","administration":"其他","latitude":"23.47670913","longitude":"120.4674482","grade":"特優級","type2":"社福機構、集會場所","type":"男廁所","exec":null,"diaper":null},{"country":"10020","city":"10020020","village":"竹村里","number":"I020000330","name":"果菜市場1F無障礙廁所","address":"嘉義市西　區竹村里埤竹路50號","administration":"縣市政府","latitude":"23.491474","longitude":"120.39773","grade":"特優級","type2":"商業營業場所","type":"無障礙廁所","exec":null,"diaper":null},{"country":"10020","city":"10020020","village":"竹村里","number":"I020000329","name":"果菜市場1F男廁","address":"嘉義市西　區竹村里埤竹路50號","administration":"縣市政府","latitude":"23.491474","longitude":"120.39773","grade":"特優級","type2":"商業營業場所","type":"男廁所","exec":null,"diaper":null},{"country":"10020","city":"10020020","village":"竹村里","number":"I020000328","name":"果菜市場1F女廁","address":"嘉義市西　區竹村里埤竹路50號","administration":"縣市政府","latitude":"23.491474","longitude":"120.39773","grade":"特優級","type2":"商業營業場所","type":"女廁所","exec":null,"diaper":null},{"country":"10020","city":"10020010","village":"新開里","number":"I010000916","name":"東區體育館1樓東南側男廁","address":"嘉義市東　區新開里彌陀路","administration":"縣市政府","latitude":"23.473479","longitude":"120.46244","grade":"特優級","type2":"文化育樂活動場所","type":"男廁所","exec":null,"diaper":null},{"country":"10020","city":"10020010","village":"新開里","number":"I010000915","name":"東區體育館1樓東南側無障礙廁所","address":"嘉義市東　區新開里彌陀路","administration":"縣市政府","latitude":"23.473479","longitude":"120.46244","grade":"特優級","type2":"文化育樂活動場所","type":"無障礙廁所","exec":null,"diaper":null},{"country":"10020","city":"10020010","village":"新開里","number":"I010000914","name":"東區體育館1樓東南側女廁","address":"嘉義市東　區新開里彌陀路","administration":"縣市政府","latitude":"23.473479","longitude":"120.46244","grade":"特優級","type2":"文化育樂活動場所","type":"女廁所","exec":null,"diaper":null},{"country":"10020","city":"10020010","village":"新開里","number":"I010000913","name":"東區體育館1樓西北側女廁2","address":"嘉義市東　區新開里彌陀路","administration":"縣市政府","latitude":"23.473479","longitude":"120.46244","grade":"特優級","type2":"文化育樂活動場所","type":"女廁所","exec":null,"diaper":null},{"country":"10020","city":"10020010","village":"新開里","number":"I010000912","name":"東區體育館1樓西北側男廁","address":"嘉義市東　區新開里彌陀路","administration":"縣市政府","latitude":"23.473479","longitude":"120.46244","grade":"特優級","type2":"文化育樂活動場所","type":"男廁所","exec":null,"diaper":null},{"country":"10020","city":"10020010","village":"新開里","number":"I010000911","name":"東區體育館1樓西北側女廁1","address":"嘉義市東　區新開里彌陀路","administration":"縣市政府","latitude":"23.473479","longitude":"120.46244","grade":"特優級","type2":"文化育樂活動場所","type":"女廁所","exec":null,"diaper":null},{"country":"10020","city":"10020020","village":"福民里","number":"I020000800","name":"西區戶政事務所-性別友善廁所","address":"嘉義市西　區福民里錦州二街28號","administration":"縣市政府","latitude":"23.4645","longitude":"120.435379","grade":"特優級","type2":"民眾洽公場所","type":"性別友善廁所","exec":null,"diaper":null},{"country":"10020","city":"10020020","village":"保生里","number":"I020000799","name":"保安攤販集中場-女廁","address":"嘉義市西　區保生里保安一路236號","administration":"縣市政府","latitude":"23.49324","longitude":"120.43564","grade":"特優級","type2":"商業營業場所","type":"女廁所","exec":null,"diaper":null},{"country":"10020","city":"10020020","village":"保生里","number":"I020000798","name":"保安攤販集中場-男廁","address":"嘉義市西　區保生里保安一路236號","administration":"縣市政府","latitude":"23.49324","longitude":"120.43564","grade":"特優級","type2":"商業營業場所","type":"男廁所","exec":null,"diaper":null},{"country":"10020","city":"10020010","village":"後湖里","number":"I010000888","name":"嘉北火車站-無障礙廁所","address":"嘉義市東　區後湖里嘉義市東區後湖里保建街 110 號","administration":"交通部","latitude":"23.500603","longitude":"120.451166","grade":"特優級","type2":"交通","type":"無障礙廁所","exec":null,"diaper":null},{"country":"10020","city":"10020010","village":"後湖里","number":"I010000887","name":"嘉北火車站-女廁","address":"嘉義市東　區後湖里嘉義市東區後湖里保建街 110 號","administration":"交通部","latitude":"23.500603","longitude":"120.451166","grade":"特優級","type2":"交通","type":"女廁所","exec":null,"diaper":null},{"country":"10020","city":"10020010","village":"後湖里","number":"I010000886","name":"嘉北火車站-男廁","address":"嘉義市東　區後湖里嘉義市東區後湖里保建街 110 號","administration":"交通部","latitude":"23.500603","longitude":"120.451166","grade":"特優級","type2":"交通","type":"男廁所","exec":null,"diaper":null},{"country":"10020","city":"10020020","village":"西平里","number":"I020000797","name":"番仔溝公園無障礙廁所","address":"嘉義市西　區西平里嘉雄陸橋下","administration":"縣市政府","latitude":"23.47477","longitude":"120.4363","grade":"特優級","type2":"公園","type":"無障礙廁所","exec":null,"diaper":null},{"country":"10020","city":"10020020","village":"福全里","number":"I020000796","name":"衛生局親子廁所","address":"嘉義市西　區福全里德明路1號","administration":"縣市政府","latitude":"23.479949","longitude":"120.43119","grade":"特優級","type2":"民眾洽公場所","type":"親子廁所","exec":null,"diaper":null},{"country":"10020","city":"10020020","village":"書院里","number":"I020000444","name":"文創園區S棟文創聯合辦公室1F無障礙廁所","address":"嘉義市西　區書院里中山路616號","administration":"文化部","latitude":"23.4767","longitude":"120.4399","grade":"特優級","type2":"文化育樂活動場所","type":"無障礙廁所","exec":null,"diaper":null},{"country":"10020","city":"10020020","village":"書院里","number":"I020000443","name":"文創園區S棟文創聯合辦公室1F女廁","address":"嘉義市西　區書院里中山路616號","administration":"文化部","latitude":"23.4767","longitude":"120.4399","grade":"特優級","type2":"文化育樂活動場所","type":"女廁所","exec":null,"diaper":null},{"country":"10020","city":"10020020","village":"書院里","number":"I020000442","name":"文創園區S棟文創聯合辦公室1F男廁","address":"嘉義市西　區書院里中山路616號","administration":"文化部","latitude":"23.4767","longitude":"120.4399","grade":"特優級","type2":"文化育樂活動場所","type":"男廁所","exec":null,"diaper":null},{"country":"10020","city":"10020020","village":"書院里","number":"I020000441","name":"文創園區Q棟飲品文化體驗館無障礙廁所","address":"嘉義市西　區書院里中山路616號","administration":"文化部","latitude":"23.4767","longitude":"120.4399","grade":"特優級","type2":"文化育樂活動場所","type":"無障礙廁所","exec":null,"diaper":null},{"country":"10020","city":"10020020","village":"書院里","number":"I020000440","name":"文創園區Q棟飲品文化體驗館1F女廁","address":"嘉義市西　區書院里 ","administration":"文化部","latitude":"23.4767","longitude":"120.4399","grade":"特優級","type2":"文化育樂活動場所","type":"女廁所","exec":null,"diaper":null},{"country":"10020","city":"10020020","village":"書院里","number":"I020000439","name":"文創園區Q棟飲品文化體驗館1F男廁","address":"嘉義市西　區書院里中山路616號","administration":"文化部","latitude":"23.4767","longitude":"120.4399","grade":"特優級","type2":"文化育樂活動場所","type":"男廁所","exec":null,"diaper":null},{"country":"10020","city":"10020020","village":"書院里","number":"I020000438","name":"文創園區O棟文創願景館1F無障礙廁所","address":"嘉義市西　區書院里中山路616號","administration":"文化部","latitude":"23.4767","longitude":"120.4399","grade":"特優級","type2":"文化育樂活動場所","type":"無障礙廁所","exec":null,"diaper":null},{"country":"10020","city":"10020020","village":"書院里","number":"I020000437","name":"文創園區O棟文創願景館1F女廁","address":"嘉義市西　區書院里中山路616號","administration":"文化部","latitude":"23.4767","longitude":"120.4399","grade":"特優級","type2":"文化育樂活動場所","type":"女廁所","exec":null,"diaper":null},{"country":"10020","city":"10020020","village":"書院里","number":"I020000436","name":"文創園區O棟文創願景館1F男廁","address":"嘉義市西　區書院里中山路616號","administration":"文化部","latitude":"23.4767","longitude":"120.4399","grade":"特優級","type2":"文化育樂活動場所","type":"男廁所","exec":null,"diaper":null},{"country":"10020","city":"10020010","village":"興南里","number":"I010000031","name":"摩斯漢堡吳鳳店女廁","address":"嘉義市東　區興南里垂楊路","administration":"縣市政府","latitude":"23.4739","longitude":"120.4542","grade":"特優級","type2":"商業營業場所","type":"女廁所","exec":null,"diaper":null},{"country":"10020","city":"10020010","village":"興南里","number":"I010000030","name":"摩斯漢堡吳鳳店男廁","address":"嘉義市東　區興南里垂楊路","administration":"縣市政府","latitude":"23.4739","longitude":"120.4542","grade":"特優級","type2":"商業營業場所","type":"男廁所","exec":null,"diaper":null},{"country":"10020","city":"10020010","village":"朝陽里","number":"I010000029","name":"星巴克嘉邑店女廁","address":"嘉義市東　區朝陽里垂楊路","administration":"縣市政府","latitude":"23.4751","longitude":"120.461355","grade":"特優級","type2":"商業營業場所","type":"女廁所","exec":null,"diaper":null},{"country":"10020","city":"10020010","village":"朝陽里","number":"I010000028","name":"星巴克嘉邑店男廁","address":"嘉義市東　區朝陽里垂楊路","administration":"縣市政府","latitude":"23.4751","longitude":"120.461355","grade":"特優級","type2":"商業營業場所","type":"男廁所","exec":null,"diaper":null},{"country":"10020","city":"10020020","village":"永和里","number":"I020000618","name":"新光三越百貨B4男女廁","address":"嘉義市西　區永和里嘉義市西區垂楊路726號","administration":"其他","latitude":"23.47346165","longitude":"120.4410982","grade":"特優級","type2":"商業營業場所","type":"混合廁所","exec":null,"diaper":null},{"country":"10020","city":"10020020","village":"永和里","number":"I020000617","name":"新光三越百貨B3男女廁","address":"嘉義市西　區永和里嘉義市西區垂楊路726號","administration":"其他","latitude":"23.47348133","longitude":"120.4410124","grade":"特優級","type2":"商業營業場所","type":"混合廁所","exec":null,"diaper":null},{"country":"10020","city":"10020020","village":"永和里","number":"I020000616","name":"新光三越百貨B2女","address":"嘉義市西　區永和里嘉義市西區垂楊路726號","administration":"其他","latitude":"23.47340261","longitude":"120.4409695","grade":"特優級","type2":"商業營業場所","type":"女廁所","exec":null,"diaper":null},{"country":"10020","city":"10020020","village":"香湖里","number":"I020000202","name":"北香湖公園無障礙廁所(博愛區)","address":"嘉義市西　區香湖里文化路600號","administration":"縣市政府","latitude":"23.49286118","longitude":"120.4469118","grade":"特優級","type2":"公園","type":"無障礙廁所","exec":null,"diaper":null},{"country":"10020","city":"10020020","village":"香湖里","number":"I020000201","name":"北香湖公園女廁(博愛區)","address":"嘉義市西　區香湖里嘉義市西區文化路600號","administration":"縣市政府","latitude":"23.49284232","longitude":"120.4466314","grade":"特優級","type2":"公園","type":"女廁所","exec":null,"diaper":null},{"country":"10020","city":"10020020","village":"香湖里","number":"I020000200","name":"北香湖公園男廁(博愛區)","address":"嘉義市西　區香湖里嘉義市西區文化路600號","administration":"縣市政府","latitude":"23.49288526","longitude":"120.4465134","grade":"特優級","type2":"公園","type":"男廁所","exec":null,"diaper":null},{"country":"10020","city":"10020010","village":"東興里","number":"I010000727","name":"市政府1F近民樂街男廁","address":"嘉義市東　區東興里中山路199號","administration":"縣市政府","latitude":"23.481301","longitude":"120.453509","grade":"特優級","type2":"民眾洽公場所","type":"男廁所","exec":null,"diaper":null},{"country":"10020","city":"10020020","village":"北湖里","number":"I020000274","name":"北社尾公園無障礙廁所","address":"嘉義市西　區北湖里北社尾路上","administration":"縣市政府","latitude":"23.4922","longitude":"120.423","grade":"特優級","type2":"公園","type":"無障礙廁所","exec":null,"diaper":null},{"country":"10020","city":"10020020","village":"大溪里","number":"I020000332","name":"台灣中油嘉義高鐵南加油站無障礙廁所","address":"嘉義市西　區大溪里高鐵大道925號","administration":"經濟部","latitude":"23.48696","longitude":"120.402355","grade":"特優級","type2":"商業營業場所","type":"無障礙廁所","exec":null,"diaper":null},{"country":"10020","city":"10020020","village":"湖邊里","number":"I020000207","name":"小原婚宴餐廳新館1F無障礙廁所","address":"嘉義市西　區湖邊里嘉義市西區博愛路一段372號","administration":"縣市政府","latitude":"23.4876122","longitude":"120.4443383","grade":"特優級","type2":"商業營業場所","type":"無障礙廁所","exec":null,"diaper":null},{"country":"10020","city":"10020020","village":"湖邊里","number":"I020000206","name":"小原婚宴餐廳新館1F女廁","address":"嘉義市西　區湖邊里嘉義市西區博愛路一段372號","administration":"縣市政府","latitude":"23.4876122","longitude":"120.4443383","grade":"特優級","type2":"商業營業場所","type":"女廁所","exec":null,"diaper":null},{"country":"10020","city":"10020020","village":"湖邊里","number":"I020000205","name":"小原婚宴餐廳新館1F男廁","address":"嘉義市西　區湖邊里嘉義市西區博愛路一段372號","administration":"縣市政府","latitude":"23.4876122","longitude":"120.4443383","grade":"特優級","type2":"商業營業場所","type":"男廁所","exec":null,"diaper":null},{"country":"10020","city":"10020020","village":"湖邊里","number":"I020000204","name":"小原婚宴餐廳2F女廁","address":"嘉義市西　區湖邊里嘉義市西區博愛路一段372號","administration":"縣市政府","latitude":"23.4876122","longitude":"120.4443383","grade":"特優級","type2":"商業營業場所","type":"女廁所","exec":null,"diaper":null},{"country":"10020","city":"10020020","village":"湖邊里","number":"I020000203","name":"小原婚宴餐廳2F男廁","address":"嘉義市西　區湖邊里嘉義市西區博愛路一段372號","administration":"縣市政府","latitude":"23.4876122","longitude":"120.4443383","grade":"特優級","type2":"商業營業場所","type":"男廁所","exec":null,"diaper":null},{"country":"10020","city":"10020020","village":"竹村里","number":"I020000326","name":"果菜市場辦公室2F無障礙廁所","address":"嘉義市西　區竹村里埤竹路50號","administration":"縣市政府","latitude":"23.491474","longitude":"120.39773","grade":"特優級","type2":"商業營業場所","type":"無障礙廁所","exec":null,"diaper":null},{"country":"10020","city":"10020020","village":"竹村里","number":"I020000325","name":"果菜市場辦公室2F女廁","address":"嘉義市西　區竹村里埤竹路50號","administration":"縣市政府","latitude":"23.491474","longitude":"120.39773","grade":"特優級","type2":"商業營業場所","type":"女廁所","exec":null,"diaper":null},{"country":"10020","city":"10020020","village":"竹村里","number":"I020000324","name":"果菜市場辦公室2F男廁","address":"嘉義市西　區竹村里埤竹路50號","administration":"縣市政府","latitude":"23.491474","longitude":"120.39773","grade":"特優級","type2":"商業營業場所","type":"男廁所","exec":null,"diaper":null},{"country":"10020","city":"10020020","village":"福民里","number":"I020000521","name":"全家漢口店混合廁所","address":"嘉義市西　區福民里南京路","administration":"縣市政府","latitude":"23.46373842","longitude":"120.4363829","grade":"特優級","type2":"商業營業場所","type":"混合廁所","exec":null,"diaper":null},{"country":"10020","city":"10020020","village":"保安里","number":"I020000265","name":"全家八德店","address":"嘉義市西　區保安里八德路240號","administration":"縣市政府","latitude":"23.48876839","longitude":"120.4305089","grade":"特優級","type2":"商業營業場所","type":"混合廁所","exec":null,"diaper":null},{"country":"10020","city":"10020020","village":"番社里","number":"I020000455","name":"順天宮","address":"嘉義市西　區番社里林森西路","administration":"縣市政府","latitude":"23.48110786","longitude":"120.4434586","grade":"特優級","type2":"宗教禮儀場所","type":"混合廁所","exec":null,"diaper":null},{"country":"10020","city":"10020010","village":"新店里","number":"I010000879","name":"真武宮男廁","address":"嘉義市東　區新店里林森東路","administration":"縣市政府","latitude":"23.48963921","longitude":"120.466826","grade":"特優級","type2":"宗教禮儀場所","type":"男廁所","exec":null,"diaper":null},{"country":"10020","city":"10020010","village":"新開里","number":"I010000367","name":"體育館女廁","address":"嘉義市東　區新開里彌陀路","administration":"縣市政府","latitude":"23.47348","longitude":"120.46244","grade":"特優級","type2":"文化育樂活動場所","type":"女廁所","exec":null,"diaper":null},{"country":"10020","city":"10020010","village":"新開里","number":"I010000365","name":"體育場女廁","address":"嘉義市東　區新開里體育路","administration":"縣市政府","latitude":"23.471534","longitude":"120.461329","grade":"特優級","type2":"文化育樂活動場所","type":"女廁所","exec":null,"diaper":null},{"country":"10020","city":"10020020","village":"西平里","number":"I020000378","name":"南隱宮女廁","address":"嘉義市西　區西平里永春二街","administration":"其他","latitude":"23.478705","longitude":"120.426254","grade":"特優級","type2":"宗教禮儀場所","type":"女廁所","exec":null,"diaper":null},{"country":"10020","city":"10020020","village":"文化里","number":"I020000625","name":"西市場2F-右側女","address":"嘉義市西　區文化里國華街245號近國華街","administration":"縣市政府","latitude":"23.47939","longitude":"120.448395","grade":"特優級","type2":"商業營業場所","type":"女廁所","exec":null,"diaper":null},{"country":"10020","city":"10020020","village":"慶安里","number":"I020000708","name":"北興市場男廁","address":"嘉義市西　區慶安里嘉義市西區北興陸橋下","administration":"縣市政府","latitude":"23.483403","longitude":"120.444188","grade":"特優級","type2":"商業營業場所","type":"男廁所","exec":null,"diaper":null},{"country":"10020","city":"10020010","village":"民族里","number":"I010000659","name":"東市場女廁","address":"嘉義市東　區民族里吳鳳北路","administration":"縣市政府","latitude":"23.479066","longitude":"120.453859","grade":"特優級","type2":"商業營業場所","type":"女廁所","exec":null,"diaper":null},{"country":"10020","city":"10020010","village":"過溝里","number":"I010000651","name":"文化公園女廁","address":"嘉義市東　區過溝里文化路與民族路口","administration":"縣市政府","latitude":"23.474387","longitude":"120.450643","grade":"特優級","type2":"公園","type":"女廁所","exec":null,"diaper":null},{"country":"10020","city":"10020010","village":"過溝里","number":"I010000650","name":"文化公園男廁","address":"嘉義市東　區過溝里文化路與民族路口","administration":"縣市政府","latitude":"23.474387","longitude":"120.450643","grade":"特優級","type2":"公園","type":"男廁所","exec":null,"diaper":null},{"country":"10020","city":"10020010","village":"民族里","number":"I010000656","name":"文昌公園女廁","address":"嘉義市東　區民族里蘭井街","administration":"縣市政府","latitude":"23.478352","longitude":"120.45625","grade":"特優級","type2":"公園","type":"女廁所","exec":null,"diaper":null},{"country":"10020","city":"10020010","village":"中山里","number":"I010000741","name":"財稅局1F東側性別友善廁所","address":"嘉義市東　區中山里中山路154號","administration":"縣市政府","latitude":"23.481729","longitude":"120.45422","grade":"特優級","type2":"民眾洽公場所","type":"性別友善廁所","exec":null,"diaper":null},{"country":"10020","city":"10020020","village":"港坪里","number":"I020000379","name":"久井世賢站男廁","address":"嘉義市西　區港坪里世賢路二段446號","administration":"縣市政府","latitude":"23.472","longitude":"120.421","grade":"特優級","type2":"商業營業場所","type":"男廁所","exec":null,"diaper":null},{"country":"10020","city":"10020020","village":"自強里","number":"I020000592","name":"百賀日式燒肉火煱女廁","address":"嘉義市西　區自強里嘉義市西區新民路686號","administration":"縣市政府","latitude":"23.46774639","longitude":"120.4403499","grade":"特優級","type2":"商業營業場所","type":"女廁所","exec":null,"diaper":null},{"country":"10020","city":"10020020","village":"自強里","number":"I020000591","name":"百賀日式燒肉火煱男廁","address":"嘉義市西　區自強里嘉義市西區新民路686號","administration":"縣市政府","latitude":"23.46761599","longitude":"120.4404974","grade":"特優級","type2":"商業營業場所","type":"男廁所","exec":null,"diaper":null},{"country":"10020","city":"10020010","village":"北門里","number":"I010000780","name":"文化中心1F男廁","address":"嘉義市東　區北門里忠孝路","administration":"縣市政府","latitude":"23.48768","longitude":"120.45253","grade":"特優級","type2":"文化育樂活動場所","type":"男廁所","exec":null,"diaper":null},{"country":"10020","city":"10020010","village":"北門里","number":"I010000779","name":"文化中心音樂廳親子廁","address":"嘉義市東　區北門里忠孝路","administration":"縣市政府","latitude":"23.48768","longitude":"120.45253","grade":"特優級","type2":"文化育樂活動場所","type":"親子廁所","exec":null,"diaper":null},{"country":"10020","city":"10020020","village":"後驛里","number":"I020000719","name":"交通轉運中心1F無障礙廁所","address":"嘉義市西　區後驛里嘉義市西區中興路1號","administration":"縣市政府","latitude":"23.47973512","longitude":"120.4400253","grade":"特優級","type2":"交通","type":"無障礙廁所","exec":null,"diaper":null},{"country":"10020","city":"10020010","village":"義教里","number":"I010000811","name":"耐斯百貨3F無障礙廁所","address":"嘉義市東　區義教里忠孝路","administration":"其他","latitude":"23.496335","longitude":"120.4525405","grade":"特優級","type2":"商業營業場所","type":"無障礙廁所","exec":null,"diaper":null},{"country":"10020","city":"10020010","village":"義教里","number":"I010000810","name":"耐斯百貨2F無障礙廁所","address":"嘉義市東　區義教里忠孝路","administration":"其他","latitude":"23.49632516","longitude":"120.4525513","grade":"特優級","type2":"商業營業場所","type":"無障礙廁所","exec":null,"diaper":null},{"country":"10020","city":"10020020","village":"慶安里","number":"I020000710","name":"北興市場女廁","address":"嘉義市西　區慶安里嘉義市西區北興陸橋下","administration":"縣市政府","latitude":"23.48342033","longitude":"120.4441854","grade":"特優級","type2":"商業營業場所","type":"女廁所","exec":null,"diaper":null},{"country":"10020","city":"10020010","village":"荖藤里","number":"I010000036","name":"愛木村無障礙廁所","address":"嘉義市東　區荖藤里文化路","administration":"縣市政府","latitude":"23.50244","longitude":"120.43954","grade":"特優級","type2":"觀光地區及風景區","type":"無障礙廁所","exec":null,"diaper":null},{"country":"10020","city":"10020010","village":"蘭潭里","number":"I010000784","name":"蘭潭水庫泛月公園旁無障礙廁所","address":"嘉義市東　區蘭潭里蘭潭水庫泛月公園旁","administration":"縣市政府","latitude":"23.46674","longitude":"120.479221","grade":"特優級","type2":"觀光地區及風景區","type":"無障礙廁所","exec":null,"diaper":null},{"country":"10020","city":"10020010","village":"興南里","number":"I010000483","name":"南田公園無障礙廁所","address":"嘉義市東　區興南里南田路","administration":"縣市政府","latitude":"23.47072583","longitude":"120.4560971","grade":"特優級","type2":"公園","type":"無障礙廁所","exec":null,"diaper":null},{"country":"10020","city":"10020010","village":"太平里","number":"I010000343","name":"長榮公園無障礙廁所","address":"嘉義市東　區太平里長榮街","administration":"縣市政府","latitude":"23.4850169","longitude":"120.4577306","grade":"特優級","type2":"公園","type":"無障礙廁所","exec":null,"diaper":null},{"country":"10020","city":"10020010","village":"北門里","number":"I010000783","name":"文化中心音樂廳女廁","address":"嘉義市東　區北門里忠孝路","administration":"縣市政府","latitude":"23.48768","longitude":"120.45253","grade":"特優級","type2":"文化育樂活動場所","type":"女廁所","exec":null,"diaper":null},{"country":"10020","city":"10020010","village":"荖藤里","number":"I010000014","name":"福懋文化加油站女廁","address":"嘉義市東　區荖藤里文化路","administration":"縣市政府","latitude":"23.5077","longitude":"120.4363","grade":"特優級","type2":"商業營業場所","type":"女廁所","exec":null,"diaper":null},{"country":"10020","city":"10020010","village":"荖藤里","number":"I010000013","name":"福懋文化加油站男廁","address":"嘉義市東　區荖藤里文化路","administration":"縣市政府","latitude":"23.5077","longitude":"120.4363","grade":"特優級","type2":"商業營業場所","type":"男廁所","exec":null,"diaper":null},{"country":"10020","city":"10020010","village":"頂庄里","number":"I010000008","name":"興華加油站女廁","address":"嘉義市東　區頂庄里新生路","administration":"縣市政府","latitude":"23.4951","longitude":"120.4561","grade":"特優級","type2":"商業營業場所","type":"女廁所","exec":null,"diaper":null},{"country":"10020","city":"10020010","village":"頂庄里","number":"I010000007","name":"興華加油站男廁","address":"嘉義市東　區頂庄里新生路","administration":"縣市政府","latitude":"23.4951","longitude":"120.4561","grade":"特優級","type2":"商業營業場所","type":"男廁所","exec":null,"diaper":null},{"country":"10020","city":"10020010","village":"後湖里","number":"I010000012","name":"福懋嘉義加油站女廁","address":"嘉義市東　區後湖里忠孝路","administration":"縣市政府","latitude":"23.5025","longitude":"120.4494","grade":"特優級","type2":"商業營業場所","type":"女廁所","exec":null,"diaper":null},{"country":"10020","city":"10020010","village":"後湖里","number":"I010000011","name":"福懋嘉義加油站男廁","address":"嘉義市東　區後湖里忠孝路","administration":"縣市政府","latitude":"23.5025","longitude":"120.4494","grade":"特優級","type2":"商業營業場所","type":"男廁所","exec":null,"diaper":null},{"country":"10020","city":"10020010","village":"太平里","number":"I010000010","name":"威盛加油站女廁","address":"嘉義市東　區太平里博東路","administration":"縣市政府","latitude":"23.4906","longitude":"120.4615","grade":"特優級","type2":"商業營業場所","type":"女廁所","exec":null,"diaper":null},{"country":"10020","city":"10020010","village":"太平里","number":"I010000009","name":"威盛加油站男廁","address":"嘉義市東　區太平里博東路","administration":"縣市政府","latitude":"23.4906","longitude":"120.4615","grade":"特優級","type2":"商業營業場所","type":"男廁所","exec":null,"diaper":null},{"country":"10020","city":"10020010","village":"中山里","number":"I010000002","name":"台灣中油中山路加油站女廁","address":"嘉義市東　區中山里中山路90號","administration":"經濟部","latitude":"23.48234","longitude":"120.45936","grade":"特優級","type2":"商業營業場所","type":"女廁所","exec":null,"diaper":null},{"country":"10020","city":"10020020","village":"光路里","number":"I020000085","name":"全家光路店","address":"嘉義市西　區光路里民生南路","administration":"縣市政府","latitude":"23.45935879","longitude":"120.4434103","grade":"特優級","type2":"商業營業場所","type":"混合廁所","exec":null,"diaper":null},{"country":"10020","city":"10020020","village":"垂楊里","number":"I020000082","name":"全家上新店","address":"嘉義市西　區垂楊里上海路322號","administration":"縣市政府","latitude":"23.4704798","longitude":"120.4383516","grade":"特優級","type2":"商業營業場所","type":"混合廁所","exec":null,"diaper":null},{"country":"10020","city":"10020020","village":"車店里","number":"I020000080","name":"7-11嘉上門市","address":"嘉義市西　區車店里上海路147號","administration":"縣市政府","latitude":"23.46612009","longitude":"120.4321933","grade":"特優級","type2":"商業營業場所","type":"混合廁所","exec":null,"diaper":null},{"country":"10020","city":"10020020","village":"西平里","number":"I020000079","name":"7-11博元門市","address":"嘉義市西　區西平里嘉義市西區博愛路二段572號","administration":"縣市政府","latitude":"23.47157217","longitude":"120.4304981","grade":"特優級","type2":"商業營業場所","type":"混合廁所","exec":null,"diaper":null},{"country":"10020","city":"10020020","village":"港坪里","number":"I020000078","name":"7-11資砡門市","address":"嘉義市西　區港坪里玉山路","administration":"縣市政府","latitude":"23.4706471","longitude":"120.4182029","grade":"特優級","type2":"商業營業場所","type":"混合廁所","exec":null,"diaper":null},{"country":"10020","city":"10020020","village":"西平里","number":"I020000077","name":"7-11新港坪門市","address":"嘉義市西　區西平里玉山路","administration":"縣市政府","latitude":"23.47170995","longitude":"120.4261208","grade":"特優級","type2":"商業營業場所","type":"混合廁所","exec":null,"diaper":null},{"country":"10020","city":"10020020","village":"保安里","number":"I020000075","name":"7-11八大門市","address":"嘉義市西　區保安里八德路237號","administration":"縣市政府","latitude":"23.48930466","longitude":"120.4305196","grade":"特優級","type2":"商業營業場所","type":"混合廁所","exec":null,"diaper":null},{"country":"10020","city":"10020020","village":"慶安里","number":"I020000073","name":"7-11新嘉勝門市","address":"嘉義市西　區慶安里嘉義市西區博愛路一段421號","administration":"縣市政府","latitude":"23.48391235","longitude":"120.4419565","grade":"特優級","type2":"商業營業場所","type":"混合廁所","exec":null,"diaper":null},{"country":"10020","city":"10020010","village":"宣信里","number":"I010000166","name":"萊爾富嘉義國興店","address":"嘉義市東　區宣信里興業東路","administration":"縣市政府","latitude":"23.46944648","longitude":"120.4579425","grade":"特優級","type2":"商業營業場所","type":"混合廁所","exec":null,"diaper":null},{"country":"10020","city":"10020010","village":"中山里","number":"I010000165","name":"萊爾富嘉義啟園店","address":"嘉義市東　區中山里啟民路","administration":"縣市政府","latitude":"23.48389266","longitude":"120.4629636","grade":"特優級","type2":"商業營業場所","type":"混合廁所","exec":null,"diaper":null},{"country":"10020","city":"10020020","village":"福安里","number":"I020000072","name":"麥當勞北港店女廁","address":"嘉義市西　區福安里北港路","administration":"縣市政府","latitude":"23.4802","longitude":"120.4294","grade":"特優級","type2":"商業營業場所","type":"女廁所","exec":null,"diaper":null},{"country":"10020","city":"10020020","village":"福安里","number":"I020000071","name":"麥當勞北港店男廁","address":"嘉義市西　區福安里北港路","administration":"縣市政府","latitude":"23.4802","longitude":"120.4294","grade":"特優級","type2":"商業營業場所","type":"男廁所","exec":null,"diaper":null},{"country":"10020","city":"10020020","village":"書院里","number":"I020000050","name":"摩斯漢堡中山店女廁","address":"嘉義市西　區書院里中山路547號","administration":"縣市政府","latitude":"23.4792","longitude":"120.4438","grade":"特優級","type2":"商業營業場所","type":"女廁所","exec":null,"diaper":null},{"country":"10020","city":"10020020","village":"書院里","number":"I020000049","name":"摩斯漢堡中山店男廁","address":"嘉義市西　區書院里中山路547號","administration":"縣市政府","latitude":"23.4792","longitude":"120.4438","grade":"特優級","type2":"商業營業場所","type":"男廁所","exec":null,"diaper":null},{"country":"10020","city":"10020020","village":"書院里","number":"I020000058","name":"嘉年華戲院4F親子廁所","address":"嘉義市西　區書院里中山路617號","administration":"其他","latitude":"23.4781","longitude":"120.4414","grade":"特優級","type2":"休閒娛樂場所","type":"親子廁所","exec":null,"diaper":null},{"country":"10020","city":"10020020","village":"書院里","number":"I020000057","name":"嘉年華戲院4F男廁-2","address":"嘉義市西　區書院里中山路617號","administration":"其他","latitude":"23.4781","longitude":"120.4414","grade":"特優級","type2":"休閒娛樂場所","type":"男廁所","exec":null,"diaper":null},{"country":"10020","city":"10020020","village":"書院里","number":"I020000056","name":"嘉年華戲院4F無障礙廁所","address":"嘉義市西　區書院里中山路617號","administration":"其他","latitude":"23.4781","longitude":"120.4414","grade":"特優級","type2":"休閒娛樂場所","type":"無障礙廁所","exec":null,"diaper":null},{"country":"10020","city":"10020020","village":"書院里","number":"I020000055","name":"嘉年華戲院4F女廁-1","address":"嘉義市西　區書院里中山路617號","administration":"其他","latitude":"23.4781","longitude":"120.4414","grade":"特優級","type2":"休閒娛樂場所","type":"女廁所","exec":null,"diaper":null},{"country":"10020","city":"10020020","village":"書院里","number":"I020000054","name":"嘉年華戲院4F男廁-1","address":"嘉義市西　區書院里中山路617號","administration":"其他","latitude":"23.4781","longitude":"120.4414","grade":"特優級","type2":"休閒娛樂場所","type":"男廁所","exec":null,"diaper":null},{"country":"10020","city":"10020020","village":"書院里","number":"I020000053","name":"嘉年華戲院1F無障礙廁所","address":"嘉義市西　區書院里中山路617號","administration":"其他","latitude":"23.4781","longitude":"120.4414","grade":"特優級","type2":"休閒娛樂場所","type":"無障礙廁所","exec":null,"diaper":null},{"country":"10020","city":"10020010","village":"林森里","number":"I010000023","name":"家樂福北門店無障礙廁所","address":"嘉義市東　區林森里忠孝路","administration":"縣市政府","latitude":"23.4896","longitude":"120.4553","grade":"特優級","type2":"商業營業場所","type":"無障礙廁所","exec":null,"diaper":null},{"country":"10020","city":"10020010","village":"林森里","number":"I010000022","name":"家樂福北門店女廁","address":"嘉義市東　區林森里忠孝路","administration":"縣市政府","latitude":"23.4896","longitude":"120.4553","grade":"特優級","type2":"商業營業場所","type":"女廁所","exec":null,"diaper":null},{"country":"10020","city":"10020010","village":"林森里","number":"I010000021","name":"家樂福北門店男廁","address":"嘉義市東　區林森里忠孝路","administration":"縣市政府","latitude":"23.4896","longitude":"120.4553","grade":"特優級","type2":"商業營業場所","type":"男廁所","exec":null,"diaper":null},{"country":"10020","city":"10020010","village":"興村里","number":"I010000025","name":"麥當勞吳鳳南店女廁","address":"嘉義市東　區興村里吳鳳南路","administration":"縣市政府","latitude":"23.456185","longitude":"120.458806","grade":"特優級","type2":"商業營業場所","type":"女廁所","exec":null,"diaper":null},{"country":"10020","city":"10020010","village":"興村里","number":"I010000024","name":"麥當勞吳鳳南店男廁","address":"嘉義市東　區興村里吳鳳南路","administration":"縣市政府","latitude":"23.456185","longitude":"120.458806","grade":"特優級","type2":"商業營業場所","type":"男廁所","exec":null,"diaper":null},{"country":"10020","city":"10020020","village":"後驛里","number":"I020000041","name":"大潤發無障礙廁所","address":"嘉義市西　區後驛里博愛路二段281號","administration":"縣市政府","latitude":"23.4789","longitude":"120.4376","grade":"特優級","type2":"商業營業場所","type":"無障礙廁所","exec":null,"diaper":null},{"country":"10020","city":"10020020","village":"後驛里","number":"I020000040","name":"大潤發女廁","address":"嘉義市西　區後驛里嘉義市西區博愛路二段281號","administration":"縣市政府","latitude":"23.4789","longitude":"120.4376","grade":"特優級","type2":"商業營業場所","type":"女廁所","exec":null,"diaper":null},{"country":"10020","city":"10020020","village":"後驛里","number":"I020000039","name":"大潤發男廁","address":"嘉義市西　區後驛里嘉義市西區博愛路二段281號","administration":"縣市政府","latitude":"23.4789","longitude":"120.4376","grade":"特優級","type2":"商業營業場所","type":"男廁所","exec":null,"diaper":null},{"country":"10020","city":"10020010","village":"新開里","number":"I010000480","name":"青少年服務中心","address":"嘉義市東　區新開里體育路","administration":"縣市政府","latitude":"23.471699","longitude":"120.459779","grade":"特優級","type2":"社福機構、集會場所","type":"混合廁所","exec":null,"diaper":null},{"country":"10020","city":"10020020","village":"大溪里","number":"I020000331","name":"台灣中油嘉義高鐵北加油站無障礙廁所","address":"嘉義市西　區大溪里高鐵大道1250號","administration":"經濟部","latitude":"23.488331","longitude":"120.400372","grade":"特優級","type2":"商業營業場所","type":"無障礙廁所","exec":null,"diaper":null},{"country":"10020","city":"10020010","village":"義教里","number":"I010000797","name":"耐斯王子大飯店17F無障礙廁所","address":"嘉義市東　區義教里忠孝路","administration":"縣市政府","latitude":"23.496654","longitude":"120.453199","grade":"特優級","type2":"商業營業場所","type":"無障礙廁所","exec":null,"diaper":null},{"country":"10020","city":"10020010","village":"義教里","number":"I010000796","name":"耐斯王子大飯店17F女廁","address":"嘉義市東　區義教里忠孝路","administration":"縣市政府","latitude":"23.496654","longitude":"120.453199","grade":"特優級","type2":"商業營業場所","type":"女廁所","exec":null,"diaper":null},{"country":"10020","city":"10020010","village":"東興里","number":"I010000722","name":"市政府7F近民樂街女廁","address":"嘉義市東　區東興里中山路199號","administration":"縣市政府","latitude":"23.4811177","longitude":"120.4532433","grade":"特優級","type2":"民眾洽公場所","type":"女廁所","exec":null,"diaper":null},{"country":"10020","city":"10020010","village":"東興里","number":"I010000721","name":"市政府7F近民樂街男廁","address":"嘉義市東　區東興里中山路199號","administration":"縣市政府","latitude":"23.48094057","longitude":"120.4538763","grade":"特優級","type2":"民眾洽公場所","type":"男廁所","exec":null,"diaper":null},{"country":"10020","city":"10020010","village":"東興里","number":"I010000720","name":"市政府6F近民樂街女廁","address":"嘉義市東區中山路199號","administration":"縣市政府","latitude":"23.48115706","longitude":"120.4536724","grade":"特優級","type2":"民眾洽公場所","type":"女廁所","exec":null,"diaper":null},{"country":"10020","city":"10020020","village":"番社里","number":"I020000673","name":"台灣中油林森路加油站女廁","address":"嘉義市西　區番社里嘉義市西區林森西路281號","administration":"經濟部","latitude":"23.48051416","longitude":"120.4438031","grade":"特優級","type2":"商業營業場所","type":"女廁所","exec":null,"diaper":null},{"country":"10020","city":"10020020","village":"番社里","number":"I020000672","name":"台灣中油林森路加油站男廁","address":"嘉義市西　區番社里嘉義市西區林森西路281號","administration":"經濟部","latitude":"23.48051416","longitude":"120.4438031","grade":"特優級","type2":"商業營業場所","type":"男廁所","exec":null,"diaper":null},{"country":"10020","city":"10020020","village":"番社里","number":"I020000671","name":"台灣中油林森路加油站無障礙廁所","address":"嘉義市西　區番社里嘉義市西區林森西路281號","administration":"經濟部","latitude":"23.48051416","longitude":"120.4438031","grade":"特優級","type2":"商業營業場所","type":"無障礙廁所","exec":null,"diaper":null},{"country":"10020","city":"10020020","village":"國華里","number":"I020000666","name":"秀泰生活嘉義店4F-無障礙廁所","address":"嘉義市西　區國華里文化路299號","administration":"其他","latitude":"23.48615589","longitude":"120.4475784","grade":"特優級","type2":"休閒娛樂場所","type":"無障礙廁所","exec":null,"diaper":null},{"country":"10020","city":"10020020","village":"國華里","number":"I020000665","name":"秀泰生活嘉義店4F-女廁-3","address":"嘉義市西　區國華里文化路299號","administration":"其他","latitude":"23.48611653","longitude":"120.4474497","grade":"特優級","type2":"休閒娛樂場所","type":"女廁所","exec":null,"diaper":null},{"country":"10020","city":"10020020","village":"國華里","number":"I020000664","name":"秀泰生活嘉義店4F-女廁-2","address":"嘉義市西　區國華里文化路299號","administration":"其他","latitude":"23.48599845","longitude":"120.4476643","grade":"特優級","type2":"休閒娛樂場所","type":"女廁所","exec":null,"diaper":null},{"country":"10020","city":"10020020","village":"國華里","number":"I020000663","name":"秀泰生活嘉義店4F-男廁-2","address":"嘉義市西　區國華里文化路299號","administration":"其他","latitude":"23.48615589","longitude":"120.4475784","grade":"特優級","type2":"休閒娛樂場所","type":"男廁所","exec":null,"diaper":null},{"country":"10020","city":"10020020","village":"國華里","number":"I020000662","name":"秀泰生活嘉義店4F-女廁-1","address":"嘉義市西　區國華里文化路299號","administration":"其他","latitude":"23.48607717","longitude":"120.4476214","grade":"特優級","type2":"休閒娛樂場所","type":"女廁所","exec":null,"diaper":null},{"country":"10020","city":"10020020","village":"國華里","number":"I020000651","name":"秀泰生活嘉義店B2-女廁","address":"嘉義市西　區國華里文化路299號","administration":"其他","latitude":"23.485205","longitude":"120.448045","grade":"特優級","type2":"休閒娛樂場所","type":"女廁所","exec":null,"diaper":null},{"country":"10020","city":"10020020","village":"國華里","number":"I020000650","name":"秀泰生活嘉義店B2-男廁","address":"嘉義市西　區國華里文化路299號","administration":"其他","latitude":"23.48605749","longitude":"120.4476857","grade":"特優級","type2":"休閒娛樂場所","type":"男廁所","exec":null,"diaper":null},{"country":"10020","city":"10020020","village":"劉厝里","number":"I020000186","name":"台中榮總嘉義分院A棟2F眼科旁女廁","address":"嘉義市西　區劉厝里世賢路二段600號","administration":"國軍退除役官兵輔導委員會","latitude":"23.46665153","longitude":"120.4229236","grade":"特優級","type2":"社福機構、集會場所","type":"女廁所","exec":null,"diaper":null},{"country":"10020","city":"10020020","village":"劉厝里","number":"I020000185","name":"台中榮總嘉義分院A棟2F眼科旁男廁","address":"嘉義市西　區劉厝里世賢路二段600號","administration":"國軍退除役官兵輔導委員會","latitude":"23.46688772","longitude":"120.4230523","grade":"特優級","type2":"社福機構、集會場所","type":"男廁所","exec":null,"diaper":null},{"country":"10020","city":"10020020","village":"劉厝里","number":"I020000182","name":"台中榮總嘉義分院A棟1F中醫旁女廁","address":"嘉義市西　區劉厝里世賢路二段600號","administration":"國軍退除役官兵輔導委員會","latitude":"23.46678931","longitude":"120.4230309","grade":"特優級","type2":"社福機構、集會場所","type":"女廁所","exec":null,"diaper":null},{"country":"10020","city":"10020020","village":"劉厝里","number":"I020000181","name":"台中榮總嘉義分院A棟1F中醫旁男廁","address":"嘉義市西　區劉厝里世賢路二段","administration":"國軍退除役官兵輔導委員會","latitude":"23.46678931","longitude":"120.4230523","grade":"特優級","type2":"社福機構、集會場所","type":"男廁所","exec":null,"diaper":null},{"country":"10020","city":"10020010","village":"義教里","number":"I010000127","name":"嘉基東院區門診大樓2F女廁","address":"嘉義市東　區義教里忠孝路","administration":"其他","latitude":"23.50003943","longitude":"120.4509473","grade":"特優級","type2":"社福機構、集會場所","type":"女廁所","exec":null,"diaper":null},{"country":"10020","city":"10020020","village":"竹圍里","number":"I020000249","name":"新新園火鍋友愛店女廁","address":"嘉義市西　區竹圍里友愛路271號","administration":"縣市政府","latitude":"23.48547693","longitude":"120.4332608","grade":"特優級","type2":"商業營業場所","type":"女廁所","exec":null,"diaper":null},{"country":"10020","city":"10020010","village":"北門里","number":"I010000777","name":"文化中心左側4F男廁","address":"嘉義市東　區北門里忠孝路","administration":"縣市政府","latitude":"23.48798612","longitude":"120.4527068","grade":"特優級","type2":"文化育樂活動場所","type":"男廁所","exec":null,"diaper":null},{"country":"10020","city":"10020010","village":"北門里","number":"I010000776","name":"文化中心左側3F女廁","address":"嘉義市東　區北門里忠孝路","administration":"縣市政府","latitude":"23.48812388","longitude":"120.4527068","grade":"特優級","type2":"文化育樂活動場所","type":"女廁所","exec":null,"diaper":null},{"country":"10020","city":"10020010","village":"北門里","number":"I010000775","name":"文化中心左側3F男廁","address":"嘉義市東　區北門里忠孝路","administration":"縣市政府","latitude":"23.48804516","longitude":"120.4527712","grade":"特優級","type2":"文化育樂活動場所","type":"男廁所","exec":null,"diaper":null},{"country":"10020","city":"10020010","village":"北門里","number":"I010000774","name":"文化中心左側2F女廁","address":"嘉義市東　區北門里忠孝路","administration":"縣市政府","latitude":"23.48796644","longitude":"120.4526854","grade":"特優級","type2":"文化育樂活動場所","type":"女廁所","exec":null,"diaper":null},{"country":"10020","city":"10020010","village":"北門里","number":"I010000773","name":"文化中心左側2F男廁","address":"嘉義市東　區北門里忠孝路","administration":"縣市政府","latitude":"23.48801564","longitude":"120.4526854","grade":"特優級","type2":"文化育樂活動場所","type":"男廁所","exec":null,"diaper":null},{"country":"10020","city":"10020010","village":"北門里","number":"I010000772","name":"文化中心左側1F女廁","address":"嘉義市東　區北門里忠孝路","administration":"縣市政府","latitude":"23.48799596","longitude":"120.4526854","grade":"特優級","type2":"文化育樂活動場所","type":"女廁所","exec":null,"diaper":null},{"country":"10020","city":"10020010","village":"北門里","number":"I010000771","name":"文化中心左側1F男廁","address":"嘉義市東　區北門里忠孝路","administration":"縣市政府","latitude":"23.48802548","longitude":"120.4526961","grade":"特優級","type2":"文化育樂活動場所","type":"男廁所","exec":null,"diaper":null},{"country":"10020","city":"10020020","village":"西榮里","number":"I020000644","name":"黃賓紀念圖書館3F女廁","address":"嘉義市西　區西榮里延平街328號","administration":"縣市政府","latitude":"23.47659104","longitude":"120.4468811","grade":"特優級","type2":"文化育樂活動場所","type":"女廁所","exec":null,"diaper":null},{"country":"10020","city":"10020020","village":"西榮里","number":"I020000643","name":"黃賓紀念圖書館3F男廁","address":"嘉義市西　區西榮里延平街328號","administration":"縣市政府","latitude":"23.47660088","longitude":"120.4469347","grade":"特優級","type2":"文化育樂活動場所","type":"男廁所","exec":null,"diaper":null},{"country":"10020","city":"10020020","village":"西榮里","number":"I020000641","name":"黃賓紀念圖書館2F男廁","address":"嘉義市西　區西榮里延平街328號","administration":"縣市政府","latitude":"23.47660088","longitude":"120.4469562","grade":"特優級","type2":"文化育樂活動場所","type":"男廁所","exec":null,"diaper":null},{"country":"10020","city":"10020020","village":"西榮里","number":"I020000640","name":"黃賓紀念圖書館1F無障礙廁所","address":"嘉義市西　區西榮里延平街328號","administration":"縣市政府","latitude":"23.47659104","longitude":"120.4469669","grade":"特優級","type2":"文化育樂活動場所","type":"無障礙廁所","exec":null,"diaper":null},{"country":"10020","city":"10020020","village":"西榮里","number":"I020000639","name":"黃賓紀念圖書館1F女廁","address":"嘉義市西　區西榮里延平街328號","administration":"縣市政府","latitude":"23.47659104","longitude":"120.4469562","grade":"特優級","type2":"文化育樂活動場所","type":"女廁所","exec":null,"diaper":null},{"country":"10020","city":"10020020","village":"西榮里","number":"I020000638","name":"黃賓紀念圖書館1F男廁","address":"嘉義市西　區西榮里延平街328號","administration":"縣市政府","latitude":"23.47653938","longitude":"120.446865","grade":"特優級","type2":"文化育樂活動場所","type":"男廁所","exec":null,"diaper":null},{"country":"10020","city":"10020010","village":"蘭潭里","number":"I010000407","name":"聖馬爾定4樓男廁","address":"嘉義市東　區蘭潭里大雅路二段565號","administration":"縣市政府","latitude":"23.47674849","longitude":"120.4673624","grade":"特優級","type2":"社福機構、集會場所","type":"男廁所","exec":null,"diaper":null},{"country":"10020","city":"10020010","village":"蘭潭里","number":"I010000406","name":"聖馬爾定3樓女廁","address":"嘉義市東　區蘭潭里大雅路二段565號","administration":"其他","latitude":"23.47670913","longitude":"120.4674912","grade":"特優級","type2":"社福機構、集會場所","type":"女廁所","exec":null,"diaper":null},{"country":"10020","city":"10020010","village":"蘭潭里","number":"I010000405","name":"聖馬爾定3樓男廁","address":"嘉義市東　區蘭潭里大雅路二段565號","administration":"縣市政府","latitude":"23.47678786","longitude":"120.4673624","grade":"特優級","type2":"社福機構、集會場所","type":"男廁所","exec":null,"diaper":null},{"country":"10020","city":"10020010","village":"蘭潭里","number":"I010000404","name":"聖馬爾定2樓女廁","address":"嘉義市東　區蘭潭里大雅路二段565號","administration":"其他","latitude":"23.47666977","longitude":"120.4673624","grade":"特優級","type2":"社福機構、集會場所","type":"女廁所","exec":null,"diaper":null},{"country":"10020","city":"10020010","village":"蘭潭里","number":"I010000403","name":"聖馬爾定2樓男廁","address":"嘉義市東　區蘭潭里大雅路二段565號","administration":"其他","latitude":"23.4766304","longitude":"120.4672766","grade":"特優級","type2":"社福機構、集會場所","type":"男廁所","exec":null,"diaper":null},{"country":"10020","city":"10020010","village":"蘭潭里","number":"I010000402","name":"聖馬爾定1樓無障礙廁所","address":"嘉義市東　區蘭潭里大雅路二段565號","administration":"其他","latitude":"23.4766304","longitude":"120.4672337","grade":"特優級","type2":"社福機構、集會場所","type":"無障礙廁所","exec":null,"diaper":null},{"country":"10020","city":"10020010","village":"蘭潭里","number":"I010000401","name":"聖馬爾定1樓女廁","address":"嘉義市東　區蘭潭里大雅路二段565號","administration":"其他","latitude":"23.47670913","longitude":"120.4673195","grade":"特優級","type2":"社福機構、集會場所","type":"女廁所","exec":null,"diaper":null},{"country":"10020","city":"10020010","village":"蘭潭里","number":"I010000400","name":"聖馬爾定1樓男廁","address":"嘉義市東　區蘭潭里大雅路二段565號","administration":"其他","latitude":"23.47674849","longitude":"120.4674053","grade":"特優級","type2":"社福機構、集會場所","type":"男廁所","exec":null,"diaper":null},{"country":"10020","city":"10020020","village":"竹村里","number":"I020000317","name":"嘉義魚市場南側女廁","address":"嘉義市西　區竹村里埤竹路52號","administration":"縣市政府","latitude":"23.491474","longitude":"120.39773","grade":"特優級","type2":"商業營業場所","type":"女廁所","exec":null,"diaper":null},{"country":"10020","city":"10020010","village":"中庄里","number":"I010000120","name":"嘉基2F檢驗中心旁男廁","address":"嘉義市東　區中庄里忠孝路","administration":"其他","latitude":"23.49898665","longitude":"120.4502821","grade":"特優級","type2":"社福機構、集會場所","type":"男廁所","exec":null,"diaper":null},{"country":"10020","city":"10020010","village":"中庄里","number":"I010000119","name":"嘉基2F胃鏡候診區旁女廁","address":"嘉義市東　區中庄里忠孝路","administration":"其他","latitude":"23.49902601","longitude":"120.4502392","grade":"特優級","type2":"社福機構、集會場所","type":"女廁所","exec":null,"diaper":null},{"country":"10020","city":"10020010","village":"中庄里","number":"I010000118","name":"嘉基2F胃鏡候診區旁男廁","address":"嘉義市東　區中庄里忠孝路","administration":"其他","latitude":"23.49902601","longitude":"120.4502821","grade":"特優級","type2":"社福機構、集會場所","type":"男廁所","exec":null,"diaper":null},{"country":"10020","city":"10020010","village":"中庄里","number":"I010000117","name":"嘉基2F神經內科旁女廁","address":"嘉義市東　區中庄里忠孝路","administration":"其他","latitude":"23.49906536","longitude":"120.4502821","grade":"特優級","type2":"社福機構、集會場所","type":"女廁所","exec":null,"diaper":null},{"country":"10020","city":"10020010","village":"中庄里","number":"I010000116","name":"嘉基2F神經內科旁男廁","address":"嘉義市東　區中庄里忠孝路","administration":"其他","latitude":"23.49902601","longitude":"120.4502821","grade":"特優級","type2":"社福機構、集會場所","type":"男廁所","exec":null,"diaper":null},{"country":"10020","city":"10020010","village":"中庄里","number":"I010000115","name":"嘉基1FD大廳星巴克前女廁","address":"嘉義市東　區中庄里忠孝路","administration":"衛生福利部","latitude":"23.49902601","longitude":"120.4502821","grade":"特優級","type2":"社福機構、集會場所","type":"女廁所","exec":null,"diaper":null},{"country":"10020","city":"10020010","village":"中庄里","number":"I010000114","name":"嘉基1FD大廳星巴克前男廁","address":"嘉義市東　區中庄里忠孝路","administration":"其他","latitude":"23.49902601","longitude":"120.4502392","grade":"特優級","type2":"社福機構、集會場所","type":"男廁所","exec":null,"diaper":null},{"country":"10020","city":"10020010","village":"中庄里","number":"I010000113","name":"嘉基1F急診批價櫃台前女廁","address":"嘉義市東　區中庄里忠孝路","administration":"其他","latitude":"23.4989473","longitude":"120.4502821","grade":"特優級","type2":"社福機構、集會場所","type":"女廁所","exec":null,"diaper":null},{"country":"10020","city":"10020010","village":"中庄里","number":"I010000112","name":"嘉基1F急診批價櫃台前男廁","address":"嘉義市東　區中庄里忠孝路","administration":"其他","latitude":"23.4989473","longitude":"120.4502392","grade":"特優級","type2":"社福機構、集會場所","type":"男廁所","exec":null,"diaper":null},{"country":"10020","city":"10020010","village":"中庄里","number":"I010000111","name":"嘉基1F留觀區前女廁","address":"嘉義市東　區中庄里忠孝路","administration":"其他","latitude":"23.49898665","longitude":"120.4502821","grade":"特優級","type2":"社福機構、集會場所","type":"女廁所","exec":null,"diaper":null},{"country":"10020","city":"10020010","village":"中庄里","number":"I010000110","name":"嘉基1F留觀區前男廁","address":"嘉義市東　區中庄里忠孝路","administration":"其他","latitude":"23.49918343","longitude":"120.4501104","grade":"特優級","type2":"社福機構、集會場所","type":"男廁所","exec":null,"diaper":null},{"country":"10020","city":"10020010","village":"義教里","number":"I010000133","name":"嘉基東院區門診大樓5F女廁","address":"嘉義市東　區義教里忠孝路","administration":"其他","latitude":"23.49969506","longitude":"120.4513121","grade":"特優級","type2":"社福機構、集會場所","type":"女廁所","exec":null,"diaper":null},{"country":"10020","city":"10020010","village":"義教里","number":"I010000132","name":"嘉基東院區門診大樓5F男廁","address":"嘉義市東　區義教里忠孝路","administration":"其他","latitude":"23.49985249","longitude":"120.4512262","grade":"特優級","type2":"社福機構、集會場所","type":"男廁所","exec":null,"diaper":null},{"country":"10020","city":"10020010","village":"義教里","number":"I010000131","name":"嘉基東院區門診大樓3F無障礙廁所","address":"嘉義市東　區義教里忠孝路","administration":"其他","latitude":"23.49985249","longitude":"120.4512692","grade":"特優級","type2":"社福機構、集會場所","type":"無障礙廁所","exec":null,"diaper":null},{"country":"10020","city":"10020010","village":"義教里","number":"I010000130","name":"嘉基東院區門診大樓3F女廁","address":"嘉義市東　區義教里忠孝路","administration":"其他","latitude":"23.49985249","longitude":"120.451355","grade":"特優級","type2":"社福機構、集會場所","type":"女廁所","exec":null,"diaper":null},{"country":"10020","city":"10020010","village":"義教里","number":"I010000129","name":"嘉基東院區門診大樓3F男廁","address":"嘉義市東　區義教里忠孝路","administration":"其他","latitude":"23.49969506","longitude":"120.451355","grade":"特優級","type2":"社福機構、集會場所","type":"男廁所","exec":null,"diaper":null},{"country":"10020","city":"10020010","village":"義教里","number":"I010000128","name":"嘉基東院區門診大樓2F無障礙廁所","address":"嘉義市東　區義教里忠孝路","administration":"其他","latitude":"23.49981313","longitude":"120.4511619","grade":"特優級","type2":"社福機構、集會場所","type":"無障礙廁所","exec":null,"diaper":null},{"country":"10020","city":"10020010","village":"義教里","number":"I010000126","name":"嘉基東院區門診大樓2F男廁","address":"嘉義市東　區義教里忠孝路","administration":"其他","latitude":"23.49989184","longitude":"120.4510975","grade":"特優級","type2":"社福機構、集會場所","type":"男廁所","exec":null,"diaper":null},{"country":"10020","city":"10020010","village":"義教里","number":"I010000125","name":"嘉基東院區門診大樓1F無障礙廁所","address":"嘉義市東　區義教里忠孝路","administration":"其他","latitude":"23.49985249","longitude":"120.4511619","grade":"特優級","type2":"社福機構、集會場所","type":"無障礙廁所","exec":null,"diaper":null},{"country":"10020","city":"10020010","village":"義教里","number":"I010000124","name":"嘉基東院區門診大樓1F親子廁所","address":"嘉義市東　區義教里忠孝路","administration":"其他","latitude":"23.50000991","longitude":"120.4510546","grade":"特優級","type2":"社福機構、集會場所","type":"親子廁所","exec":null,"diaper":null},{"country":"10020","city":"10020020","village":"劉厝里","number":"I020000153","name":"嘉義噴水雞肉飯博愛店女廁","address":"嘉義市西　區劉厝里嘉義市西區博愛路二段844號","administration":"縣市政府","latitude":"23.46539181","longitude":"120.4247904","grade":"特優級","type2":"商業營業場所","type":"女廁所","exec":null,"diaper":null},{"country":"10020","city":"10020020","village":"劉厝里","number":"I020000152","name":"嘉義噴水雞肉飯博愛店男廁","address":"嘉義市西　區劉厝里嘉義市西區博愛路二段844號","administration":"縣市政府","latitude":"23.46543118","longitude":"120.4248118","grade":"特優級","type2":"商業營業場所","type":"男廁所","exec":null,"diaper":null},{"country":"10020","city":"10020020","village":"下埤里","number":"I020000145","name":"左阜右邑興達店無障礙廁","address":"嘉義市西　區下埤里嘉義市西區興達路396號","administration":"縣市政府","latitude":"23.486","longitude":"120.43485","grade":"特優級","type2":"商業營業場所","type":"無障礙廁所","exec":null,"diaper":null},{"country":"10020","city":"10020020","village":"下埤里","number":"I020000144","name":"左阜右邑興達店女廁","address":"嘉義市西　區下埤里嘉義市西區興達路396號","administration":"縣市政府","latitude":"23.486","longitude":"120.43485","grade":"特優級","type2":"商業營業場所","type":"女廁所","exec":null,"diaper":null},{"country":"10020","city":"10020020","village":"下埤里","number":"I020000143","name":"左阜右邑興達店男廁","address":"嘉義市西　區下埤里嘉義市西區興達路396號","administration":"縣市政府","latitude":"23.486","longitude":"120.43485","grade":"特優級","type2":"商業營業場所","type":"男廁所","exec":null,"diaper":null},{"country":"10020","city":"10020020","village":"西平里","number":"I020000127","name":"一葉日本料理餐廳女廁","address":"嘉義市西　區西平里嘉義市西區博愛路二段700號","administration":"縣市政府","latitude":"23.46883632","longitude":"120.4284811","grade":"特優級","type2":"商業營業場所","type":"女廁所","exec":null,"diaper":null},{"country":"10020","city":"10020010","village":"過溝里","number":"I010000304","name":"点爭鮮嘉義店無障礙廁所","address":"嘉義市東　區過溝里垂楊路","administration":"縣市政府","latitude":"23.47419972","longitude":"120.4519987","grade":"特優級","type2":"商業營業場所","type":"無障礙廁所","exec":null,"diaper":null},{"country":"10020","city":"10020010","village":"過溝里","number":"I010000303","name":"点爭鮮嘉義店男女廁","address":"嘉義市東　區過溝里垂楊路","administration":"縣市政府","latitude":"23.47419972","longitude":"120.4519987","grade":"特優級","type2":"商業營業場所","type":"混合廁所","exec":null,"diaper":null},{"country":"10020","city":"10020010","village":"朝陽里","number":"I010000302","name":"千葉火鍋嘉義尊爵館女廁","address":"嘉義市東　區朝陽里垂楊路","administration":"縣市政府","latitude":"23.47506572","longitude":"120.4611504","grade":"特優級","type2":"商業營業場所","type":"女廁所","exec":null,"diaper":null},{"country":"10020","city":"10020010","village":"朝陽里","number":"I010000301","name":"千葉火鍋嘉義尊爵館男廁","address":"嘉義市東　區朝陽里垂楊路","administration":"縣市政府","latitude":"23.47502636","longitude":"120.4611504","grade":"特優級","type2":"商業營業場所","type":"男廁所","exec":null,"diaper":null},{"country":"10020","city":"10020020","village":"國華里","number":"I020000103","name":"西堤牛排文化店男廁","address":"嘉義市西　區國華里文化路155號2樓","administration":"縣市政府","latitude":"23.48076345","longitude":"120.4492736","grade":"特優級","type2":"商業營業場所","type":"男廁所","exec":null,"diaper":null},{"country":"10020","city":"10020020","village":"國華里","number":"I020000102","name":"陶板屋嘉義林森西店女廁","address":"嘉義市西　區國華里林森西路","administration":"縣市政府","latitude":"23.4838533","longitude":"120.448013","grade":"特優級","type2":"商業營業場所","type":"女廁所","exec":null,"diaper":null},{"country":"10020","city":"10020020","village":"國華里","number":"I020000101","name":"陶板屋嘉義林森西店男廁","address":"嘉義市西　區國華里林森西路","administration":"縣市政府","latitude":"23.4838533","longitude":"120.4480183","grade":"特優級","type2":"商業營業場所","type":"男廁所","exec":null,"diaper":null},{"country":"10020","city":"10020020","village":"國華里","number":"I020000100","name":"品田牧場嘉義國華店女廁","address":"嘉義市西　區國華里嘉義市西區國華街212號","administration":"縣市政府","latitude":"23.48049038","longitude":"120.4484797","grade":"特優級","type2":"商業營業場所","type":"女廁所","exec":null,"diaper":null},{"country":"10020","city":"10020020","village":"國華里","number":"I020000099","name":"品田牧場嘉義國華店男廁","address":"嘉義市西　區國華里嘉義市西區國華街212號","administration":"縣市政府","latitude":"23.48049776","longitude":"120.4484743","grade":"特優級","type2":"商業營業場所","type":"男廁所","exec":null,"diaper":null},{"country":"10020","city":"10020010","village":"東川里","number":"I010000286","name":"玫瑰園咖啡簡餐女廁","address":"嘉義市東　區東川里大雅路二段536號","administration":"縣市政府","latitude":"23.4780573","longitude":"120.469079","grade":"特優級","type2":"商業營業場所","type":"女廁所","exec":null,"diaper":null},{"country":"10020","city":"10020010","village":"東川里","number":"I010000285","name":"玫瑰園咖啡簡餐男廁","address":"嘉義市東　區東川里大雅路二段536號","administration":"縣市政府","latitude":"23.47801794","longitude":"120.4690898","grade":"特優級","type2":"商業營業場所","type":"男廁所","exec":null,"diaper":null},{"country":"10020","city":"10020010","village":"長竹里","number":"I010000284","name":"嘉義噴水雞肉飯小雅店女廁","address":"嘉義市東　區長竹里小雅路382號","administration":"縣市政府","latitude":"23.47726021","longitude":"120.470109","grade":"特優級","type2":"商業營業場所","type":"女廁所","exec":null,"diaper":null},{"country":"10020","city":"10020010","village":"東興里","number":"I010000827","name":"陽明醫院8F男廁","address":"嘉義市東　區東興里吳鳳北路","administration":"其他","latitude":"23.48057","longitude":"120.45319","grade":"特優級","type2":"社福機構、集會場所","type":"男廁所","exec":null,"diaper":null},{"country":"10020","city":"10020010","village":"東興里","number":"I010000826","name":"陽明醫院7F女廁","address":"嘉義市東　區東興里吳鳳北路","administration":"其他","latitude":"23.48057","longitude":"120.45319","grade":"特優級","type2":"社福機構、集會場所","type":"女廁所","exec":null,"diaper":null},{"country":"10020","city":"10020020","village":"湖內里","number":"I020000813","name":"湖美夜市男女廁","address":"嘉義市西　區湖內里湖美八路與健康二路口","administration":"縣市政府","latitude":"23.45032","longitude":"120.438177","grade":"特優級","type2":"商業營業場所","type":"混合廁所","exec":null,"diaper":null},{"country":"10020","city":"10020010","village":"東興里","number":"I010000819","name":"陽明醫院3F男廁","address":"嘉義市東　區東興里吳鳳北路","administration":"其他","latitude":"23.48040919","longitude":"120.453372","grade":"特優級","type2":"社福機構、集會場所","type":"男廁所","exec":null,"diaper":null},{"country":"10020","city":"10020010","village":"東興里","number":"I010000818","name":"陽明醫院2F無障礙廁所","address":"嘉義市東　區東興里吳鳳北路","administration":"其他","latitude":"23.48042887","longitude":"120.4535222","grade":"特優級","type2":"社福機構、集會場所","type":"無障礙廁所","exec":null,"diaper":null},{"country":"10020","city":"10020010","village":"東興里","number":"I010000817","name":"陽明醫院2F女廁","address":"嘉義市東　區東興里吳鳳北路","administration":"其他","latitude":"23.48046823","longitude":"120.4534578","grade":"特優級","type2":"社福機構、集會場所","type":"女廁所","exec":null,"diaper":null},{"country":"10020","city":"10020010","village":"東興里","number":"I010000816","name":"陽明醫院2F男廁","address":"嘉義市東　區東興里吳鳳北路","administration":"其他","latitude":"23.48038951","longitude":"120.4534578","grade":"特優級","type2":"社福機構、集會場所","type":"男廁所","exec":null,"diaper":null},{"country":"10020","city":"10020010","village":"東興里","number":"I010000815","name":"陽明醫院1F無障礙廁所","address":"嘉義市東　區東興里吳鳳北路","administration":"其他","latitude":"23.48040919","longitude":"120.4533935","grade":"特優級","type2":"社福機構、集會場所","type":"無障礙廁所","exec":null,"diaper":null},{"country":"10020","city":"10020010","village":"東興里","number":"I010000814","name":"陽明醫院1F女廁","address":"嘉義市東　區東興里吳鳳北路","administration":"其他","latitude":"23.48040919","longitude":"120.453372","grade":"特優級","type2":"社福機構、集會場所","type":"女廁所","exec":null,"diaper":null},{"country":"10020","city":"10020010","village":"東興里","number":"I010000813","name":"陽明醫院1F男廁","address":"嘉義市東　區東興里吳鳳北路","administration":"其他","latitude":"23.48038951","longitude":"120.4533935","grade":"特優級","type2":"社福機構、集會場所","type":"男廁所","exec":null,"diaper":null},{"country":"10020","city":"10020020","village":"美源里","number":"I020000095","name":"左阜右邑新民店女廁","address":"嘉義市西　區美源里嘉義市西區新民路618號","administration":"縣市政府","latitude":"23.466","longitude":"120.4405","grade":"特優級","type2":"商業營業場所","type":"女廁所","exec":null,"diaper":null},{"country":"10020","city":"10020020","village":"美源里","number":"I020000094","name":"左阜右邑新民店男廁","address":"嘉義市西　區美源里嘉義市西區新民路618號","administration":"縣市政府","latitude":"23.466","longitude":"120.4405","grade":"特優級","type2":"商業營業場所","type":"男廁所","exec":null,"diaper":null},{"country":"10020","city":"10020010","village":"長竹里","number":"I010000283","name":"嘉義噴水雞肉飯小雅店男廁","address":"嘉義市東　區長竹里小雅路382號","administration":"縣市政府","latitude":"23.47681","longitude":"120.47017","grade":"特優級","type2":"商業營業場所","type":"男廁所","exec":null,"diaper":null},{"country":"10020","city":"10020010","village":"長竹里","number":"I010000282","name":"貴族世家嘉義大雅店女廁","address":"嘉義市東　區長竹里大雅路二段167號","administration":"縣市政府","latitude":"23.47890359","longitude":"120.4784131","grade":"特優級","type2":"商業營業場所","type":"女廁所","exec":null,"diaper":null},{"country":"10020","city":"10020020","village":"翠岱里","number":"I020000092","name":"7-11鈺順門市","address":"嘉義市西　區翠岱里嘉義市西區新榮路35巷20號","administration":"縣市政府","latitude":"23.46992","longitude":"120.44338","grade":"特優級","type2":"商業營業場所","type":"混合廁所","exec":null,"diaper":null},{"country":"10020","city":"10020020","village":"文化里","number":"I020000091","name":"7-11新瑞鴻門市","address":"嘉義市西　區文化里民族路","administration":"縣市政府","latitude":"23.47615805","longitude":"120.4497027","grade":"特優級","type2":"商業營業場所","type":"混合廁所","exec":null,"diaper":null},{"country":"10020","city":"10020020","village":"劉厝里","number":"I020000088","name":"全家自強店","address":"嘉義市西　區劉厝里自強街","administration":"縣市政府","latitude":"23.46497846","longitude":"120.4222369","grade":"特優級","type2":"商業營業場所","type":"混合廁所","exec":null,"diaper":null},{"country":"10020","city":"10020010","village":"王田里","number":"I010000164","name":"7-11元福門市","address":"嘉義市東　區王田里林森東路","administration":"縣市政府","latitude":"23.48849123","longitude":"120.4655409","grade":"特優級","type2":"商業營業場所","type":"混合廁所","exec":null,"diaper":null},{"country":"10020","city":"10020010","village":"仁義里","number":"I010000163","name":"7-11台林門市","address":"嘉義市東　區仁義里新生路","administration":"縣市政府","latitude":"23.49373249","longitude":"120.453608","grade":"特優級","type2":"商業營業場所","type":"混合廁所","exec":null,"diaper":null},{"country":"10020","city":"10020010","village":"義教里","number":"I010000162","name":"7-11新嘉基門市","address":"嘉義市東　區義教里忠孝路","administration":"縣市政府","latitude":"23.5002","longitude":"120.45074","grade":"特優級","type2":"商業營業場所","type":"混合廁所","exec":null,"diaper":null},{"country":"10020","city":"10020010","village":"荖藤里","number":"I010000161","name":"7-11嘉英門市","address":"嘉義市東　區荖藤里忠孝北街","administration":"縣市政府","latitude":"23.51626291","longitude":"120.4428792","grade":"特優級","type2":"商業營業場所","type":"混合廁所","exec":null,"diaper":null},{"country":"10020","city":"10020010","village":"林森里","number":"I010000160","name":"7-11嘉府門市","address":"嘉義市東　區林森里民權路","administration":"縣市政府","latitude":"23.48326289","longitude":"120.4554319","grade":"特優級","type2":"商業營業場所","type":"混合廁所","exec":null,"diaper":null},{"country":"10020","city":"10020010","village":"長竹里","number":"I010000159","name":"7-11嘉雅門市","address":"嘉義市東　區長竹里二段421號1樓","administration":"縣市政府","latitude":"23.47735862","longitude":"120.4733706","grade":"特優級","type2":"商業營業場所","type":"混合廁所","exec":null,"diaper":null},{"country":"10020","city":"10020010","village":"芳安里","number":"I010000158","name":"7-11立宣門市","address":"嘉義市東　區芳安里立仁路","administration":"縣市政府","latitude":"23.46489973","longitude":"120.4635644","grade":"特優級","type2":"商業營業場所","type":"混合廁所","exec":null,"diaper":null},{"country":"10020","city":"10020010","village":"安業里","number":"I010000157","name":"7-11新大業門市","address":"嘉義市東　區安業里吳鳳南路","administration":"縣市政府","latitude":"23.46350222","longitude":"120.4554319","grade":"特優級","type2":"商業營業場所","type":"混合廁所","exec":null,"diaper":null},{"country":"10020","city":"10020010","village":"後湖里","number":"I010000015","name":"中油台林男廁","address":"嘉義市東　區後湖里台林街","administration":"其他","latitude":"23.501","longitude":"120.4568","grade":"特優級","type2":"商業營業場所","type":"男廁所","exec":null,"diaper":null},{"country":"10020","city":"10020010","village":"中山里","number":"I010000001","name":"台灣中油中山路加油站男廁","address":"嘉義市東　區中山里台灣中油中山路加油站男廁","administration":"經濟部","latitude":"23.48234","longitude":"120.45936","grade":"特優級","type2":"商業營業場所","type":"男廁所","exec":null,"diaper":null},{"country":"10020","city":"10020010","village":"圳頭里","number":"I010000017","name":"欣隆加油站男女廁","address":"嘉義市東　區圳頭里林森東路","administration":"縣市政府","latitude":"23.492","longitude":"120.4724","grade":"特優級","type2":"商業營業場所","type":"混合廁所","exec":null,"diaper":null},{"country":"10020","city":"10020020","village":"車店里","number":"I020000009","name":"台灣中油興嘉加油站女廁","address":"嘉義市西　區車店里上海路","administration":"經濟部","latitude":"23.46757","longitude":"120.43405","grade":"特優級","type2":"商業營業場所","type":"女廁所","exec":null,"diaper":null},{"country":"10020","city":"10020020","village":"湖內里","number":"I020000029","name":"新民磐石加油站女廁","address":"嘉義市西　區湖內里嘉義市西區新民路191號","administration":"縣市政府","latitude":"23.45432","longitude":"120.43386","grade":"特優級","type2":"商業營業場所","type":"女廁所","exec":null,"diaper":null},{"country":"10020","city":"10020020","village":"湖內里","number":"I020000028","name":"新民磐石加油站男廁","address":"嘉義市西　區湖內里嘉義市西區新民路191號","administration":"縣市政府","latitude":"23.45432","longitude":"120.43386","grade":"特優級","type2":"商業營業場所","type":"男廁所","exec":null,"diaper":null},{"country":"10020","city":"10020020","village":"紅瓦里","number":"I020000023","name":"福懋新民加油站女廁","address":"嘉義市西　區紅瓦里嘉義市西區新民路51號","administration":"縣市政府","latitude":"23.452","longitude":"120.4314","grade":"特優級","type2":"商業營業場所","type":"女廁所","exec":null,"diaper":null},{"country":"10020","city":"10020020","village":"劉厝里","number":"I020000007","name":"劉厝2號公園女廁","address":"嘉義市西　區劉厝里劉厝路與大利街墎內","administration":"縣市政府","latitude":"23.4645","longitude":"120.4172","grade":"特優級","type2":"公園","type":"女廁所","exec":null,"diaper":null},{"country":"10020","city":"10020020","village":"劉厝里","number":"I020000006","name":"劉厝2號公園男廁","address":"嘉義市西　區劉厝里劉厝路與大利街墎內","administration":"縣市政府","latitude":"23.4645","longitude":"120.4172","grade":"特優級","type2":"公園","type":"男廁所","exec":null,"diaper":null},{"country":"10020","city":"10020020","village":"劉厝里","number":"I020000005","name":"劉厝1號公園女廁","address":"嘉義市西　區劉厝里大和街與大富路交叉口街墎內","administration":"縣市政府","latitude":"23.4682","longitude":"120.415","grade":"特優級","type2":"公園","type":"女廁所","exec":null,"diaper":null},{"country":"10020","city":"10020020","village":"劉厝里","number":"I020000004","name":"劉厝1號公園男廁","address":"嘉義市西　區劉厝里大和街與大富路交叉口街墎內","administration":"縣市政府","latitude":"23.4682","longitude":"120.415","grade":"特優級","type2":"公園","type":"男廁所","exec":null,"diaper":null},{"country":"10020","city":"10020020","village":"竹村里","number":"I020000315","name":"嘉交加油站女廁","address":"嘉義市西　區竹村里北港路","administration":"縣市政府","latitude":"23.492993","longitude":"120.395861","grade":"特優級","type2":"商業營業場所","type":"女廁所","exec":null,"diaper":null},{"country":"10020","city":"10020020","village":"北湖里","number":"I020000271","name":"福懋大嘉加油站女廁","address":"嘉義市西　區北湖里北港路","administration":"縣市政府","latitude":"23.484857","longitude":"120.422047","grade":"特優級","type2":"商業營業場所","type":"女廁所","exec":null,"diaper":null},{"country":"10020","city":"10020020","village":"港坪里","number":"I020000422","name":"港坪里運動公園-1女廁","address":"嘉義市西　區港坪里大同路100號","administration":"縣市政府","latitude":"23.476981","longitude":"120.421416","grade":"特優級","type2":"文化育樂活動場所","type":"女廁所","exec":null,"diaper":null},{"country":"10020","city":"10020020","village":"垂楊里","number":"I020000472","name":"遠東百貨7F女廁","address":"嘉義市西　區垂楊里嘉義市西區垂楊路537號","administration":"其他","latitude":"23.472755","longitude":"120.44112","grade":"特優級","type2":"商業營業場所","type":"女廁所","exec":null,"diaper":null},{"country":"10020","city":"10020020","village":"垂楊里","number":"I020000470","name":"遠東百貨6F女廁","address":"嘉義市西　區垂楊里嘉義市西區垂楊路537號","administration":"其他","latitude":"23.472755","longitude":"120.44112","grade":"特優級","type2":"商業營業場所","type":"女廁所","exec":null,"diaper":null},{"country":"10020","city":"10020010","village":"蘭潭里","number":"I010000371","name":"蘭潭水庫土地公廟旁女廁","address":"嘉義市東　區蘭潭里蘭潭水庫土地公廟旁","administration":"縣市政府","latitude":"23.475198","longitude":"120.488258","grade":"特優級","type2":"觀光地區及風景區","type":"女廁所","exec":null,"diaper":null},{"country":"10020","city":"10020010","village":"蘭潭里","number":"I010000369","name":"蘭潭水庫泛月公園旁女廁","address":"嘉義市東　區蘭潭里蘭潭水庫泛月公園旁","administration":"縣市政府","latitude":"23.46674","longitude":"120.479221","grade":"特優級","type2":"觀光地區及風景區","type":"女廁所","exec":null,"diaper":null},{"country":"10020","city":"10020010","village":"芳安里","number":"I010000609","name":"鎮天宮女廁","address":"嘉義市東　區芳安里芳安路","administration":"縣市政府","latitude":"23.468353","longitude":"120.460422","grade":"特優級","type2":"宗教禮儀場所","type":"女廁所","exec":null,"diaper":null},{"country":"10020","city":"10020020","village":"保安里","number":"I020000268","name":"保安宮女廁","address":"嘉義市西　區保安里自由路","administration":"縣市政府","latitude":"23.490129","longitude":"120.433919","grade":"特優級","type2":"宗教禮儀場所","type":"女廁所","exec":null,"diaper":null},{"country":"10020","city":"10020020","village":"大溪里","number":"I020000076","name":"7-11嘉西門市","address":"嘉義市西　區大溪里北港路","administration":"縣市政府","latitude":"23.48481026","longitude":"120.4195091","grade":"特優級","type2":"商業營業場所","type":"混合廁所","exec":null,"diaper":null},{"country":"10020","city":"10020020","village":"後驛里","number":"I020000718","name":"交通轉運中心B1女廁","address":"嘉義市西　區後驛里中興路1號","administration":"縣市政府","latitude":"23.479793","longitude":"120.440022","grade":"特優級","type2":"交通","type":"女廁所","exec":null,"diaper":null},{"country":"10020","city":"10020020","village":"後驛里","number":"I020000717","name":"交通轉運中心B1男廁","address":"嘉義市西　區後驛里中興路1號","administration":"縣市政府","latitude":"23.479793","longitude":"120.440022","grade":"特優級","type2":"交通","type":"男廁所","exec":null,"diaper":null},{"country":"10020","city":"10020020","village":"美源里","number":"I020000538","name":"民生公園男廁","address":"嘉義市西　區美源里嘉義市西區民生南路","administration":"縣市政府","latitude":"23.465557","longitude":"120.443304","grade":"特優級","type2":"公園","type":"男廁所","exec":null,"diaper":null},{"country":"10020","city":"10020020","village":"福民里","number":"I020000523","name":"西區區公所男廁","address":"嘉義市西　區福民里錦州二街28號","administration":"縣市政府","latitude":"23.4645","longitude":"120.435379","grade":"特優級","type2":"民眾洽公場所","type":"男廁所","exec":null,"diaper":null},{"country":"10020","city":"10020020","village":"福民里","number":"I020000525","name":"西區戶政事務所男廁","address":"嘉義市西　區福民里錦州二街28號","administration":"縣市政府","latitude":"23.464453","longitude":"120.435311","grade":"特優級","type2":"民眾洽公場所","type":"男廁所","exec":null,"diaper":null},{"country":"10020","city":"10020020","village":"國華里","number":"I020000645","name":"中正公園男廁","address":"嘉義市西　區國華里國華街、民權路口","administration":"縣市政府","latitude":"23.481771","longitude":"120.447563","grade":"特優級","type2":"公園","type":"男廁所","exec":null,"diaper":null},{"country":"10020","city":"10020020","village":"番社里","number":"I020000674","name":"嘉義火車站男廁","address":"嘉義市西　區番社里嘉義市西區中山路528號","administration":"交通部","latitude":"23.479239","longitude":"120.441308","grade":"特優級","type2":"交通","type":"男廁所","exec":null,"diaper":null},{"country":"10020","city":"10020020","village":"書院里","number":"I020000452","name":"遊天宮","address":"嘉義市西　區書院里民族路","administration":"縣市政府","latitude":"23.475331","longitude":"120.441569","grade":"特優級","type2":"宗教禮儀場所","type":"混合廁所","exec":null,"diaper":null},{"country":"10020","city":"10020020","village":"永和里","number":"I020000612","name":"新光三越百貨11F無障礙廁所","address":"嘉義市西　區永和里嘉義市西區垂楊路726號","administration":"其他","latitude":"23.473441","longitude":"120.441058","grade":"特優級","type2":"商業營業場所","type":"無障礙廁所","exec":null,"diaper":null},{"country":"10020","city":"10020020","village":"永和里","number":"I020000611","name":"新光三越百貨11F女","address":"嘉義市西　區永和里嘉義市西區垂楊路726號","administration":"其他","latitude":"23.473441","longitude":"120.441058","grade":"特優級","type2":"商業營業場所","type":"女廁所","exec":null,"diaper":null},{"country":"10020","city":"10020020","village":"永和里","number":"I020000610","name":"新光三越百貨11F男","address":"嘉義市西　區永和里大雅路二段565號","administration":"其他","latitude":"23.473441","longitude":"120.441058","grade":"特優級","type2":"商業營業場所","type":"男廁所","exec":null,"diaper":null},{"country":"10020","city":"10020020","village":"永和里","number":"I020000609","name":"新光三越百貨10F女","address":"嘉義市西　區永和里嘉義市西區垂楊路726號","administration":"其他","latitude":"23.473441","longitude":"120.441058","grade":"特優級","type2":"商業營業場所","type":"女廁所","exec":null,"diaper":null},{"country":"10020","city":"10020020","village":"永和里","number":"I020000608","name":"新光三越百貨10F男","address":"嘉義市西　區永和里嘉義市西區垂楊路726號","administration":"其他","latitude":"23.473441","longitude":"120.441058","grade":"特優級","type2":"商業營業場所","type":"男廁所","exec":null,"diaper":null},{"country":"10020","city":"10020020","village":"永和里","number":"I020000607","name":"新光三越百貨9F親子廁所","address":"嘉義市西　區永和里嘉義市西區垂楊路726號","administration":"其他","latitude":"23.473441","longitude":"120.441058","grade":"特優級","type2":"商業營業場所","type":"親子廁所","exec":null,"diaper":null},{"country":"10020","city":"10020020","village":"永和里","number":"I020000606","name":"新光三越百貨8F女2","address":"嘉義市西　區永和里嘉義市西區垂楊路726號","administration":"其他","latitude":"23.473441","longitude":"120.441058","grade":"特優級","type2":"商業營業場所","type":"女廁所","exec":null,"diaper":null},{"country":"10020","city":"10020020","village":"永和里","number":"I020000595","name":"新光三越百貨B2男","address":"嘉義市西　區永和里嘉義市西區垂楊路726號","administration":"其他","latitude":"23.473441","longitude":"120.441058","grade":"特優級","type2":"商業營業場所","type":"男廁所","exec":null,"diaper":null},{"country":"10020","city":"10020020","village":"港坪里","number":"I020000425","name":"港坪里運動公園-3男廁","address":"嘉義市西　區港坪里大同路100號","administration":"縣市政府","latitude":"23.476981","longitude":"120.421416","grade":"特優級","type2":"文化育樂活動場所","type":"男廁所","exec":null,"diaper":null},{"country":"10020","city":"10020020","village":"港坪里","number":"I020000423","name":"港坪里運動公園-2男廁","address":"嘉義市西　區港坪里大同路100號","administration":"縣市政府","latitude":"23.476981","longitude":"120.421416","grade":"特優級","type2":"文化育樂活動場所","type":"男廁所","exec":null,"diaper":null},{"country":"10020","city":"10020020","village":"港坪里","number":"I020000421","name":"港坪里運動公園-1男廁","address":"嘉義市西　區港坪里大同路100號","administration":"縣市政府","latitude":"23.476981","longitude":"120.421416","grade":"特優級","type2":"文化育樂活動場所","type":"男廁所","exec":null,"diaper":null},{"country":"10020","city":"10020020","village":"福全里","number":"I020000338","name":"西區衛生所1F男女廁","address":"嘉義市西　區福全里德明路1號","administration":"縣市政府","latitude":"23.480005","longitude":"120.431026","grade":"特優級","type2":"民眾洽公場所","type":"混合廁所","exec":null,"diaper":null},{"country":"10020","city":"10020020","village":"竹村里","number":"I020000314","name":"嘉交加油站男廁","address":"嘉義市西　區竹村里北港路","administration":"縣市政府","latitude":"23.492993","longitude":"120.395861","grade":"特優級","type2":"商業營業場所","type":"男廁所","exec":null,"diaper":null},{"country":"10020","city":"10020020","village":"保安里","number":"I020000267","name":"保安宮男廁","address":"嘉義市西　區保安里自由路","administration":"縣市政府","latitude":"23.490129","longitude":"120.433919","grade":"特優級","type2":"宗教禮儀場所","type":"男廁所","exec":null,"diaper":null},{"country":"10020","city":"10020010","village":"興仁里","number":"I010000648","name":"南興宮","address":"嘉義市東　區興仁里興仁街","administration":"縣市政府","latitude":"23.456988","longitude":"120.458932","grade":"特優級","type2":"宗教禮儀場所","type":"混合廁所","exec":null,"diaper":null},{"country":"10020","city":"10020010","village":"興仁里","number":"I010000645","name":"河濱運動公園男廁","address":"嘉義市東　區興仁里興仁街","administration":"縣市政府","latitude":"23.4585173","longitude":"120.4620409","grade":"特優級","type2":"公園","type":"男廁所","exec":null,"diaper":null},{"country":"10020","city":"10020010","village":"義教里","number":"I010000123","name":"嘉基東院區門診大樓1F女廁","address":"嘉義市東　區義教里忠孝路","administration":"其他","latitude":"23.49949828","longitude":"120.4512262","grade":"特優級","type2":"社福機構、集會場所","type":"女廁所","exec":null,"diaper":null},{"country":"10020","city":"10020010","village":"義教里","number":"I010000122","name":"嘉基東院區門診大樓1F男廁","address":"嘉義市東　區義教里忠孝路","administration":"其他","latitude":"23.49985249","longitude":"120.451355","grade":"特優級","type2":"社福機構、集會場所","type":"男廁所","exec":null,"diaper":null},{"country":"10020","city":"10020010","village":"中庄里","number":"I010000121","name":"嘉基2F檢驗中心旁女廁","address":"嘉義市東　區中庄里忠孝路","administration":"其他","latitude":"23.49902601","longitude":"120.4502392","grade":"特優級","type2":"社福機構、集會場所","type":"女廁所","exec":null,"diaper":null},{"country":"10020","city":"10020020","village":"福民里","number":"I020000527","name":"西區區公所無障礙廁所","address":"嘉義市西　區福民里錦州二街28號","administration":"縣市政府","latitude":"23.4645","longitude":"120.435379","grade":"特優級","type2":"民眾洽公場所","type":"無障礙廁所","exec":null,"diaper":null},{"country":"10020","city":"10020020","village":"西平里","number":"I020000347","name":"嘉樂福夜市女廁","address":"嘉義市西　區西平里嘉義市西區博愛路二段467號","administration":"縣市政府","latitude":"23.47137","longitude":"120.43133","grade":"特優級","type2":"觀光地區及風景區","type":"女廁所","exec":null,"diaper":null},{"country":"10020","city":"10020020","village":"西平里","number":"I020000346","name":"嘉樂福夜市男廁","address":"嘉義市西　區西平里博愛路二段467號","administration":"縣市政府","latitude":"23.47137","longitude":"120.43133","grade":"特優級","type2":"觀光地區及風景區","type":"男廁所","exec":null,"diaper":null},{"country":"10020","city":"10020010","village":"短竹里","number":"I010000884","name":"東區衛生所性別友善廁所","address":"嘉義市東　區短竹里大雅路二段625號","administration":"縣市政府","latitude":"23.476849","longitude":"120.46629","grade":"特優級","type2":"民眾洽公場所","type":"性別友善廁所","exec":null,"diaper":null},{"country":"10020","city":"10020010","village":"短竹里","number":"I010000883","name":"東區衛生所多功能無障礙廁所","address":"嘉義市東　區短竹里大雅路二段625號","administration":"縣市政府","latitude":"23.476849","longitude":"120.46629","grade":"特優級","type2":"民眾洽公場所","type":"無障礙廁所","exec":null,"diaper":null},{"country":"10020","city":"10020020","village":"竹圍里","number":"I020000248","name":"新新園火鍋友愛店男廁","address":"嘉義市西　區竹圍里友愛路271號","administration":"縣市政府","latitude":"23.48557533","longitude":"120.4332313","grade":"特優級","type2":"商業營業場所","type":"男廁所","exec":null,"diaper":null},{"country":"10020","city":"10020020","village":"竹圍里","number":"I020000247","name":"麻辣風暴興達店女廁","address":"嘉義市西　區竹圍里麻辣風暴興達店","administration":"縣市政府","latitude":"23.48571555","longitude":"120.4357687","grade":"特優級","type2":"商業營業場所","type":"女廁所","exec":null,"diaper":null},{"country":"10020","city":"10020020","village":"竹圍里","number":"I020000246","name":"麻辣風暴興達店男廁","address":"嘉義市西　區竹圍里嘉義市西區興達358號","administration":"縣市政府","latitude":"23.4854634","longitude":"120.4349627","grade":"特優級","type2":"商業營業場所","type":"男廁所","exec":null,"diaper":null},{"country":"10020","city":"10020020","village":"大溪里","number":"I020000031","name":"台灣中油嘉義高鐵南加油站女廁","address":"嘉義市西　區大溪里高鐵大道925號","administration":"經濟部","latitude":"23.48696","longitude":"120.402355","grade":"特優級","type2":"商業營業場所","type":"女廁所","exec":null,"diaper":null},{"country":"10020","city":"10020020","village":"大溪里","number":"I020000030","name":"台灣中油嘉義高鐵南加油站男廁","address":"嘉義市西　區大溪里高鐵大道925號","administration":"經濟部","latitude":"23.48696","longitude":"120.402355","grade":"特優級","type2":"商業營業場所","type":"男廁所","exec":null,"diaper":null},{"country":"10020","city":"10020020","village":"大溪里","number":"I020000027","name":"台灣中油嘉義高鐵北加油站女廁","address":"嘉義市西　區大溪里高鐵大道1250號","administration":"經濟部","latitude":"23.488331","longitude":"120.400372","grade":"特優級","type2":"商業營業場所","type":"女廁所","exec":null,"diaper":null},{"country":"10020","city":"10020020","village":"大溪里","number":"I020000026","name":"台灣中油嘉義高鐵北加油站男廁","address":"嘉義市西　區大溪里高鐵大道1250號","administration":"經濟部","latitude":"23.488331","longitude":"120.400372","grade":"特優級","type2":"商業營業場所","type":"男廁所","exec":null,"diaper":null},{"country":"10020","city":"10020020","village":"大溪里","number":"I020000025","name":"台糖嘉保加油站女廁","address":"嘉義市西　區大溪里高鐵大道366號","administration":"經濟部","latitude":"23.482858","longitude":"120.418061","grade":"特優級","type2":"商業營業場所","type":"女廁所","exec":null,"diaper":null},{"country":"10020","city":"10020020","village":"大溪里","number":"I020000024","name":"台糖嘉保加油站男廁","address":"嘉義市西　區大溪里高鐵大道366號","administration":"其他","latitude":"23.482858","longitude":"120.418061","grade":"特優級","type2":"商業營業場所","type":"男廁所","exec":null,"diaper":null},{"country":"10020","city":"10020020","village":"竹圍里","number":"I020000016","name":"中油興達男女廁","address":"嘉義市西　區竹圍里嘉義市西區建國路95號","administration":"縣市政府","latitude":"23.4853","longitude":"120.4358","grade":"特優級","type2":"商業營業場所","type":"混合廁所","exec":null,"diaper":null},{"country":"10020","city":"10020020","village":"大溪里","number":"I020000013","name":"台亞嘉安加油站女廁","address":"嘉義市西　區大溪里北港路","administration":"縣市政府","latitude":"23.4851","longitude":"120.4195","grade":"特優級","type2":"商業營業場所","type":"女廁所","exec":null,"diaper":null},{"country":"10020","city":"10020020","village":"大溪里","number":"I020000012","name":"台亞嘉安加油站男廁","address":"嘉義市西　區大溪里北港路","administration":"縣市政府","latitude":"23.4851","longitude":"120.4195","grade":"特優級","type2":"商業營業場所","type":"男廁所","exec":null,"diaper":null},{"country":"10020","city":"10020020","village":"紅瓦里","number":"I020000022","name":"福懋新民加油站男廁","address":"嘉義市西　區紅瓦里嘉義市西區新民路51號","administration":"縣市政府","latitude":"23.452","longitude":"120.4314","grade":"特優級","type2":"商業營業場所","type":"男廁所","exec":null,"diaper":null},{"country":"10020","city":"10020020","village":"磚磘里","number":"I020000020","name":"順力加油站男女廁","address":"嘉義市西　區磚磘里中興路591號","administration":"縣市政府","latitude":"23.4764","longitude":"120.4283","grade":"特優級","type2":"商業營業場所","type":"混合廁所","exec":null,"diaper":null},{"country":"10020","city":"10020020","village":"紅瓦里","number":"I020000018","name":"中油世賢男女廁","address":"嘉義市西　區紅瓦里世賢路三段","administration":"縣市政府","latitude":"23.4606","longitude":"120.433","grade":"特優級","type2":"商業營業場所","type":"混合廁所","exec":null,"diaper":null},{"country":"10020","city":"10020020","village":"車店里","number":"I020000008","name":"台灣中油興嘉加油站男廁","address":"嘉義市西　區車店里上海路","administration":"經濟部","latitude":"23.46757","longitude":"120.43405","grade":"特優級","type2":"商業營業場所","type":"男廁所","exec":null,"diaper":null},{"country":"10020","city":"10020020","village":"竹村里","number":"I020000316","name":"嘉義魚市場南側男廁","address":"嘉義市西　區竹村里埤竹路52號","administration":"縣市政府","latitude":"23.491474","longitude":"120.39773","grade":"特優級","type2":"商業營業場所","type":"男廁所","exec":null,"diaper":null},{"country":"10020","city":"10020010","village":"北門里","number":"I010000782","name":"博物館親子廁","address":"嘉義市東　區北門里忠孝路","administration":"縣市政府","latitude":"23.48701","longitude":"120.45144","grade":"特優級","type2":"文化育樂活動場所","type":"親子廁所","exec":null,"diaper":null},{"country":"10020","city":"10020010","village":"北門里","number":"I010000781","name":"文化中心1F女廁","address":"嘉義市東　區北門里忠孝路","administration":"縣市政府","latitude":"23.48768","longitude":"120.45253","grade":"特優級","type2":"文化育樂活動場所","type":"女廁所","exec":null,"diaper":null},{"country":"10020","city":"10020020","village":"竹村里","number":"I020000803","name":"台亞嘉義交流站無障礙廁所","address":"嘉義市西　區竹村里北港路1062號","administration":"縣市政府","latitude":"23.492276","longitude":"120.397576","grade":"特優級","type2":"商業營業場所","type":"無障礙廁所","exec":null,"diaper":null},{"country":"10020","city":"10020020","village":"竹村里","number":"I020000802","name":"台亞嘉義交流道站女廁","address":"嘉義市西　區竹村里北港路1062號","administration":"縣市政府","latitude":"23.492276","longitude":"120.397576","grade":"特優級","type2":"商業營業場所","type":"女廁所","exec":null,"diaper":null},{"country":"10020","city":"10020020","village":"竹村里","number":"I020000801","name":"台亞嘉義交流道站男廁","address":"嘉義市西　區竹村里北港路1062號","administration":"縣市政府","latitude":"23.492276","longitude":"120.397576","grade":"特優級","type2":"商業營業場所","type":"男廁所","exec":null,"diaper":null},{"country":"10020","city":"10020020","village":"下埤里","number":"I020000311","name":"台灣中油嘉港加油站女廁","address":"嘉義市西　區下埤里北港路","administration":"經濟部","latitude":"23.488659","longitude":"120.40994","grade":"特優級","type2":"商業營業場所","type":"女廁所","exec":null,"diaper":null},{"country":"10020","city":"10020020","village":"下埤里","number":"I020000310","name":"台灣中油嘉港加油站男廁","address":"嘉義市西　區下埤里北港路","administration":"經濟部","latitude":"23.488659","longitude":"120.40994","grade":"特優級","type2":"商業營業場所","type":"男廁所","exec":null,"diaper":null},{"country":"10020","city":"10020010","village":"東川里","number":"I010000885","name":"228公園無障礙廁所","address":"嘉義市東　區東川里大雅路、啟明路口","administration":"縣市政府","latitude":"23.476551","longitude":"120.462856","grade":"特優級","type2":"公園","type":"無障礙廁所","exec":null,"diaper":null},{"country":"10020","city":"10020020","village":"北湖里","number":"I020000273","name":"中油嘉滿加油站女廁","address":"嘉義市西　區北湖里世賢路一段1062號","administration":"縣市政府","latitude":"23.48538","longitude":"120.42283","grade":"特優級","type2":"商業營業場所","type":"女廁所","exec":null,"diaper":null},{"country":"10020","city":"10020020","village":"北湖里","number":"I020000272","name":"中油嘉滿加油站男廁","address":"嘉義市西　區北湖里世賢路一段1062號","administration":"其他","latitude":"23.48538","longitude":"120.42283","grade":"特優級","type2":"商業營業場所","type":"男廁所","exec":null,"diaper":null},{"country":"10020","city":"10020020","village":"竹村里","number":"I020000327","name":"嘉義魚市場南側混合廁","address":"嘉義市西　區竹村里埤竹路52號","administration":"縣市政府","latitude":"23.491474","longitude":"120.39773","grade":"特優級","type2":"商業營業場所","type":"混合廁所","exec":null,"diaper":null},{"country":"10020","city":"10020010","village":"王田里","number":"I010000219","name":"嘉義樹木園女廁","address":"嘉義市東　區王田里山子頂270號","administration":"農業部","latitude":"23.47842","longitude":"120.4678","grade":"特優級","type2":"觀光地區及風景區","type":"女廁所","exec":null,"diaper":null},{"country":"10020","city":"10020020","village":"車店里","number":"I020000517","name":"興嘉公園無障礙廁所","address":"嘉義市西　區車店里興業路、南京路口","administration":"縣市政府","latitude":"23.467469","longitude":"120.439505","grade":"特優級","type2":"公園","type":"無障礙廁所","exec":null,"diaper":null},{"country":"10020","city":"10020020","village":"車店里","number":"I020000516","name":"興嘉公園女廁","address":"嘉義市西　區車店里興業路、南京路口","administration":"縣市政府","latitude":"23.467469","longitude":"120.439505","grade":"特優級","type2":"公園","type":"女廁所","exec":null,"diaper":null},{"country":"10020","city":"10020020","village":"車店里","number":"I020000515","name":"興嘉公園男廁","address":"嘉義市西　區車店里興業路、南京路口","administration":"縣市政府","latitude":"23.467469","longitude":"120.439505","grade":"特優級","type2":"公園","type":"男廁所","exec":null,"diaper":null},{"country":"10020","city":"10020020","village":"番社里","number":"I020000677","name":"嘉義火車站無障礙廁所","address":"嘉義市西　區番社里嘉義市西區中山路528號","administration":"交通部","latitude":"23.47914961","longitude":"120.4411411","grade":"特優級","type2":"交通","type":"無障礙廁所","exec":null,"diaper":null},{"country":"10020","city":"10020020","village":"番社里","number":"I020000676","name":"嘉義火車站親子廁","address":"嘉義市西　區番社里嘉義市西區中山路528號","administration":"交通部","latitude":"23.47932","longitude":"120.44428","grade":"特優級","type2":"交通","type":"親子廁所","exec":null,"diaper":null},{"country":"10020","city":"10020010","village":"義教里","number":"I010000812","name":"耐斯百貨4F無障礙廁所","address":"嘉義市東　區義教里忠孝路","administration":"其他","latitude":"23.49632516","longitude":"120.4525513","grade":"特優級","type2":"商業營業場所","type":"無障礙廁所","exec":null,"diaper":null},{"country":"10020","city":"10020010","village":"芳安里","number":"I010000590","name":"宣信公園無障礙廁所","address":"嘉義市東　區芳安里南興路、宣信路口","administration":"縣市政府","latitude":"23.46883","longitude":"120.460009","grade":"特優級","type2":"公園","type":"無障礙廁所","exec":null,"diaper":null},{"country":"10020","city":"10020010","village":"中山里","number":"I010000731","name":"全聯民權店無障礙廁所","address":"嘉義市東　區中山里民權路","administration":"縣市政府","latitude":"23.48361591","longitude":"120.4594754","grade":"特優級","type2":"商業營業場所","type":"無障礙廁所","exec":null,"diaper":null},{"country":"10020","city":"10020010","village":"中庄里","number":"I010000109","name":"肯德基忠孝店無障礙廁所","address":"嘉義市東　區中庄里忠孝路","administration":"縣市政府","latitude":"23.49506204","longitude":"120.4516152","grade":"特優級","type2":"商業營業場所","type":"無障礙廁所","exec":null,"diaper":null},{"country":"10020","city":"10020020","village":"大溪里","number":"I020000333","name":"台糖嘉保加油站無障礙廁所","address":"嘉義市西　區大溪里高鐵大道366號","administration":"經濟部","latitude":"23.482858","longitude":"120.418061","grade":"特優級","type2":"商業營業場所","type":"無障礙廁所","exec":null,"diaper":null},{"country":"10020","city":"10020020","village":"西平里","number":"I020000375","name":"再耕園1樓混合廁","address":"嘉義市西　區西平里 ","administration":"縣市政府","latitude":"23.47214296","longitude":"120.4280895","grade":"特優級","type2":"社福機構、集會場所","type":"男廁所","exec":null,"diaper":null},{"country":"10020","city":"10020020","village":"劉厝里","number":"I020000429","name":"228國家紀念公園無障礙廁所","address":"嘉義市西　區劉厝里大富路","administration":"縣市政府","latitude":"23.46499815","longitude":"120.4127848","grade":"特優級","type2":"公園","type":"無障礙廁所","exec":null,"diaper":null},{"country":"10020","city":"10020020","village":"劉厝里","number":"I020000428","name":"228國家紀念公園女廁","address":"嘉義市西　區劉厝里大富路","administration":"縣市政府","latitude":"23.46509656","longitude":"120.4127097","grade":"特優級","type2":"公園","type":"女廁所","exec":null,"diaper":null},{"country":"10020","city":"10020020","village":"劉厝里","number":"I020000427","name":"228國家紀念公園男廁","address":"嘉義市西　區劉厝里大富路","administration":"縣市政府","latitude":"23.4652245","longitude":"120.4128492","grade":"特優級","type2":"公園","type":"男廁所","exec":null,"diaper":null},{"country":"10020","city":"10020010","village":"蘭潭里","number":"I010000786","name":"聖馬爾定2樓無障礙廁所","address":"嘉義市東　區蘭潭里大雅路二段565號","administration":"其他","latitude":"23.4766304","longitude":"120.4672337","grade":"特優級","type2":"社福機構、集會場所","type":"無障礙廁所","exec":null,"diaper":null},{"country":"10020","city":"10020010","village":"蘭潭里","number":"I010000785","name":"聖馬爾定1樓親子廁","address":"嘉義市東　區蘭潭里大雅路二段565號","administration":"其他","latitude":"23.4766304","longitude":"120.4672337","grade":"特優級","type2":"社福機構、集會場所","type":"親子廁所","exec":null,"diaper":null},{"country":"10020","city":"10020020","village":"國華里","number":"I020000648","name":"陶板屋嘉義林森西店無障礙廁所","address":"嘉義市西　區國華里林森西路","administration":"縣市政府","latitude":"23.4838533","longitude":"120.4480183","grade":"特優級","type2":"商業營業場所","type":"無障礙廁所","exec":null,"diaper":null},{"country":"10020","city":"10020010","village":"荖藤里","number":"I010000035","name":"愛木村女廁","address":"嘉義市東　區荖藤里文化路","administration":"縣市政府","latitude":"23.50244","longitude":"120.43954","grade":"特優級","type2":"觀光地區及風景區","type":"女廁所","exec":null,"diaper":null},{"country":"10020","city":"10020010","village":"荖藤里","number":"I010000034","name":"愛木村男廁","address":"嘉義市東　區荖藤里文化路","administration":"縣市政府","latitude":"23.50244","longitude":"120.43954","grade":"特優級","type2":"觀光地區及風景區","type":"男廁所","exec":null,"diaper":null},{"country":"10020","city":"10020010","village":"中山里","number":"I010000730","name":"全聯民權店女廁","address":"嘉義市東　區中山里民權路","administration":"縣市政府","latitude":"23.48357778","longitude":"120.4594982","grade":"特優級","type2":"商業營業場所","type":"女廁所","exec":null,"diaper":null},{"country":"10020","city":"10020010","village":"中山里","number":"I010000729","name":"全聯民權店男廁","address":"嘉義市東　區中山里民權路","administration":"縣市政府","latitude":"23.48357778","longitude":"120.4594982","grade":"特優級","type2":"商業營業場所","type":"男廁所","exec":null,"diaper":null},{"country":"10020","city":"10020010","village":"東川里","number":"I010000275","name":"嘉義公園近啟明路無障礙廁所","address":"嘉義市東　區東川里啟明路","administration":"縣市政府","latitude":"23.4838041","longitude":"120.4636315","grade":"特優級","type2":"公園","type":"無障礙廁所","exec":null,"diaper":null},{"country":"10020","city":"10020010","village":"過溝里","number":"I010000652","name":"文化公園無障礙廁所","address":"嘉義市東　區過溝里文化路與民族路口","administration":"縣市政府","latitude":"23.47439162","longitude":"120.450663","grade":"特優級","type2":"公園","type":"無障礙廁所","exec":null,"diaper":null},{"country":"10020","city":"10020010","village":"興仁里","number":"I010000647","name":"河濱運動公園無障礙廁所","address":"嘉義市東　區興仁里興仁街","administration":"縣市政府","latitude":"23.4585173","longitude":"120.4620409","grade":"特優級","type2":"公園","type":"無障礙廁所","exec":null,"diaper":null},{"country":"10020","city":"10020010","village":"民族里","number":"I010000657","name":"文昌公園無障礙廁所","address":"嘉義市東　區民族里蘭井街","administration":"縣市政府","latitude":"23.47834022","longitude":"120.4562447","grade":"特優級","type2":"公園","type":"無障礙廁所","exec":null,"diaper":null},{"country":"10020","city":"10020010","village":"後湖里","number":"I010000037","name":"中油台林無障礙廁所","address":"嘉義市東　區後湖里台林街","administration":"其他","latitude":"23.50107252","longitude":"120.4568321","grade":"特優級","type2":"商業營業場所","type":"無障礙廁所","exec":null,"diaper":null},{"country":"10020","city":"10020010","village":"中山里","number":"I010000728","name":"台灣中油中山路加油站無障礙廁所","address":"嘉義市東　區中山里中山路90號","administration":"經濟部","latitude":"23.48234","longitude":"120.45936","grade":"特優級","type2":"商業營業場所","type":"無障礙廁所","exec":null,"diaper":null},{"country":"10020","city":"10020020","village":"竹村里","number":"I020000321","name":"果菜市場攤販區女廁","address":"嘉義市西　區竹村里埤竹路50號","administration":"縣市政府","latitude":"23.491474","longitude":"120.39773","grade":"特優級","type2":"商業營業場所","type":"女廁所","exec":null,"diaper":null},{"country":"10020","city":"10020020","village":"竹村里","number":"I020000320","name":"果菜市場攤販區男廁","address":"嘉義市西　區竹村里埤竹路50號","administration":"縣市政府","latitude":"23.491474","longitude":"120.39773","grade":"特優級","type2":"商業營業場所","type":"男廁所","exec":null,"diaper":null},{"country":"10020","city":"10020020","village":"竹村里","number":"I020000319","name":"魚市場冷凍庫旁女廁","address":"嘉義市西　區竹村里埤竹路52號","administration":"縣市政府","latitude":"23.491474","longitude":"120.39773","grade":"特優級","type2":"商業營業場所","type":"女廁所","exec":null,"diaper":null},{"country":"10020","city":"10020020","village":"竹村里","number":"I020000318","name":"魚市場冷凍庫旁男廁","address":"嘉義市西　區竹村里埤竹路52號","administration":"縣市政府","latitude":"23.491474","longitude":"120.39773","grade":"特優級","type2":"商業營業場所","type":"男廁所","exec":null,"diaper":null},{"country":"10020","city":"10020020","village":"永和里","number":"I020000615","name":"新光三越百貨5F男","address":"嘉義市西　區永和里嘉義市西區垂楊路726號","administration":"其他","latitude":"23.473441","longitude":"120.441058","grade":"特優級","type2":"商業營業場所","type":"男廁所","exec":null,"diaper":null},{"country":"10020","city":"10020020","village":"香湖里","number":"I020000199","name":"北香湖公園女廁(櫻花林區)","address":"嘉義市西　區香湖里嘉義市西區文化路600號","administration":"縣市政府","latitude":"23.49114468","longitude":"120.446173","grade":"特優級","type2":"公園","type":"女廁所","exec":null,"diaper":null},{"country":"10020","city":"10020020","village":"培元里","number":"I020000458","name":"先天宮公廁","address":"嘉義市西　區培元里西門街","administration":"縣市政府","latitude":"23.47255628","longitude":"120.4438046","grade":"特優級","type2":"宗教禮儀場所","type":"混合廁所","exec":null,"diaper":null},{"country":"10020","city":"10020020","village":"竹圍里","number":"I020000245","name":"冠閣商務大飯店B1女廁","address":"嘉義市西　區竹圍里忠順一街","administration":"縣市政府","latitude":"23.4841768","longitude":"120.4344517","grade":"特優級","type2":"商業營業場所","type":"女廁所","exec":null,"diaper":null},{"country":"10020","city":"10020020","village":"竹圍里","number":"I020000244","name":"冠閣商務大飯店B1男廁","address":"嘉義市西　區竹圍里忠順一街","administration":"縣市政府","latitude":"23.4841768","longitude":"120.4344517","grade":"特優級","type2":"商業營業場所","type":"男廁所","exec":null,"diaper":null},{"country":"10020","city":"10020020","village":"竹圍里","number":"I020000243","name":"冠閣商務大飯店1F無障礙廁所","address":"嘉義市西　區竹圍里忠順一街","administration":"縣市政府","latitude":"23.48417557","longitude":"120.4344517","grade":"特優級","type2":"商業營業場所","type":"無障礙廁所","exec":null,"diaper":null},{"country":"10020","city":"10020020","village":"竹圍里","number":"I020000242","name":"冠閣商務大飯店1F女廁","address":"嘉義市西　區竹圍里忠順一街","administration":"縣市政府","latitude":"23.48417803","longitude":"120.4344517","grade":"特優級","type2":"商業營業場所","type":"女廁所","exec":null,"diaper":null},{"country":"10020","city":"10020020","village":"竹圍里","number":"I020000241","name":"冠閣商務大飯店1F男廁","address":"嘉義市西　區竹圍里忠順一街","administration":"縣市政府","latitude":"23.48417557","longitude":"120.4344517","grade":"特優級","type2":"商業營業場所","type":"男廁所","exec":null,"diaper":null},{"country":"10020","city":"10020010","village":"中央里","number":"I010000744","name":"中央廣場無障礙廁所","address":"嘉義市東　區中央里嘉義市東區文化路與民權路口","administration":"縣市政府","latitude":"23.48173765","longitude":"120.4502875","grade":"特優級","type2":"公園","type":"無障礙廁所","exec":null,"diaper":null},{"country":"10020","city":"10020010","village":"中央里","number":"I010000743","name":"中央廣場女廁","address":"嘉義市東　區中央里嘉義市東區文化路與民權路口","administration":"縣市政府","latitude":"23.48179669","longitude":"120.4502553","grade":"特優級","type2":"公園","type":"女廁所","exec":null,"diaper":null},{"country":"10020","city":"10020010","village":"中央里","number":"I010000742","name":"中央廣場男廁","address":"嘉義市東　區中央里嘉義市東區文化路與民權路口","administration":"縣市政府","latitude":"23.48178193","longitude":"120.4503036","grade":"特優級","type2":"公園","type":"男廁所","exec":null,"diaper":null},{"country":"10020","city":"10020020","village":"湖內里","number":"I020000530","name":"安心醫院1樓無障礙廁所","address":"嘉義市西　區湖內里嘉義市西區新民路88號","administration":"其他","latitude":"23.45312865","longitude":"120.4333949","grade":"特優級","type2":"社福機構、集會場所","type":"無障礙廁所","exec":null,"diaper":null},{"country":"10020","city":"10020020","village":"湖內里","number":"I020000529","name":"安心醫院1樓男廁","address":"嘉義市西　區湖內里嘉義市西區新榮路35巷20號","administration":"其他","latitude":"23.45312865","longitude":"120.4334056","grade":"特優級","type2":"社福機構、集會場所","type":"男廁所","exec":null,"diaper":null},{"country":"10020","city":"10020020","village":"湖內里","number":"I020000528","name":"安心醫院1樓女廁","address":"嘉義市西　區湖內里嘉義市西區新民路88號","administration":"其他","latitude":"23.45309912","longitude":"120.4333305","grade":"特優級","type2":"社福機構、集會場所","type":"女廁所","exec":null,"diaper":null},{"country":"10020","city":"10020010","village":"北門里","number":"I010000778","name":"文化中心左側4F女廁","address":"嘉義市東　區北門里忠孝路","administration":"縣市政府","latitude":"23.48806484","longitude":"120.4527068","grade":"特優級","type2":"文化育樂活動場所","type":"女廁所","exec":null,"diaper":null},{"country":"10020","city":"10020020","village":"西榮里","number":"I020000642","name":"黃賓紀念圖書館2F女廁","address":"嘉義市西　區西榮里延平街328號","administration":"縣市政府","latitude":"23.47657136","longitude":"120.4469347","grade":"特優級","type2":"文化育樂活動場所","type":"女廁所","exec":null,"diaper":null},{"country":"10020","city":"10020020","village":"後驛里","number":"I020000815","name":"大潤發B1女廁","address":"嘉義市西　區後驛里嘉義市西區博愛路二段281號","administration":"縣市政府","latitude":"23.4785","longitude":"120.437299","grade":"特優級","type2":"商業營業場所","type":"女廁所","exec":null,"diaper":null},{"country":"10020","city":"10020020","village":"後驛里","number":"I020000814","name":"大潤發B1男廁","address":"嘉義市西　區後驛里嘉義市西區博愛路二段281號","administration":"縣市政府","latitude":"23.4785","longitude":"120.437299","grade":"特優級","type2":"商業營業場所","type":"男廁所","exec":null,"diaper":null},{"country":"10020","city":"10020010","village":"過溝里","number":"I010000910","name":"嘉義in89豪華影城8F親子廁所","address":"嘉義市東　區過溝里民族路","administration":"其他","latitude":"23.476438","longitude":"120.452734","grade":"特優級","type2":"休閒娛樂場所","type":"親子廁所","exec":null,"diaper":null},{"country":"10020","city":"10020010","village":"過溝里","number":"I010000909","name":"嘉義in89豪華影城8F女廁","address":"嘉義市東　區過溝里民族路","administration":"其他","latitude":"23.476438","longitude":"120.452734","grade":"特優級","type2":"休閒娛樂場所","type":"女廁所","exec":null,"diaper":null},{"country":"10020","city":"10020010","village":"過溝里","number":"I010000908","name":"嘉義in89豪華影城8F男廁","address":"嘉義市東　區過溝里民族路","administration":"其他","latitude":"23.476438","longitude":"120.452734","grade":"特優級","type2":"休閒娛樂場所","type":"男廁所","exec":null,"diaper":null},{"country":"10020","city":"10020010","village":"過溝里","number":"I010000907","name":"嘉義in89豪華影城7F無障礙廁所","address":"嘉義市東　區過溝里民族路","administration":"其他","latitude":"23.476438","longitude":"120.452734","grade":"特優級","type2":"休閒娛樂場所","type":"無障礙廁所","exec":null,"diaper":null},{"country":"10020","city":"10020010","village":"過溝里","number":"I010000901","name":"嘉義in89豪華影城5F親子廁所","address":"嘉義市東　區過溝里民族路","administration":"其他","latitude":"23.476438","longitude":"120.452734","grade":"特優級","type2":"休閒娛樂場所","type":"親子廁所","exec":null,"diaper":null},{"country":"10020","city":"10020010","village":"過溝里","number":"I010000900","name":"嘉義in89豪華影城5F男廁","address":"嘉義市東　區過溝里民族路","administration":"其他","latitude":"23.476438","longitude":"120.452734","grade":"特優級","type2":"休閒娛樂場所","type":"男廁所","exec":null,"diaper":null},{"country":"10020","city":"10020010","village":"過溝里","number":"I010000899","name":"嘉義in89豪華影城4F無障礙廁所","address":"嘉義市東　區過溝里民族路","administration":"其他","latitude":"23.476438","longitude":"120.452734","grade":"特優級","type2":"休閒娛樂場所","type":"無障礙廁所","exec":null,"diaper":null},{"country":"10020","city":"10020020","village":"永和里","number":"I020000621","name":"新光三越百貨4F男","address":"嘉義市西　區永和里嘉義市西區垂楊路726號","administration":"其他","latitude":"23.473279","longitude":"120.44119","grade":"特優級","type2":"商業營業場所","type":"男廁所","exec":null,"diaper":null},{"country":"10020","city":"10020020","village":"永和里","number":"I020000620","name":"新光三越百貨3F男","address":"嘉義市西　區永和里嘉義市西區垂楊路726號","administration":"其他","latitude":"23.473279","longitude":"120.44119","grade":"特優級","type2":"商業營業場所","type":"男廁所","exec":null,"diaper":null},{"country":"10020","city":"10020020","village":"永和里","number":"I020000619","name":"新光三越百貨2F男","address":"嘉義市西　區永和里嘉義市西區垂楊路726號","administration":"其他","latitude":"23.473279","longitude":"120.44119","grade":"特優級","type2":"商業營業場所","type":"男廁所","exec":null,"diaper":null},{"country":"10020","city":"10020010","village":"後湖里","number":"I010000142","name":"嘉基第二院區保健大樓1F女廁","address":"嘉義市東　區後湖里保健街","administration":"其他","latitude":"23.50060025","longitude":"120.4509687","grade":"特優級","type2":"社福機構、集會場所","type":"女廁所","exec":null,"diaper":null},{"country":"10020","city":"10020010","village":"後湖里","number":"I010000141","name":"嘉基第二院區保健大樓1F男廁","address":"嘉義市東　區後湖里保健街","administration":"其他","latitude":"23.50060025","longitude":"120.4511297","grade":"特優級","type2":"社福機構、集會場所","type":"男廁所","exec":null,"diaper":null},{"country":"10020","city":"10020010","village":"義教里","number":"I010000140","name":"嘉基東院區門診大樓7F女廁","address":"嘉義市東　區義教里忠孝路","administration":"其他","latitude":"23.49987216","longitude":"120.4511404","grade":"特優級","type2":"社福機構、集會場所","type":"女廁所","exec":null,"diaper":null},{"country":"10020","city":"10020010","village":"義教里","number":"I010000139","name":"嘉基東院區門診大樓7F男廁","address":"嘉義市東　區義教里忠孝路","administration":"其他","latitude":"23.49989184","longitude":"120.4513121","grade":"特優級","type2":"社福機構、集會場所","type":"男廁所","exec":null,"diaper":null},{"country":"10020","city":"10020010","village":"義教里","number":"I010000138","name":"嘉基東院區門診大樓6F無障礙廁所","address":"嘉義市東　區義教里忠孝路","administration":"其他","latitude":"23.49989184","longitude":"120.4512262","grade":"特優級","type2":"社福機構、集會場所","type":"無障礙廁所","exec":null,"diaper":null},{"country":"10020","city":"10020010","village":"義教里","number":"I010000137","name":"嘉基東院區門診大樓6F親子廁所","address":"嘉義市東　區義教里忠孝路","administration":"其他","latitude":"23.49985249","longitude":"120.4512262","grade":"特優級","type2":"社福機構、集會場所","type":"親子廁所","exec":null,"diaper":null},{"country":"10020","city":"10020010","village":"義教里","number":"I010000136","name":"嘉基東院區門診大樓6F女廁","address":"嘉義市東　區義教里忠孝路","administration":"其他","latitude":"23.49997055","longitude":"120.4512262","grade":"特優級","type2":"社福機構、集會場所","type":"女廁所","exec":null,"diaper":null},{"country":"10020","city":"10020010","village":"義教里","number":"I010000135","name":"嘉基東院區門診大樓6F男廁","address":"嘉義市東　區義教里忠孝路","administration":"其他","latitude":"23.49989184","longitude":"120.4513121","grade":"特優級","type2":"社福機構、集會場所","type":"男廁所","exec":null,"diaper":null},{"country":"10020","city":"10020010","village":"義教里","number":"I010000134","name":"嘉基東院區門診大樓5F親子廁所","address":"嘉義市東　區義教里忠孝路","administration":"其他","latitude":"23.49989184","longitude":"120.4513121","grade":"特優級","type2":"社福機構、集會場所","type":"親子廁所","exec":null,"diaper":null},{"country":"10020","city":"10020020","village":"保生里","number":"I020000155","name":"留園 精緻料理女廁","address":"嘉義市西　區保生里嘉義市西區興達路321號","administration":"縣市政府","latitude":"23.48682501","longitude":"120.4371929","grade":"特優級","type2":"商業營業場所","type":"女廁所","exec":null,"diaper":null},{"country":"10020","city":"10020020","village":"保生里","number":"I020000154","name":"留園 精緻料理男廁","address":"嘉義市西　區保生里嘉義市西區興達路321號","administration":"縣市政府","latitude":"23.48670693","longitude":"120.4372358","grade":"特優級","type2":"商業營業場所","type":"男廁所","exec":null,"diaper":null},{"country":"10020","city":"10020020","village":"西平里","number":"I020000126","name":"一葉日本料理餐廳男廁","address":"嘉義市西　區西平里嘉義市西區博愛路二段700號","administration":"縣市政府","latitude":"23.46860012","longitude":"120.4285669","grade":"特優級","type2":"商業營業場所","type":"男廁所","exec":null,"diaper":null},{"country":"10020","city":"10020020","village":"後驛里","number":"I020000125","name":"晶饌婚宴會館女廁","address":"嘉義市西　區後驛里友忠路528號","administration":"縣市政府","latitude":"23.48004755","longitude":"120.4367262","grade":"特優級","type2":"商業營業場所","type":"女廁所","exec":null,"diaper":null},{"country":"10020","city":"10020020","village":"後驛里","number":"I020000124","name":"晶饌婚宴會館男廁","address":"嘉義市西　區後驛里友忠路528號","administration":"縣市政府","latitude":"23.48003771","longitude":"120.4367289","grade":"特優級","type2":"商業營業場所","type":"男廁所","exec":null,"diaper":null},{"country":"10020","city":"10020020","village":"後驛里","number":"I020000123","name":"船老大囍宴餐廳女廁","address":"嘉義市西　區後驛里友忠路580號","administration":"縣市政府","latitude":"23.48019393","longitude":"120.4368563","grade":"特優級","type2":"商業營業場所","type":"女廁所","exec":null,"diaper":null},{"country":"10020","city":"10020020","village":"後驛里","number":"I020000122","name":"船老大囍宴餐廳男廁","address":"嘉義市西　區後驛里友忠路580號","administration":"縣市政府","latitude":"23.48019393","longitude":"120.4368268","grade":"特優級","type2":"商業營業場所","type":"男廁所","exec":null,"diaper":null},{"country":"10020","city":"10020020","village":"磚磘里","number":"I020000121","name":"滿福樓海宴餐廳女廁","address":"嘉義市西　區磚磘里中興路615號","administration":"縣市政府","latitude":"23.47566601","longitude":"120.4282022","grade":"特優級","type2":"商業營業場所","type":"女廁所","exec":null,"diaper":null},{"country":"10020","city":"10020020","village":"磚磘里","number":"I020000120","name":"滿福樓海宴餐廳男廁","address":"嘉義市西　區磚磘里中興路615號","administration":"縣市政府","latitude":"23.47567585","longitude":"120.4282343","grade":"特優級","type2":"商業營業場所","type":"男廁所","exec":null,"diaper":null},{"country":"10020","city":"10020010","village":"中央里","number":"I010000309","name":"樂檸漢堡嘉義中山市府門市男女廁","address":"嘉義市東　區中央里中山路203號1樓","administration":"縣市政府","latitude":"23.4811","longitude":"120.45262","grade":"特優級","type2":"商業營業場所","type":"混合廁所","exec":null,"diaper":null},{"country":"10020","city":"10020020","village":"湖邊里","number":"I020000106","name":"小原婚宴餐廳1F女廁","address":"嘉義市西　區湖邊里嘉義市西區博愛路一段372號","administration":"縣市政府","latitude":"23.48763188","longitude":"120.4442954","grade":"特優級","type2":"商業營業場所","type":"女廁所","exec":null,"diaper":null},{"country":"10020","city":"10020020","village":"湖邊里","number":"I020000105","name":"小原婚宴餐廳1F男廁","address":"嘉義市西　區湖邊里嘉義市西區博愛路一段372號","administration":"縣市政府","latitude":"23.4876122","longitude":"120.4443383","grade":"特優級","type2":"商業營業場所","type":"男廁所","exec":null,"diaper":null},{"country":"10020","city":"10020010","village":"義教里","number":"I010000294","name":"左阜右邑新生店女廁","address":"嘉義市東　區義教里新生路","administration":"縣市政府","latitude":"23.49615543","longitude":"120.4538494","grade":"特優級","type2":"商業營業場所","type":"女廁所","exec":null,"diaper":null},{"country":"10020","city":"10020010","village":"義教里","number":"I010000293","name":"左阜右邑新生店男廁","address":"嘉義市東　區義教里新生路","administration":"縣市政府","latitude":"23.49627104","longitude":"120.4539514","grade":"特優級","type2":"商業營業場所","type":"男廁所","exec":null,"diaper":null},{"country":"10020","city":"10020020","village":"國華里","number":"I020000104","name":"西堤牛排文化店女廁","address":"嘉義市西　區國華里文化路155號2樓","administration":"縣市政府","latitude":"23.48076345","longitude":"120.4493058","grade":"特優級","type2":"商業營業場所","type":"女廁所","exec":null,"diaper":null},{"country":"10020","city":"10020020","village":"文化里","number":"I020000631","name":"西市場1F-左側女","address":"嘉義市西　區文化里國華街245號近國華街","administration":"縣市政府","latitude":"23.47949403","longitude":"120.4482114","grade":"特優級","type2":"商業營業場所","type":"女廁所","exec":null,"diaper":null},{"country":"10020","city":"10020020","village":"文化里","number":"I020000630","name":"西市場1F-左側男","address":"嘉義市西　區文化里國華街245號近國華街","administration":"縣市政府","latitude":"23.47940546","longitude":"120.4480934","grade":"特優級","type2":"商業營業場所","type":"男廁所","exec":null,"diaper":null},{"country":"10020","city":"10020020","village":"文化里","number":"I020000629","name":"西市場1F-右側女","address":"嘉義市西　區文化里國華街245號近國華街","administration":"縣市政府","latitude":"23.47923","longitude":"120.44834","grade":"特優級","type2":"商業營業場所","type":"女廁所","exec":null,"diaper":null},{"country":"10020","city":"10020020","village":"文化里","number":"I020000628","name":"西市場1F-右側男","address":"嘉義市西　區文化里國華街245號近國華街","administration":"縣市政府","latitude":"23.47939","longitude":"120.448395","grade":"特優級","type2":"商業營業場所","type":"男廁所","exec":null,"diaper":null},{"country":"10020","city":"10020020","village":"福安里","number":"I020000180","name":"嘉義醫院2樓右側復健科外女廁","address":"嘉義市西　區福安里北港路","administration":"衛生福利部","latitude":"23.48135387","longitude":"120.4292321","grade":"特優級","type2":"社福機構、集會場所","type":"女廁所","exec":null,"diaper":null},{"country":"10020","city":"10020020","village":"福安里","number":"I020000179","name":"嘉義醫院2樓右側復健科外男廁","address":"嘉義市西　區福安里北港路","administration":"衛生福利部","latitude":"23.48127515","longitude":"120.4291678","grade":"特優級","type2":"社福機構、集會場所","type":"男廁所","exec":null,"diaper":null},{"country":"10020","city":"10020020","village":"福安里","number":"I020000178","name":"嘉義醫院1樓檢驗科旁廁所","address":"嘉義市西　區福安里北港路","administration":"衛生福利部","latitude":"23.48141291","longitude":"120.4293394","grade":"特優級","type2":"社福機構、集會場所","type":"混合廁所","exec":null,"diaper":null},{"country":"10020","city":"10020020","village":"福安里","number":"I020000177","name":"嘉義醫院1樓檢驗科旁親子廁所","address":"嘉義市西　區福安里北港路","administration":"衛生福利部","latitude":"23.48137355","longitude":"120.4289746","grade":"特優級","type2":"社福機構、集會場所","type":"親子廁所","exec":null,"diaper":null},{"country":"10020","city":"10020020","village":"北湖里","number":"I020000003","name":"北社尾公園女廁","address":"嘉義市西　區北湖里北社尾路上","administration":"縣市政府","latitude":"23.4922","longitude":"120.423","grade":"特優級","type2":"公園","type":"女廁所","exec":null,"diaper":null},{"country":"10020","city":"10020020","village":"北湖里","number":"I020000002","name":"北社尾公園男廁","address":"嘉義市西　區北湖里北社尾路上","administration":"縣市政府","latitude":"23.4922","longitude":"120.423","grade":"特優級","type2":"公園","type":"男廁所","exec":null,"diaper":null},{"country":"10020","city":"10020010","village":"仁義里","number":"I010000154","name":"全家仁義店","address":"嘉義市東　區仁義里台林街","administration":"縣市政府","latitude":"23.49420478","longitude":"120.4539728","grade":"特優級","type2":"商業營業場所","type":"混合廁所","exec":null,"diaper":null},{"country":"10020","city":"10020010","village":"興安里","number":"I010000153","name":"全家興安店","address":"嘉義市東　區興安里興安街","administration":"縣市政府","latitude":"23.45991979","longitude":"120.4527068","grade":"特優級","type2":"商業營業場所","type":"混合廁所","exec":null,"diaper":null},{"country":"10020","city":"10020010","village":"芳草里","number":"I010000152","name":"全家宣信店","address":"嘉義市東　區芳草里宣信街","administration":"縣市政府","latitude":"23.4684033","longitude":"120.4608822","grade":"特優級","type2":"商業營業場所","type":"混合廁所","exec":null,"diaper":null},{"country":"10020","city":"10020010","village":"太平里","number":"I010000149","name":"全家博東店","address":"嘉義市東　區太平里博東路","administration":"縣市政府","latitude":"23.49081998","longitude":"120.4597664","grade":"特優級","type2":"商業營業場所","type":"混合廁所","exec":null,"diaper":null},{"country":"10020","city":"10020010","village":"短竹里","number":"I010000147","name":"全家日新店","address":"嘉義市東　區短竹里彌陀路","administration":"縣市政府","latitude":"23.47418988","longitude":"120.4647875","grade":"特優級","type2":"商業營業場所","type":"混合廁所","exec":null,"diaper":null},{"country":"10020","city":"10020010","village":"義教里","number":"I010000795","name":"耐斯王子大飯店17F男廁","address":"嘉義市東　區義教里忠孝路","administration":"縣市政府","latitude":"23.496654","longitude":"120.453199","grade":"特優級","type2":"商業營業場所","type":"男廁所","exec":null,"diaper":null},{"country":"10020","city":"10020010","village":"義教里","number":"I010000794","name":"耐斯王子大飯店1F無障礙廁所","address":"嘉義市東　區義教里忠孝路","administration":"縣市政府","latitude":"23.496654","longitude":"120.453199","grade":"特優級","type2":"商業營業場所","type":"無障礙廁所","exec":null,"diaper":null},{"country":"10020","city":"10020010","village":"義教里","number":"I010000793","name":"耐斯王子大飯店1F女廁","address":"嘉義市東　區義教里忠孝路","administration":"縣市政府","latitude":"23.496654","longitude":"120.453199","grade":"特優級","type2":"商業營業場所","type":"女廁所","exec":null,"diaper":null},{"country":"10020","city":"10020010","village":"義教里","number":"I010000792","name":"耐斯王子大飯店1F男廁","address":"嘉義市東　區義教里忠孝路","administration":"縣市政府","latitude":"23.496654","longitude":"120.453199","grade":"特優級","type2":"商業營業場所","type":"男廁所","exec":null,"diaper":null},{"country":"10020","city":"10020020","village":"國華里","number":"I020000649","name":"西堤牛排文化店無障礙廁所","address":"嘉義市西　區國華里文化路155號2樓","administration":"縣市政府","latitude":"23.48076345","longitude":"120.4492736","grade":"特優級","type2":"商業營業場所","type":"無障礙廁所","exec":null,"diaper":null},{"country":"10020","city":"10020020","village":"國華里","number":"I020000647","name":"兆品酒店1F無障礙廁所","address":"嘉義市西　區國華里文化路257號","administration":"縣市政府","latitude":"23.482679","longitude":"120.448773","grade":"特優級","type2":"商業營業場所","type":"無障礙廁所","exec":null,"diaper":null},{"country":"10020","city":"10020010","village":"東興里","number":"I010000825","name":"陽明醫院7F男廁","address":"嘉義市東　區東興里吳鳳北路","administration":"其他","latitude":"23.48040919","longitude":"120.4534149","grade":"特優級","type2":"社福機構、集會場所","type":"男廁所","exec":null,"diaper":null},{"country":"10020","city":"10020010","village":"東興里","number":"I010000824","name":"陽明醫院6F女廁","address":"嘉義市東　區東興里吳鳳北路","administration":"其他","latitude":"23.48040919","longitude":"120.4534149","grade":"特優級","type2":"社福機構、集會場所","type":"女廁所","exec":null,"diaper":null},{"country":"10020","city":"10020010","village":"東興里","number":"I010000823","name":"陽明醫院6F男廁","address":"嘉義市東　區東興里吳鳳北路","administration":"其他","latitude":"23.48040919","longitude":"120.4535008","grade":"特優級","type2":"社福機構、集會場所","type":"男廁所","exec":null,"diaper":null},{"country":"10020","city":"10020010","village":"東興里","number":"I010000822","name":"陽明醫院5F女廁","address":"嘉義市東　區東興里吳鳳北路","administration":"其他","latitude":"23.48042887","longitude":"120.4535008","grade":"特優級","type2":"社福機構、集會場所","type":"女廁所","exec":null,"diaper":null},{"country":"10020","city":"10020010","village":"東興里","number":"I010000821","name":"陽明醫院5F男廁","address":"嘉義市東　區東興里吳鳳北路","administration":"其他","latitude":"23.48040919","longitude":"120.4533935","grade":"特優級","type2":"社福機構、集會場所","type":"男廁所","exec":null,"diaper":null},{"country":"10020","city":"10020010","village":"東興里","number":"I010000820","name":"陽明醫院3F女廁","address":"嘉義市東　區東興里吳鳳北路","administration":"其他","latitude":"23.48044855","longitude":"120.4535008","grade":"特優級","type2":"社福機構、集會場所","type":"女廁所","exec":null,"diaper":null},{"country":"10020","city":"10020010","village":"東興里","number":"I010000719","name":"市政府6F近民樂街男廁","address":"嘉義市東　區東興里中山路199號","administration":"縣市政府","latitude":"23.48123579","longitude":"120.4534149","grade":"特優級","type2":"民眾洽公場所","type":"男廁所","exec":null,"diaper":null},{"country":"10020","city":"10020010","village":"東興里","number":"I010000714","name":"市政府3F近民樂街女廁","address":"嘉義市東　區東興里中山路199號","administration":"縣市政府","latitude":"23.48103898","longitude":"120.4535008","grade":"特優級","type2":"民眾洽公場所","type":"女廁所","exec":null,"diaper":null},{"country":"10020","city":"10020010","village":"東興里","number":"I010000713","name":"市政府3F近民樂街男廁","address":"嘉義市東　區東興里中山路199號","administration":"縣市政府","latitude":"23.48103898","longitude":"120.4533291","grade":"特優級","type2":"民眾洽公場所","type":"男廁所","exec":null,"diaper":null},{"country":"10020","city":"10020010","village":"東興里","number":"I010000712","name":"市政府2F近民樂街女廁","address":"嘉義市東　區東興里中山路199號","administration":"縣市政府","latitude":"23.48099962","longitude":"120.453372","grade":"特優級","type2":"民眾洽公場所","type":"女廁所","exec":null,"diaper":null},{"country":"10020","city":"10020010","village":"東興里","number":"I010000711","name":"市政府2F近民樂街男廁","address":"嘉義市東　區東興里中山路199號","administration":"縣市政府","latitude":"23.48087784","longitude":"120.4545448","grade":"特優級","type2":"民眾洽公場所","type":"男廁所","exec":null,"diaper":null},{"country":"10020","city":"10020010","village":"東興里","number":"I010000710","name":"市政府1F近民樂街女廁","address":"嘉義市東　區東興里中山路199號","administration":"縣市政府","latitude":"23.48090121","longitude":"120.4538333","grade":"特優級","type2":"民眾洽公場所","type":"女廁所","exec":null,"diaper":null},{"country":"10020","city":"10020020","village":"福安里","number":"I020000048","name":"星巴克中興店女廁","address":"嘉義市西　區福安里中興路398號","administration":"縣市政府","latitude":"23.479465","longitude":"120.429049","grade":"特優級","type2":"商業營業場所","type":"女廁所","exec":null,"diaper":null},{"country":"10020","city":"10020020","village":"福安里","number":"I020000047","name":"星巴克中興店混合廁","address":"嘉義市西　區福安里中興路398號","administration":"縣市政府","latitude":"23.479465","longitude":"120.429049","grade":"特優級","type2":"商業營業場所","type":"男廁所","exec":null,"diaper":null},{"country":"10020","city":"10020020","village":"福安里","number":"I020000046","name":"肯德基中興店無障礙廁所","address":"嘉義市西　區福安里中興路396號","administration":"縣市政府","latitude":"23.47963","longitude":"120.42917","grade":"特優級","type2":"商業營業場所","type":"無障礙廁所","exec":null,"diaper":null},{"country":"10020","city":"10020020","village":"福安里","number":"I020000045","name":"肯德基中興店女廁","address":"嘉義市西　區福安里中興路396號","administration":"縣市政府","latitude":"23.47963","longitude":"120.42917","grade":"特優級","type2":"商業營業場所","type":"女廁所","exec":null,"diaper":null},{"country":"10020","city":"10020020","village":"福安里","number":"I020000044","name":"肯德基中興店男廁","address":"嘉義市西　區福安里中興路396號","administration":"縣市政府","latitude":"23.47963","longitude":"120.42917","grade":"特優級","type2":"商業營業場所","type":"男廁所","exec":null,"diaper":null},{"country":"10020","city":"10020020","village":"書院里","number":"I020000052","name":"嘉年華戲院1F女廁","address":"嘉義市西　區書院里中山路617號","administration":"其他","latitude":"23.4781","longitude":"120.4414","grade":"特優級","type2":"休閒娛樂場所","type":"女廁所","exec":null,"diaper":null},{"country":"10020","city":"10020020","village":"書院里","number":"I020000051","name":"嘉年華戲院1F男廁","address":"嘉義市西　區書院里中山路617號","administration":"其他","latitude":"23.4781","longitude":"120.4414","grade":"特優級","type2":"休閒娛樂場所","type":"男廁所","exec":null,"diaper":null},{"country":"10020","city":"10020020","village":"國華里","number":"I020000066","name":"麥當勞中山店女廁","address":"嘉義市西　區國華里中山路318號","administration":"縣市政府","latitude":"23.4799","longitude":"120.448","grade":"特優級","type2":"商業營業場所","type":"女廁所","exec":null,"diaper":null},{"country":"10020","city":"10020020","village":"國華里","number":"I020000065","name":"麥當勞中山店男廁","address":"嘉義市西　區國華里中山路318號","administration":"縣市政府","latitude":"23.4799","longitude":"120.448","grade":"特優級","type2":"商業營業場所","type":"男廁所","exec":null,"diaper":null},{"country":"10020","city":"10020010","village":"中庄里","number":"I010000033","name":"麥當勞忠孝店女廁","address":"嘉義市東　區中庄里忠孝路","administration":"縣市政府","latitude":"23.4954","longitude":"120.4515","grade":"特優級","type2":"商業營業場所","type":"女廁所","exec":null,"diaper":null},{"country":"10020","city":"10020010","village":"中庄里","number":"I010000032","name":"麥當勞忠孝店男廁","address":"嘉義市東　區中庄里忠孝路","administration":"縣市政府","latitude":"23.4954","longitude":"120.4515","grade":"特優級","type2":"商業營業場所","type":"男廁所","exec":null,"diaper":null},{"country":"10020","city":"10020020","village":"西平里","number":"I020000064","name":"家樂福嘉義店B1無障礙廁所","address":"嘉義市西　區西平里嘉義市西區博愛路二段461號","administration":"縣市政府","latitude":"23.4714","longitude":"120.431","grade":"特優級","type2":"商業營業場所","type":"無障礙廁所","exec":null,"diaper":null},{"country":"10020","city":"10020020","village":"西平里","number":"I020000063","name":"家樂福嘉義店B1女廁","address":"嘉義市西　區西平里嘉義市西區博愛路二段461號","administration":"縣市政府","latitude":"23.4714","longitude":"120.431","grade":"特優級","type2":"商業營業場所","type":"女廁所","exec":null,"diaper":null},{"country":"10020","city":"10020020","village":"西平里","number":"I020000062","name":"家樂福嘉義店B1男廁","address":"嘉義市西　區西平里嘉義市西區博愛路二段461號","administration":"縣市政府","latitude":"23.4714","longitude":"120.431","grade":"特優級","type2":"商業營業場所","type":"男廁所","exec":null,"diaper":null},{"country":"10020","city":"10020020","village":"西平里","number":"I020000061","name":"家樂福嘉義店1F無障礙廁所","address":"嘉義市西　區西平里嘉義市西區博愛路二段461號","administration":"縣市政府","latitude":"23.4714","longitude":"120.431","grade":"特優級","type2":"商業營業場所","type":"無障礙廁所","exec":null,"diaper":null},{"country":"10020","city":"10020020","village":"西平里","number":"I020000060","name":"家樂福嘉義店1F女廁","address":"嘉義市西　區西平里嘉義市西區博愛路二段461號","administration":"縣市政府","latitude":"23.4714","longitude":"120.431","grade":"特優級","type2":"商業營業場所","type":"女廁所","exec":null,"diaper":null},{"country":"10020","city":"10020020","village":"西平里","number":"I020000059","name":"家樂福嘉義店1F男廁","address":"嘉義市西　區西平里嘉義市西區博愛路二段461號","administration":"縣市政府","latitude":"23.4714","longitude":"120.431","grade":"特優級","type2":"商業營業場所","type":"男廁所","exec":null,"diaper":null},{"country":"10020","city":"10020020","village":"文化里","number":"I020000043","name":"肯德基垂楊店女廁","address":"嘉義市西　區文化里嘉義市西區垂楊路460號","administration":"縣市政府","latitude":"23.4738","longitude":"120.4484","grade":"特優級","type2":"商業營業場所","type":"女廁所","exec":null,"diaper":null},{"country":"10020","city":"10020020","village":"文化里","number":"I020000042","name":"肯德基垂楊店男廁","address":"嘉義市西　區文化里嘉義市西區垂楊路460號","administration":"縣市政府","latitude":"23.4738","longitude":"120.4484","grade":"特優級","type2":"商業營業場所","type":"男廁所","exec":null,"diaper":null},{"country":"10020","city":"10020020","village":"文化里","number":"I020000068","name":"麥當勞垂楊店女廁","address":"嘉義市西　區文化里嘉義市西區垂楊路468號","administration":"縣市政府","latitude":"23.4737","longitude":"120.448","grade":"特優級","type2":"商業營業場所","type":"女廁所","exec":null,"diaper":null},{"country":"10020","city":"10020020","village":"文化里","number":"I020000067","name":"麥當勞垂楊店男廁","address":"嘉義市西　區文化里嘉義市西區垂楊路468號","administration":"縣市政府","latitude":"23.4737","longitude":"120.448","grade":"特優級","type2":"商業營業場所","type":"男廁所","exec":null,"diaper":null},{"country":"10020","city":"10020020","village":"後驛里","number":"I020000714","name":"交通轉運中心1F女廁","address":"嘉義市西　區後驛里嘉義市西區中興路1號","administration":"縣市政府","latitude":"23.479793","longitude":"120.440022","grade":"特優級","type2":"交通","type":"女廁所","exec":null,"diaper":null},{"country":"10020","city":"10020020","village":"後驛里","number":"I020000713","name":"交通轉運中心1F男廁","address":"嘉義市西　區後驛里嘉義市西區中興路1號","administration":"縣市政府","latitude":"23.479793","longitude":"120.440022","grade":"特優級","type2":"交通","type":"男廁所","exec":null,"diaper":null},{"country":"10020","city":"10020010","village":"蘭潭里","number":"I010000422","name":"聖馬爾定11樓女廁","address":"嘉義市東　區蘭潭里大雅路二段565號","administration":"其他","latitude":"23.47670913","longitude":"120.4673624","grade":"特優級","type2":"社福機構、集會場所","type":"女廁所","exec":null,"diaper":null},{"country":"10020","city":"10020010","village":"蘭潭里","number":"I010000421","name":"聖馬爾定11樓男廁","address":"嘉義市東　區蘭潭里大雅路二段565號","administration":"其他","latitude":"23.4766304","longitude":"120.4673624","grade":"特優級","type2":"社福機構、集會場所","type":"男廁所","exec":null,"diaper":null},{"country":"10020","city":"10020010","village":"蘭潭里","number":"I010000420","name":"聖馬爾定10樓女廁","address":"嘉義市東　區蘭潭里大雅路二段565號","administration":"其他","latitude":"23.4766304","longitude":"120.4673195","grade":"特優級","type2":"社福機構、集會場所","type":"女廁所","exec":null,"diaper":null},{"country":"10020","city":"10020010","village":"蘭潭里","number":"I010000410","name":"聖馬爾定5樓女廁","address":"嘉義市東　區蘭潭里大雅路二段565號","administration":"其他","latitude":"23.47678786","longitude":"120.4673624","grade":"特優級","type2":"社福機構、集會場所","type":"女廁所","exec":null,"diaper":null},{"country":"10020","city":"10020010","village":"蘭潭里","number":"I010000409","name":"聖馬爾定5樓男廁","address":"嘉義市東　區蘭潭里大雅路二段565號","administration":"其他","latitude":"23.47670913","longitude":"120.4673624","grade":"特優級","type2":"社福機構、集會場所","type":"男廁所","exec":null,"diaper":null},{"country":"10020","city":"10020010","village":"蘭潭里","number":"I010000408","name":"聖馬爾定4樓女廁","address":"嘉義市東　區蘭潭里大雅路二段565號","administration":"其他","latitude":"23.47670913","longitude":"120.4673624","grade":"特優級","type2":"社福機構、集會場所","type":"女廁所","exec":null,"diaper":null},{"country":"10020","city":"10020010","village":"後湖里","number":"I010000146","name":"嘉基第二院區保健大樓2F無障礙廁所","address":"嘉義市東　區後湖里保健街","administration":"其他","latitude":"23.50061009","longitude":"120.4510653","grade":"特優級","type2":"社福機構、集會場所","type":"無障礙廁所","exec":null,"diaper":null},{"country":"10020","city":"10020010","village":"後湖里","number":"I010000145","name":"嘉基第二院區保健大樓2F女廁","address":"嘉義市東　區後湖里保健街","administration":"其他","latitude":"23.50058057","longitude":"120.4509902","grade":"特優級","type2":"社福機構、集會場所","type":"女廁所","exec":null,"diaper":null},{"country":"10020","city":"10020010","village":"後湖里","number":"I010000144","name":"嘉基第二院區保健大樓2F男廁","address":"嘉義市東　區後湖里保健街","administration":"其他","latitude":"23.50075767","longitude":"120.4511404","grade":"特優級","type2":"社福機構、集會場所","type":"男廁所","exec":null,"diaper":null},{"country":"10020","city":"10020010","village":"後湖里","number":"I010000143","name":"嘉基第二院區保健大樓1F無障礙廁所","address":"嘉義市東　區後湖里保健街","administration":"其他","latitude":"23.50079703","longitude":"120.4509687","grade":"特優級","type2":"社福機構、集會場所","type":"無障礙廁所","exec":null,"diaper":null},{"country":"10020","city":"10020020","village":"福安里","number":"I020000176","name":"嘉義醫院1樓收發後無障礙廁所","address":"嘉義市西　區福安里北港路","administration":"衛生福利部","latitude":"23.48129483","longitude":"120.4290605","grade":"特優級","type2":"社福機構、集會場所","type":"無障礙廁所","exec":null,"diaper":null},{"country":"10020","city":"10020020","village":"福安里","number":"I020000175","name":"嘉義醫院1樓收發後男廁","address":"嘉義市西　區福安里北港路","administration":"衛生福利部","latitude":"23.48143259","longitude":"120.4291463","grade":"特優級","type2":"社福機構、集會場所","type":"男廁所","exec":null,"diaper":null},{"country":"10020","city":"10020020","village":"福安里","number":"I020000174","name":"嘉義醫院1樓西側無障礙廁所","address":"嘉義市西　區福安里北港路","administration":"衛生福利部","latitude":"23.48129483","longitude":"120.429039","grade":"特優級","type2":"社福機構、集會場所","type":"無障礙廁所","exec":null,"diaper":null},{"country":"10020","city":"10020020","village":"福安里","number":"I020000173","name":"嘉義醫院1樓西側女廁","address":"嘉義市西　區福安里北港路","administration":"衛生福利部","latitude":"23.48117674","longitude":"120.4292536","grade":"特優級","type2":"社福機構、集會場所","type":"女廁所","exec":null,"diaper":null},{"country":"10020","city":"10020020","village":"福安里","number":"I020000172","name":"嘉義醫院1樓西側男廁","address":"嘉義市西　區福安里北港路","administration":"衛生福利部","latitude":"23.48129483","longitude":"120.4290605","grade":"特優級","type2":"社福機構、集會場所","type":"男廁所","exec":null,"diaper":null},{"country":"10020","city":"10020020","village":"福安里","number":"I020000171","name":"嘉義醫院急診女廁","address":"嘉義市西　區福安里北港路","administration":"衛生福利部","latitude":"23.48141291","longitude":"120.4292107","grade":"特優級","type2":"社福機構、集會場所","type":"女廁所","exec":null,"diaper":null},{"country":"10020","city":"10020020","village":"福安里","number":"I020000170","name":"嘉義醫院急診男廁","address":"嘉義市西　區福安里北港路","administration":"衛生福利部","latitude":"23.47954323","longitude":"120.4322147","grade":"特優級","type2":"社福機構、集會場所","type":"男廁所","exec":null,"diaper":null},{"country":"10020","city":"10020020","village":"國華里","number":"I020000163","name":"盧亞人醫院1F女廁","address":"嘉義市西　區國華里民權路","administration":"其他","latitude":"23.4822395","longitude":"120.4476214","grade":"特優級","type2":"社福機構、集會場所","type":"女廁所","exec":null,"diaper":null},{"country":"10020","city":"10020020","village":"國華里","number":"I020000162","name":"盧亞人醫院1F男廁","address":"嘉義市西　區國華里民權路","administration":"其他","latitude":"23.48218046","longitude":"120.4475784","grade":"特優級","type2":"社福機構、集會場所","type":"男廁所","exec":null,"diaper":null},{"country":"10020","city":"10020010","village":"東興里","number":"I010000828","name":"陽明醫院8F女廁","address":"嘉義市東　區東興里吳鳳北路","administration":"其他","latitude":"23.48047315","longitude":"120.453313","grade":"特優級","type2":"社福機構、集會場所","type":"女廁所","exec":null,"diaper":null},{"country":"10020","city":"10020020","village":"北榮里","number":"I020000038","name":"埤子頭植物園無障礙廁所","address":"嘉義市西　區北榮里文化路432巷65號","administration":"農業部","latitude":"23.489","longitude":"120.44865","grade":"特優級","type2":"觀光地區及風景區","type":"無障礙廁所","exec":null,"diaper":null},{"country":"10020","city":"10020020","village":"北榮里","number":"I020000037","name":"埤子頭植物園女廁","address":"嘉義市西　區北榮里文化路432巷65號","administration":"農業部","latitude":"23.489","longitude":"120.44865","grade":"特優級","type2":"觀光地區及風景區","type":"女廁所","exec":null,"diaper":null},{"country":"10020","city":"10020020","village":"北榮里","number":"I020000036","name":"埤子頭植物園男廁","address":"嘉義市西　區北榮里文化路432巷65號","administration":"農業部","latitude":"23.489","longitude":"120.44865","grade":"特優級","type2":"觀光地區及風景區","type":"男廁所","exec":null,"diaper":null},{"country":"10020","city":"10020020","village":"劉厝里","number":"I020000193","name":"台中榮總嘉義分院E棟1F女廁","address":"嘉義市西　區劉厝里世賢路二段600號","administration":"國軍退除役官兵輔導委員會","latitude":"23.46661216","longitude":"120.4230738","grade":"特優級","type2":"社福機構、集會場所","type":"女廁所","exec":null,"diaper":null},{"country":"10020","city":"10020020","village":"劉厝里","number":"I020000192","name":"台中榮總嘉義分院E棟1F男廁","address":"嘉義市西　區劉厝里世賢路二段600號","administration":"國軍退除役官兵輔導委員會","latitude":"23.46667121","longitude":"120.4230738","grade":"特優級","type2":"社福機構、集會場所","type":"男廁所","exec":null,"diaper":null},{"country":"10020","city":"10020020","village":"劉厝里","number":"I020000191","name":"台中榮總嘉義分院C棟1F女廁","address":"嘉義市西　區劉厝里世賢路二段600號","administration":"國軍退除役官兵輔導委員會","latitude":"23.46669089","longitude":"120.4229665","grade":"特優級","type2":"社福機構、集會場所","type":"女廁所","exec":null,"diaper":null},{"country":"10020","city":"10020020","village":"劉厝里","number":"I020000190","name":"台中榮總嘉義分院C棟1F男廁","address":"嘉義市西　區劉厝里世賢路二段600號","administration":"國軍退除役官兵輔導委員會","latitude":"23.46649406","longitude":"120.4227734","grade":"特優級","type2":"社福機構、集會場所","type":"男廁所","exec":null,"diaper":null},{"country":"10020","city":"10020020","village":"劉厝里","number":"I020000189","name":"台中榮總嘉義分院A棟2F門診區無障礙廁所","address":"嘉義市西　區劉厝里世賢路二段600號","administration":"國軍退除役官兵輔導委員會","latitude":"23.46669089","longitude":"120.4229236","grade":"特優級","type2":"社福機構、集會場所","type":"無障礙廁所","exec":null,"diaper":null},{"country":"10020","city":"10020020","village":"劉厝里","number":"I020000188","name":"台中榮總嘉義分院A棟2F門診區女廁","address":"嘉義市西　區劉厝里世賢路二段600號","administration":"國軍退除役官兵輔導委員會","latitude":"23.46680899","longitude":"120.4231811","grade":"特優級","type2":"社福機構、集會場所","type":"女廁所","exec":null,"diaper":null},{"country":"10020","city":"10020020","village":"劉厝里","number":"I020000187","name":"台中榮總嘉義分院A棟2F門診區男廁","address":"嘉義市西　區劉厝里世賢路二段600號","administration":"國軍退除役官兵輔導委員會","latitude":"23.46667121","longitude":"120.4230309","grade":"特優級","type2":"社福機構、集會場所","type":"男廁所","exec":null,"diaper":null},{"country":"10020","city":"10020010","village":"民族里","number":"I010000689","name":"城隍廟女廁","address":"嘉義市東　區民族里吳鳳北路","administration":"縣市政府","latitude":"23.478272","longitude":"120.453803","grade":"特優級","type2":"宗教禮儀場所","type":"女廁所","exec":null,"diaper":null},{"country":"10020","city":"10020010","village":"中山里","number":"I010000735","name":"財團法人九華山地藏庵女廁","address":"嘉義市東　區中山里民權路","administration":"縣市政府","latitude":"23.48325","longitude":"120.4565","grade":"特優級","type2":"宗教禮儀場所","type":"女廁所","exec":null,"diaper":null},{"country":"10020","city":"10020010","village":"東川里","number":"I010000272","name":"嘉義公園孔廟旁女廁","address":"嘉義市東　區東川里嘉義公園孔廟旁","administration":"縣市政府","latitude":"23.482514","longitude":"120.466238","grade":"特優級","type2":"宗教禮儀場所","type":"女廁所","exec":null,"diaper":null},{"country":"10020","city":"10020020","village":"文化里","number":"I020000627","name":"西市場2F-左側女","address":"嘉義市西　區文化里國華街245號","administration":"縣市政府","latitude":"23.47939","longitude":"120.448395","grade":"特優級","type2":"商業營業場所","type":"女廁所","exec":null,"diaper":null},{"country":"10020","city":"10020010","village":"頂寮里","number":"I010000592","name":"南興公園女廁","address":"嘉義市東　區頂寮里南興路","administration":"縣市政府","latitude":"23.46637","longitude":"120.45799","grade":"特優級","type2":"公園","type":"女廁所","exec":null,"diaper":null},{"country":"10020","city":"10020010","village":"興南里","number":"I010000482","name":"南田公園女廁","address":"嘉義市東　區興南里南田路","administration":"縣市政府","latitude":"23.470478","longitude":"120.456224","grade":"特優級","type2":"公園","type":"女廁所","exec":null,"diaper":null},{"country":"10020","city":"10020010","village":"興仁里","number":"I010000646","name":"河濱運動公園女廁","address":"嘉義市東　區興仁里興仁街","administration":"縣市政府","latitude":"23.45847","longitude":"120.462009","grade":"特優級","type2":"公園","type":"女廁所","exec":null,"diaper":null},{"country":"10020","city":"10020020","village":"福全里","number":"I020000336","name":"友忠公園無障礙廁所","address":"嘉義市西　區福全里嘉義市西區友忠路鄰北港路","administration":"縣市政府","latitude":"23.47706","longitude":"120.432977","grade":"特優級","type2":"公園","type":"無障礙廁所","exec":null,"diaper":null},{"country":"10020","city":"10020020","village":"福全里","number":"I020000335","name":"友忠公園女廁","address":"嘉義市西　區福全里嘉義市西區友忠路鄰北港路","administration":"縣市政府","latitude":"23.47706","longitude":"120.432977","grade":"特優級","type2":"公園","type":"女廁所","exec":null,"diaper":null},{"country":"10020","city":"10020020","village":"西平里","number":"I020000351","name":"番仔溝公園女廁","address":"嘉義市西　區西平里嘉雄陸橋下","administration":"縣市政府","latitude":"23.47477","longitude":"120.4363","grade":"特優級","type2":"公園","type":"女廁所","exec":null,"diaper":null},{"country":"10020","city":"10020020","village":"國華里","number":"I020000646","name":"中正公園女廁","address":"嘉義市西　區國華里國華街、民權路口","administration":"縣市政府","latitude":"23.481771","longitude":"120.447563","grade":"特優級","type2":"公園","type":"女廁所","exec":null,"diaper":null},{"country":"10020","city":"10020010","village":"東川里","number":"I010000274","name":"228公園女廁","address":"嘉義市東　區東川里大雅路、啟明路口","administration":"縣市政府","latitude":"23.476551","longitude":"120.462856","grade":"特優級","type2":"公園","type":"女廁所","exec":null,"diaper":null},{"country":"10020","city":"10020020","village":"美源里","number":"I020000540","name":"民生公園無障礙廁所","address":"嘉義市西　區美源里嘉義市西區民生南路","administration":"縣市政府","latitude":"23.465779","longitude":"120.4439","grade":"特優級","type2":"公園","type":"無障礙廁所","exec":null,"diaper":null},{"country":"10020","city":"10020020","village":"美源里","number":"I020000539","name":"民生公園女廁","address":"嘉義市西　區美源里嘉義市西區民生南路","administration":"縣市政府","latitude":"23.465557","longitude":"120.443304","grade":"特優級","type2":"公園","type":"女廁所","exec":null,"diaper":null},{"country":"10020","city":"10020010","village":"長竹里","number":"I010000281","name":"貴族世家嘉義大雅店男廁","address":"嘉義市東　區長竹里大雅路二段167號","administration":"縣市政府","latitude":"23.47891343","longitude":"120.4784346","grade":"特優級","type2":"商業營業場所","type":"男廁所","exec":null,"diaper":null},{"country":"10020","city":"10020010","village":"長竹里","number":"I010000383","name":"東園軒女廁","address":"嘉義市東　區長竹里大雅路二段350號 ","administration":"縣市政府","latitude":"23.477531","longitude":"120.474873","grade":"特優級","type2":"商業營業場所","type":"女廁所","exec":null,"diaper":null},{"country":"10020","city":"10020010","village":"東川里","number":"I010000224","name":"嘉義公園近溜冰場無障礙廁所","address":"嘉義市東　區東川里嘉義公園近溜冰場旁","administration":"縣市政府","latitude":"23.483854","longitude":"120.464745","grade":"特優級","type2":"公園","type":"無障礙廁所","exec":null,"diaper":null},{"country":"10020","city":"10020010","village":"民族里","number":"I010000694","name":"環保局右側女廁","address":"嘉義市東　區民族里吳鳳北路","administration":"縣市政府","latitude":"23.478876","longitude":"120.453664","grade":"特優級","type2":"民眾洽公場所","type":"女廁所","exec":null,"diaper":null},{"country":"10020","city":"10020010","village":"中山里","number":"I010000739","name":"財稅局2F西側女廁","address":"嘉義市東　區中山里中山路154號","administration":"縣市政府","latitude":"23.481786","longitude":"120.454317","grade":"特優級","type2":"民眾洽公場所","type":"女廁所","exec":null,"diaper":null},{"country":"10020","city":"10020010","village":"東川里","number":"I010000228","name":"嘉義公園射日塔旁女廁","address":"嘉義市東　區東川里嘉義公園射日塔旁","administration":"縣市政府","latitude":"23.482078","longitude":"120.468198","grade":"特優級","type2":"公園","type":"女廁所","exec":null,"diaper":null},{"country":"10020","city":"10020020","village":"福民里","number":"I020000526","name":"西區戶政事務所女廁","address":"嘉義市西　區福民里錦州二街28號","administration":"縣市政府","latitude":"23.4645","longitude":"120.435379","grade":"特優級","type2":"民眾洽公場所","type":"女廁所","exec":null,"diaper":null},{"country":"10020","city":"10020010","village":"民族里","number":"I010000692","name":"東區戶政事務所女廁","address":"嘉義市東　區民族里吳鳳北路","administration":"縣市政府","latitude":"23.478719","longitude":"120.45343","grade":"特優級","type2":"民眾洽公場所","type":"女廁所","exec":null,"diaper":null},{"country":"10020","city":"10020020","village":"福民里","number":"I020000524","name":"西區區公所女廁","address":"嘉義市西　區福民里錦州二街28號","administration":"縣市政府","latitude":"23.464453","longitude":"120.435311","grade":"特優級","type2":"民眾洽公場所","type":"女廁所","exec":null,"diaper":null},{"country":"10020","city":"10020010","village":"東興里","number":"I010000700","name":"市政府1F近中山路女廁","address":"嘉義市東　區東興里中山路199號","administration":"縣市政府","latitude":"23.481305","longitude":"120.453566","grade":"特優級","type2":"民眾洽公場所","type":"女廁所","exec":null,"diaper":null},{"country":"10020","city":"10020020","village":"番社里","number":"I020000675","name":"嘉義火車站女廁","address":"嘉義市西　區番社里嘉義市西區中山路528號","administration":"交通部","latitude":"23.479239","longitude":"120.441308","grade":"特優級","type2":"交通","type":"女廁所","exec":null,"diaper":null},{"country":"10020","city":"10020010","village":"東興里","number":"I010000698","name":"警察局1F女廁","address":"嘉義市東　區東興里中山路195號","administration":"縣市政府","latitude":"23.481282","longitude":"120.454633","grade":"特優級","type2":"民眾洽公場所","type":"女廁所","exec":null,"diaper":null},{"country":"10020","city":"10020020","village":"國華里","number":"I020000161","name":"兆品酒店2F女廁","address":"嘉義市西　區國華里文化路257號","administration":"縣市政府","latitude":"23.482679","longitude":"120.448773","grade":"特優級","type2":"商業營業場所","type":"女廁所","exec":null,"diaper":null},{"country":"10020","city":"10020020","village":"國華里","number":"I020000160","name":"兆品酒店2F男廁","address":"嘉義市西　區國華里文化路257號","administration":"縣市政府","latitude":"23.482679","longitude":"120.448773","grade":"特優級","type2":"商業營業場所","type":"男廁所","exec":null,"diaper":null},{"country":"10020","city":"10020020","village":"國華里","number":"I020000159","name":"兆品酒店1F女廁","address":"嘉義市西　區國華里文化路257號","administration":"縣市政府","latitude":"23.482679","longitude":"120.448773","grade":"特優級","type2":"商業營業場所","type":"女廁所","exec":null,"diaper":null},{"country":"10020","city":"10020010","village":"東川里","number":"I010000220","name":"嘉義公園近啟明路男廁","address":"嘉義市東　區東川里啟明路","administration":"縣市政府","latitude":"23.483796","longitude":"120.463629","grade":"特優級","type2":"公園","type":"男廁所","exec":null,"diaper":null},{"country":"10020","city":"10020020","village":"香湖里","number":"I020000195","name":"台灣中油博愛路加油站女廁","address":"嘉義市西　區香湖里博愛路一段2號","administration":"經濟部","latitude":"23.489056","longitude":"120.445639","grade":"特優級","type2":"商業營業場所","type":"女廁所","exec":null,"diaper":null},{"country":"10020","city":"10020020","village":"保生里","number":"I020000772","name":"台灣中油北興加油站女廁","address":"嘉義市西　區保生里自由路","administration":"經濟部","latitude":"23.49205","longitude":"120.43335","grade":"特優級","type2":"商業營業場所","type":"女廁所","exec":null,"diaper":null},{"country":"10020","city":"10020020","village":"西平里","number":"I020000349","name":"台灣中油信義加油站女廁","address":"嘉義市西　區西平里博愛路二段","administration":"經濟部","latitude":"23.46881","longitude":"120.42893","grade":"特優級","type2":"商業營業場所","type":"女廁所","exec":null,"diaper":null},{"country":"10020","city":"10020020","village":"文化里","number":"I020000623","name":"台灣中油文化路加油站女廁","address":"嘉義市西　區文化里文化路11號","administration":"經濟部","latitude":"23.47454","longitude":"120.44997","grade":"特優級","type2":"商業營業場所","type":"女廁所","exec":null,"diaper":null},{"country":"10020","city":"10020020","village":"港坪里","number":"I020000426","name":"港坪里運動公園-3女廁","address":"嘉義市西　區港坪里大同路100號","administration":"縣市政府","latitude":"23.476981","longitude":"120.421416","grade":"特優級","type2":"文化育樂活動場所","type":"女廁所","exec":null,"diaper":null},{"country":"10020","city":"10020020","village":"港坪里","number":"I020000424","name":"港坪里運動公園-2女廁","address":"嘉義市西　區港坪里大同路100號","administration":"縣市政府","latitude":"23.476981","longitude":"120.421416","grade":"特優級","type2":"文化育樂活動場所","type":"女廁所","exec":null,"diaper":null},{"country":"10020","city":"10020020","village":"垂楊里","number":"I020000468","name":"遠東百貨5F女廁","address":"嘉義市西　區垂楊里嘉義市西區垂楊路537號","administration":"其他","latitude":"23.472755","longitude":"120.44112","grade":"特優級","type2":"商業營業場所","type":"女廁所","exec":null,"diaper":null},{"country":"10020","city":"10020020","village":"垂楊里","number":"I020000466","name":"遠東百貨4F女廁","address":"嘉義市西　區垂楊里嘉義市西區垂楊路537號","administration":"其他","latitude":"23.472755","longitude":"120.44112","grade":"特優級","type2":"商業營業場所","type":"女廁所","exec":null,"diaper":null},{"country":"10020","city":"10020020","village":"垂楊里","number":"I020000464","name":"遠東百貨3F女廁","address":"嘉義市西　區垂楊里嘉義市西區垂楊路537號","administration":"其他","latitude":"23.472755","longitude":"120.44112","grade":"特優級","type2":"商業營業場所","type":"女廁所","exec":null,"diaper":null},{"country":"10020","city":"10020020","village":"垂楊里","number":"I020000460","name":"遠東百貨B1女廁","address":"嘉義市西　區垂楊里嘉義市西區垂楊路537號","administration":"其他","latitude":"23.472755","longitude":"120.44112","grade":"特優級","type2":"商業營業場所","type":"女廁所","exec":null,"diaper":null},{"country":"10020","city":"10020010","village":"北門里","number":"I010000770","name":"博物館3F女廁","address":"嘉義市東　區北門里忠孝路","administration":"縣市政府","latitude":"23.48701","longitude":"120.45144","grade":"特優級","type2":"文化育樂活動場所","type":"女廁所","exec":null,"diaper":null},{"country":"10020","city":"10020010","village":"北門里","number":"I010000769","name":"博物館3F男廁","address":"嘉義市東　區北門里忠孝路","administration":"縣市政府","latitude":"23.488485","longitude":"120.451372","grade":"特優級","type2":"文化育樂活動場所","type":"男廁所","exec":null,"diaper":null},{"country":"10020","city":"10020010","village":"北門里","number":"I010000768","name":"博物館2F女廁","address":"嘉義市東　區北門里忠孝路","administration":"縣市政府","latitude":"23.488485","longitude":"120.451372","grade":"特優級","type2":"文化育樂活動場所","type":"女廁所","exec":null,"diaper":null},{"country":"10020","city":"10020010","village":"北門里","number":"I010000766","name":"博物館1F女廁","address":"嘉義市東　區北門里忠孝路","administration":"縣市政府","latitude":"23.488485","longitude":"120.451372","grade":"特優級","type2":"文化育樂活動場所","type":"女廁所","exec":null,"diaper":null},{"country":"10020","city":"10020010","village":"蘭潭里","number":"I010000375","name":"蘭潭水庫三信亭旁無障礙廁所","address":"嘉義市東　區蘭潭里蘭潭水庫三信亭旁","administration":"縣市政府","latitude":"23.468344","longitude":"120.476437","grade":"特優級","type2":"觀光地區及風景區","type":"無障礙廁所","exec":null,"diaper":null},{"country":"10020","city":"10020010","village":"蘭潭里","number":"I010000374","name":"蘭潭水庫三信亭旁女廁","address":"嘉義市東　區蘭潭里蘭潭水庫三信亭旁","administration":"縣市政府","latitude":"23.468344","longitude":"120.476437","grade":"特優級","type2":"觀光地區及風景區","type":"女廁所","exec":null,"diaper":null},{"country":"10020","city":"10020010","village":"蘭潭里","number":"I010000372","name":"蘭潭水庫土地公廟旁無障礙廁所","address":"嘉義市東　區蘭潭里蘭潭水庫土地公廟旁","administration":"縣市政府","latitude":"23.47524285","longitude":"120.4882622","grade":"特優級","type2":"觀光地區及風景區","type":"無障礙廁所","exec":null,"diaper":null},{"country":"10020","city":"10020010","village":"芳安里","number":"I010000589","name":"宣信公園女廁","address":"嘉義市東　區芳安里南興路、宣信路口","administration":"縣市政府","latitude":"23.46883","longitude":"120.460009","grade":"特優級","type2":"公園","type":"女廁所","exec":null,"diaper":null},{"country":"10020","city":"10020010","village":"太平里","number":"I010000342","name":"長榮公園女廁","address":"嘉義市東　區太平里長榮街","administration":"縣市政府","latitude":"23.485004","longitude":"120.457711","grade":"特優級","type2":"公園","type":"女廁所","exec":null,"diaper":null},{"country":"10020","city":"10020010","village":"東川里","number":"I010000223","name":"嘉義公園近溜冰場女廁","address":"嘉義市東　區東川里嘉義公園近溜冰場旁","administration":"縣市政府","latitude":"23.483854","longitude":"120.464745","grade":"特優級","type2":"公園","type":"女廁所","exec":null,"diaper":null},{"country":"10020","city":"10020020","village":"文化里","number":"I020000635","name":"交通處女廁","address":"嘉義市西　區文化里嘉義市西區國華街245號8樓之15","administration":"縣市政府","latitude":"23.479209","longitude":"120.448307","grade":"特優級","type2":"民眾洽公場所","type":"女廁所","exec":null,"diaper":null},{"country":"10020","city":"10020010","village":"短竹里","number":"I010000453","name":"消防局3F女廁","address":"嘉義市東　區短竹里立學街","administration":"縣市政府","latitude":"23.472863","longitude":"120.467011","grade":"特優級","type2":"民眾洽公場所","type":"女廁所","exec":null,"diaper":null},{"country":"10020","city":"10020020","village":"文化里","number":"I020000633","name":"地政事務所女廁","address":"嘉義市西　區文化里嘉義市西區國華街245號8樓","administration":"縣市政府","latitude":"23.478876","longitude":"120.448307","grade":"特優級","type2":"民眾洽公場所","type":"女廁所","exec":null,"diaper":null},{"country":"10020","city":"10020010","village":"民族里","number":"I010000696","name":"環保局左側女廁","address":"嘉義市東　區民族里吳鳳北路","administration":"縣市政府","latitude":"23.478876","longitude":"120.453664","grade":"特優級","type2":"民眾洽公場所","type":"女廁所","exec":null,"diaper":null},{"country":"10020","city":"10020010","village":"東川里","number":"I010000226","name":"嘉義公園遊戲區旁女廁","address":"嘉義市東　區東川里嘉義公園遊戲區旁","administration":"縣市政府","latitude":"23.482472","longitude":"120.467296","grade":"特優級","type2":"公園","type":"女廁所","exec":null,"diaper":null},{"country":"10020","city":"10020010","village":"民族里","number":"I010000878","name":"東區區公所女廁","address":"嘉義市東　區民族里吳鳳北路","administration":"縣市政府","latitude":"23.4787","longitude":"120.4535","grade":"特優級","type2":"民眾洽公場所","type":"女廁所","exec":null,"diaper":null},{"country":"10020","city":"10020020","village":"西榮里","number":"I020000637","name":"嘉義客運女廁","address":"嘉義市西　區西榮里中山路503號","administration":"交通部","latitude":"23.479187","longitude":"120.444529","grade":"特優級","type2":"交通","type":"女廁所","exec":null,"diaper":null},{"country":"10020","city":"10020010","village":"東興里","number":"I010000882","name":"市政府9F近中山路女廁","address":"嘉義市東　區東興里中山路199號","administration":"縣市政府","latitude":"23.481305","longitude":"120.453566","grade":"特優級","type2":"民眾洽公場所","type":"女廁所","exec":null,"diaper":null},{"country":"10020","city":"10020010","village":"東興里","number":"I010000881","name":"市政府8F近中山路女廁","address":"嘉義市東　區東興里中山路199號","administration":"縣市政府","latitude":"23.481305","longitude":"120.453566","grade":"特優級","type2":"民眾洽公場所","type":"女廁所","exec":null,"diaper":null},{"country":"10020","city":"10020010","village":"東興里","number":"I010000880","name":"市政中心南棟大樓七樓北側女廁","address":"嘉義市東區中山路199號","administration":"縣市政府","latitude":"23.481305","longitude":"120.453566","grade":"特優級","type2":"民眾洽公場所","type":"女廁所","exec":null,"diaper":null},{"country":"10020","city":"10020010","village":"東興里","number":"I010000706","name":"市政府6F近中山路女廁","address":"嘉義市東　區東興里中山路199號","administration":"縣市政府","latitude":"23.481305","longitude":"120.453566","grade":"特優級","type2":"民眾洽公場所","type":"女廁所","exec":null,"diaper":null},{"country":"10020","city":"10020010","village":"東興里","number":"I010000704","name":"市政府3F近中山路女廁","address":"嘉義市東　區東興里中山路199號","administration":"縣市政府","latitude":"23.481305","longitude":"120.453566","grade":"特優級","type2":"民眾洽公場所","type":"女廁所","exec":null,"diaper":null},{"country":"10020","city":"10020010","village":"東興里","number":"I010000702","name":"市政府2F近中山路女廁","address":"嘉義市東　區東興里中山路199號","administration":"縣市政府","latitude":"23.481305","longitude":"120.453566","grade":"特優級","type2":"民眾洽公場所","type":"女廁所","exec":null,"diaper":null},{"country":"10020","city":"10020020","village":"國華里","number":"I020000158","name":"兆品酒店1F男廁","address":"嘉義市西　區國華里文化路257號","administration":"縣市政府","latitude":"23.482679","longitude":"120.448773","grade":"特優級","type2":"商業營業場所","type":"男廁所","exec":null,"diaper":null},{"country":"10020","city":"10020010","village":"義教里","number":"I010000791","name":"耐斯王子大飯店7F女廁","address":"嘉義市東　區義教里忠孝路","administration":"縣市政府","latitude":"23.496654","longitude":"120.453199","grade":"特優級","type2":"商業營業場所","type":"女廁所","exec":null,"diaper":null},{"country":"10020","city":"10020010","village":"義教里","number":"I010000790","name":"耐斯王子大飯店7F男廁","address":"嘉義市東　區義教里忠孝路","administration":"縣市政府","latitude":"23.496654","longitude":"120.453199","grade":"特優級","type2":"商業營業場所","type":"男廁所","exec":null,"diaper":null},{"country":"10020","city":"10020020","village":"西平里","number":"I020000377","name":"南隱宮男廁","address":"嘉義市西　區西平里永春二街","administration":"縣市政府","latitude":"23.478705","longitude":"120.426254","grade":"特優級","type2":"宗教禮儀場所","type":"男廁所","exec":null,"diaper":null},{"country":"10020","city":"10020020","village":"西平里","number":"I020000350","name":"番仔溝公園男廁","address":"嘉義市西　區西平里嘉雄陸橋下","administration":"縣市政府","latitude":"23.47477","longitude":"120.4363","grade":"特優級","type2":"公園","type":"男廁所","exec":null,"diaper":null},{"country":"10020","city":"10020020","village":"西平里","number":"I020000348","name":"台灣中油信義加油站男廁","address":"嘉義市西　區西平里博愛路二段","administration":"經濟部","latitude":"23.46881","longitude":"120.42893","grade":"特優級","type2":"商業營業場所","type":"男廁所","exec":null,"diaper":null},{"country":"10020","city":"10020020","village":"福全里","number":"I020000334","name":"友忠公園男廁","address":"嘉義市西　區福全里嘉義市西區友忠路鄰北港路","administration":"縣市政府","latitude":"23.47706","longitude":"120.432977","grade":"特優級","type2":"公園","type":"男廁所","exec":null,"diaper":null},{"country":"10020","city":"10020020","village":"福全里","number":"I020000344","name":"西區衛生所2F男女廁","address":"嘉義市西　區福全里德明路1號","administration":"縣市政府","latitude":"23.480005","longitude":"120.431026","grade":"特優級","type2":"民眾洽公場所","type":"混合廁所","exec":null,"diaper":null},{"country":"10020","city":"10020020","village":"北湖里","number":"I020000270","name":"福懋大嘉加油站男廁","address":"嘉義市西　區北湖里北港路","administration":"縣市政府","latitude":"23.484857","longitude":"120.422047","grade":"特優級","type2":"商業營業場所","type":"男廁所","exec":null,"diaper":null},{"country":"10020","city":"10020020","village":"保生里","number":"I020000771","name":"台灣中油北興加油站男廁","address":"嘉義市西　區保生里自由路","administration":"經濟部","latitude":"23.49205","longitude":"120.43335","grade":"特優級","type2":"商業營業場所","type":"男廁所","exec":null,"diaper":null},{"country":"10020","city":"10020010","village":"芳安里","number":"I010000608","name":"鎮天宮男廁","address":"嘉義市東　區芳安里忠孝路","administration":"縣市政府","latitude":"23.468295","longitude":"120.460422","grade":"特優級","type2":"宗教禮儀場所","type":"男廁所","exec":null,"diaper":null},{"country":"10020","city":"10020010","village":"興南里","number":"I010000481","name":"南田公園男廁","address":"嘉義市東　區興南里南田路","administration":"縣市政府","latitude":"23.470478","longitude":"120.456224","grade":"特優級","type2":"公園","type":"男廁所","exec":null,"diaper":null},{"country":"10020","city":"10020010","village":"短竹里","number":"I010000452","name":"消防局3F男廁","address":"嘉義市東　區短竹里立學街","administration":"縣市政府","latitude":"23.472863","longitude":"120.467011","grade":"特優級","type2":"民眾洽公場所","type":"男廁所","exec":null,"diaper":null},{"country":"10020","city":"10020010","village":"太平里","number":"I010000341","name":"長榮公園男廁","address":"嘉義市東　區太平里長榮街","administration":"縣市政府","latitude":"23.485004","longitude":"120.457711","grade":"特優級","type2":"公園","type":"男廁所","exec":null,"diaper":null},{"country":"10020","city":"10020010","village":"東川里","number":"I010000273","name":"228公園男廁","address":"嘉義市東　區東川里大雅路、啟明路口","administration":"縣市政府","latitude":"23.476551","longitude":"120.462856","grade":"特優級","type2":"公園","type":"男廁所","exec":null,"diaper":null},{"country":"10020","city":"10020010","village":"東興里","number":"I010000705","name":"市政府6F近中山路男廁","address":"嘉義市東　區東興里中山路199號","administration":"縣市政府","latitude":"23.481305","longitude":"120.453566","grade":"特優級","type2":"民眾洽公場所","type":"男廁所","exec":null,"diaper":null},{"country":"10020","city":"10020010","village":"東興里","number":"I010000703","name":"市政府3F近中山路男廁","address":"嘉義市東　區東興里中山路199號","administration":"縣市政府","latitude":"23.481305","longitude":"120.453566","grade":"特優級","type2":"民眾洽公場所","type":"男廁所","exec":null,"diaper":null},{"country":"10020","city":"10020010","village":"東興里","number":"I010000701","name":"市政府2F近中山路男廁","address":"嘉義市東　區東興里中山路199號","administration":"縣市政府","latitude":"23.481305","longitude":"120.453566","grade":"特優級","type2":"民眾洽公場所","type":"男廁所","exec":null,"diaper":null},{"country":"10020","city":"10020010","village":"東興里","number":"I010000699","name":"市政府1F近中山路男廁","address":"嘉義市東　區東興里中山路199號","administration":"縣市政府","latitude":"23.481305","longitude":"120.453566","grade":"特優級","type2":"民眾洽公場所","type":"男廁所","exec":null,"diaper":null},{"country":"10020","city":"10020010","village":"中山里","number":"I010000734","name":"財團法人九華山地藏庵男廁","address":"嘉義市東　區中山里民權路","administration":"縣市政府","latitude":"23.48325","longitude":"120.4565","grade":"特優級","type2":"宗教禮儀場所","type":"男廁所","exec":null,"diaper":null},{"country":"10020","city":"10020010","village":"中山里","number":"I010000738","name":"財稅局2F西側男廁","address":"嘉義市東　區中山里中山路154號","administration":"縣市政府","latitude":"23.481786","longitude":"120.454317","grade":"特優級","type2":"民眾洽公場所","type":"男廁所","exec":null,"diaper":null},{"country":"10020","city":"10020010","village":"中山里","number":"I010000736","name":"財稅局1F西側女廁","address":"嘉義市東　區中山里中山路154號","administration":"縣市政府","latitude":"23.481786","longitude":"120.454317","grade":"特優級","type2":"民眾洽公場所","type":"女廁所","exec":null,"diaper":null},{"country":"10020","city":"10020010","village":"中央里","number":"I010000745","name":"仁武宮","address":"嘉義市東　區中央里北榮街","administration":"縣市政府","latitude":"23.48133","longitude":"120.450462","grade":"特優級","type2":"宗教禮儀場所","type":"混合廁所","exec":null,"diaper":null},{"country":"10020","city":"10020010","village":"義教里","number":"I010000809","name":"耐斯百貨8F女廁","address":"嘉義市東　區義教里忠孝路","administration":"其他","latitude":"23.496941","longitude":"120.452414","grade":"特優級","type2":"商業營業場所","type":"女廁所","exec":null,"diaper":null},{"country":"10020","city":"10020010","village":"義教里","number":"I010000807","name":"耐斯百貨5F女廁","address":"嘉義市東　區義教里忠孝路","administration":"其他","latitude":"23.496941","longitude":"120.452414","grade":"特優級","type2":"商業營業場所","type":"女廁所","exec":null,"diaper":null},{"country":"10020","city":"10020010","village":"義教里","number":"I010000806","name":"耐斯百貨4F女廁","address":"嘉義市東　區義教里忠孝路","administration":"其他","latitude":"23.496941","longitude":"120.452414","grade":"特優級","type2":"商業營業場所","type":"女廁所","exec":null,"diaper":null},{"country":"10020","city":"10020010","village":"義教里","number":"I010000805","name":"耐斯百貨3F女廁","address":"嘉義市東　區義教里忠孝路","administration":"其他","latitude":"23.496941","longitude":"120.452414","grade":"特優級","type2":"商業營業場所","type":"女廁所","exec":null,"diaper":null},{"country":"10020","city":"10020010","village":"義教里","number":"I010000804","name":"耐斯百貨2F女廁","address":"嘉義市東　區義教里忠孝路","administration":"其他","latitude":"23.496941","longitude":"120.452414","grade":"特優級","type2":"商業營業場所","type":"女廁所","exec":null,"diaper":null},{"country":"10020","city":"10020010","village":"義教里","number":"I010000803","name":"耐斯百貨8F男廁","address":"嘉義市東　區義教里忠孝路","administration":"其他","latitude":"23.496941","longitude":"120.452414","grade":"特優級","type2":"商業營業場所","type":"男廁所","exec":null,"diaper":null},{"country":"10020","city":"10020020","village":"垂楊里","number":"I020000471","name":"遠東百貨7F男廁","address":"嘉義市西　區垂楊里嘉義市西區垂楊路537號","administration":"其他","latitude":"23.472755","longitude":"120.44112","grade":"特優級","type2":"商業營業場所","type":"男廁所","exec":null,"diaper":null},{"country":"10020","city":"10020020","village":"垂楊里","number":"I020000469","name":"遠東百貨6F男廁","address":"嘉義市西　區垂楊里嘉義市西區垂楊路537號","administration":"其他","latitude":"23.472755","longitude":"120.44112","grade":"特優級","type2":"商業營業場所","type":"男廁所","exec":null,"diaper":null},{"country":"10020","city":"10020020","village":"垂楊里","number":"I020000467","name":"遠東百貨5F男廁","address":"嘉義市西　區垂楊里嘉義市西區垂楊路537號","administration":"其他","latitude":"23.472755","longitude":"120.44112","grade":"特優級","type2":"商業營業場所","type":"男廁所","exec":null,"diaper":null},{"country":"10020","city":"10020020","village":"垂楊里","number":"I020000465","name":"遠東百貨4F男廁","address":"嘉義市西　區垂楊里嘉義市西區垂楊路537號","administration":"其他","latitude":"23.472755","longitude":"120.44112","grade":"特優級","type2":"商業營業場所","type":"男廁所","exec":null,"diaper":null},{"country":"10020","city":"10020020","village":"垂楊里","number":"I020000463","name":"遠東百貨3F男廁","address":"嘉義市西　區垂楊里嘉義市西區垂楊路537號","administration":"其他","latitude":"23.472755","longitude":"120.44112","grade":"特優級","type2":"商業營業場所","type":"男廁所","exec":null,"diaper":null},{"country":"10020","city":"10020020","village":"垂楊里","number":"I020000462","name":"遠東百貨2F女廁","address":"嘉義市西　區垂楊里嘉義市西區垂楊路537號","administration":"其他","latitude":"23.472755","longitude":"120.44112","grade":"特優級","type2":"商業營業場所","type":"女廁所","exec":null,"diaper":null},{"country":"10020","city":"10020020","village":"垂楊里","number":"I020000461","name":"遠東百貨1F女廁","address":"嘉義市西　區垂楊里嘉義市西區垂楊路537號","administration":"其他","latitude":"23.472755","longitude":"120.44112","grade":"特優級","type2":"商業營業場所","type":"女廁所","exec":null,"diaper":null},{"country":"10020","city":"10020020","village":"垂楊里","number":"I020000459","name":"遠東百貨B1男廁","address":"嘉義市西　區垂楊里嘉義市西區垂楊路537號","administration":"其他","latitude":"23.472755","longitude":"120.44112","grade":"特優級","type2":"商業營業場所","type":"男廁所","exec":null,"diaper":null},{"country":"10020","city":"10020020","village":"西榮里","number":"I020000636","name":"嘉義客運男廁","address":"嘉義市西　區西榮里中山路503號","administration":"交通部","latitude":"23.479187","longitude":"120.444529","grade":"特優級","type2":"交通","type":"男廁所","exec":null,"diaper":null},{"country":"10020","city":"10020020","village":"文化里","number":"I020000622","name":"台灣中油文化路加油站男廁","address":"嘉義市西　區文化里文化路11號","administration":"經濟部","latitude":"23.47454","longitude":"120.44997","grade":"特優級","type2":"商業營業場所","type":"男廁所","exec":null,"diaper":null},{"country":"10020","city":"10020020","village":"文化里","number":"I020000626","name":"西市場2F-左側男","address":"嘉義市西　區文化里國華街245號","administration":"縣市政府","latitude":"23.47939","longitude":"120.448395","grade":"特優級","type2":"商業營業場所","type":"男廁所","exec":null,"diaper":null},{"country":"10020","city":"10020020","village":"文化里","number":"I020000624","name":"西市場2F-右側男","address":"嘉義市西　區文化里國華街245號近國華街","administration":"縣市政府","latitude":"23.47939","longitude":"120.448395","grade":"特優級","type2":"商業營業場所","type":"男廁所","exec":null,"diaper":null},{"country":"10020","city":"10020020","village":"文化里","number":"I020000634","name":"交通處男廁","address":"嘉義市西　區文化里嘉義市西區國華街245號8樓之15","administration":"縣市政府","latitude":"23.479209","longitude":"120.448307","grade":"特優級","type2":"民眾洽公場所","type":"男廁所","exec":null,"diaper":null},{"country":"10020","city":"10020020","village":"文化里","number":"I020000632","name":"地政事務所男廁","address":"嘉義市西　區文化里嘉義市西區國華街245號8樓","administration":"縣市政府","latitude":"23.479209","longitude":"120.448307","grade":"特優級","type2":"民眾洽公場所","type":"男廁所","exec":null,"diaper":null},{"country":"10020","city":"10020020","village":"永和里","number":"I020000605","name":"新光三越百貨7F男","address":"嘉義市西　區永和里嘉義市西區垂楊路726號","administration":"其他","latitude":"23.473441","longitude":"120.441058","grade":"特優級","type2":"商業營業場所","type":"男廁所","exec":null,"diaper":null},{"country":"10020","city":"10020020","village":"永和里","number":"I020000604","name":"新光三越百貨6F女","address":"嘉義市西　區永和里嘉義市西區垂楊路726號","administration":"其他","latitude":"23.473441","longitude":"120.441058","grade":"特優級","type2":"商業營業場所","type":"女廁所","exec":null,"diaper":null},{"country":"10020","city":"10020020","village":"永和里","number":"I020000603","name":"新光三越百貨6F男","address":"嘉義市西　區永和里嘉義市西區垂楊路726號","administration":"其他","latitude":"23.473441","longitude":"120.441058","grade":"特優級","type2":"商業營業場所","type":"男廁所","exec":null,"diaper":null},{"country":"10020","city":"10020020","village":"永和里","number":"I020000602","name":"新光三越百貨5F女","address":"嘉義市西　區永和里嘉義市西區垂楊路726號","administration":"其他","latitude":"23.473441","longitude":"120.441058","grade":"特優級","type2":"商業營業場所","type":"女廁所","exec":null,"diaper":null},{"country":"10020","city":"10020020","village":"永和里","number":"I020000601","name":"新光三越百貨4F女","address":"嘉義市西　區永和里嘉義市西區垂楊路726號","administration":"其他","latitude":"23.473441","longitude":"120.441058","grade":"特優級","type2":"商業營業場所","type":"女廁所","exec":null,"diaper":null},{"country":"10020","city":"10020020","village":"永和里","number":"I020000600","name":"新光三越百貨3F女","address":"嘉義市西　區永和里嘉義市西區垂楊路726號","administration":"其他","latitude":"23.473441","longitude":"120.441058","grade":"特優級","type2":"商業營業場所","type":"女廁所","exec":null,"diaper":null},{"country":"10020","city":"10020020","village":"永和里","number":"I020000599","name":"新光三越百貨2F女","address":"嘉義市西　區永和里嘉義市西區垂楊路726號","administration":"其他","latitude":"23.473441","longitude":"120.441058","grade":"特優級","type2":"商業營業場所","type":"女廁所","exec":null,"diaper":null},{"country":"10020","city":"10020020","village":"永和里","number":"I020000597","name":"新光三越百貨B1男","address":"嘉義市西　區永和里嘉義市西區垂楊路726號","administration":"其他","latitude":"23.473441","longitude":"120.441058","grade":"特優級","type2":"商業營業場所","type":"男廁所","exec":null,"diaper":null},{"country":"10020","city":"10020020","village":"永和里","number":"I020000596","name":"新光三越百貨B1女","address":"嘉義市西　區永和里嘉義市西區垂楊路726號","administration":"其他","latitude":"23.473441","longitude":"120.441058","grade":"特優級","type2":"商業營業場所","type":"女廁所","exec":null,"diaper":null},{"country":"10020","city":"10020010","village":"頂寮里","number":"I010000591","name":"南興公園男廁","address":"嘉義市東　區頂寮里南興路","administration":"縣市政府","latitude":"23.46637","longitude":"120.45799","grade":"特優級","type2":"公園","type":"男廁所","exec":null,"diaper":null},{"country":"10020","city":"10020010","village":"芳安里","number":"I010000588","name":"宣信公園男廁","address":"嘉義市東　區芳安里南興路、宣信路口","administration":"縣市政府","latitude":"23.46883","longitude":"120.460009","grade":"特優級","type2":"公園","type":"男廁所","exec":null,"diaper":null},{"country":"10020","city":"10020010","village":"長竹里","number":"I010000382","name":"東園軒男廁","address":"嘉義市東　區長竹里二段350號 ","administration":"縣市政府","latitude":"23.477531","longitude":"120.474873","grade":"特優級","type2":"商業營業場所","type":"男廁所","exec":null,"diaper":null},{"country":"10020","city":"10020010","village":"蘭潭里","number":"I010000373","name":"蘭潭水庫三信亭旁男廁","address":"嘉義市東　區蘭潭里蘭潭水庫三信亭旁","administration":"縣市政府","latitude":"23.468344","longitude":"120.476437","grade":"特優級","type2":"觀光地區及風景區","type":"男廁所","exec":null,"diaper":null},{"country":"10020","city":"10020010","village":"蘭潭里","number":"I010000370","name":"蘭潭水庫土地公廟旁男廁","address":"嘉義市東　區蘭潭里蘭潭水庫土地公廟旁","administration":"縣市政府","latitude":"23.475198","longitude":"120.488258","grade":"特優級","type2":"觀光地區及風景區","type":"男廁所","exec":null,"diaper":null},{"country":"10020","city":"10020010","village":"蘭潭里","number":"I010000368","name":"蘭潭水庫泛月公園旁男廁","address":"嘉義市東　區蘭潭里蘭潭水庫泛月公園旁","administration":"縣市政府","latitude":"23.46674","longitude":"120.479221","grade":"特優級","type2":"觀光地區及風景區","type":"男廁所","exec":null,"diaper":null},{"country":"10020","city":"10020010","village":"新開里","number":"I010000366","name":"體育館男廁","address":"嘉義市東　區新開里彌陀路","administration":"縣市政府","latitude":"23.47348","longitude":"120.46244","grade":"特優級","type2":"文化育樂活動場所","type":"男廁所","exec":null,"diaper":null},{"country":"10020","city":"10020010","village":"新開里","number":"I010000364","name":"體育場男廁","address":"嘉義市東　區新開里體育路","administration":"縣市政府","latitude":"23.471534","longitude":"120.461329","grade":"特優級","type2":"文化育樂活動場所","type":"男廁所","exec":null,"diaper":null},{"country":"10020","city":"10020010","village":"東川里","number":"I010000271","name":"嘉義公園孔廟旁男廁","address":"嘉義市東　區東川里嘉義公園孔廟旁","administration":"縣市政府","latitude":"23.4825141","longitude":"120.466238","grade":"特優級","type2":"宗教禮儀場所","type":"男廁所","exec":null,"diaper":null},{"country":"10020","city":"10020010","village":"東川里","number":"I010000227","name":"嘉義公園射日塔旁男廁","address":"嘉義市東　區東川里嘉義公園射日塔旁","administration":"縣市政府","latitude":"23.482078","longitude":"120.468198","grade":"特優級","type2":"公園","type":"男廁所","exec":null,"diaper":null},{"country":"10020","city":"10020010","village":"東川里","number":"I010000225","name":"嘉義公園遊戲區旁男廁","address":"嘉義市東　區東川里嘉義公園遊戲區旁","administration":"縣市政府","latitude":"23.482472","longitude":"120.467296","grade":"特優級","type2":"公園","type":"男廁所","exec":null,"diaper":null},{"country":"10020","city":"10020010","village":"東川里","number":"I010000222","name":"嘉義公園近溜冰場男廁","address":"嘉義市東　區東川里嘉義公園近溜冰場旁","administration":"縣市政府","latitude":"23.483854","longitude":"120.464745","grade":"特優級","type2":"公園","type":"男廁所","exec":null,"diaper":null},{"country":"10020","city":"10020010","village":"東川里","number":"I010000221","name":"嘉義公園近啟明路女廁","address":"嘉義市東　區東川里啟明路","administration":"縣市政府","latitude":"23.483796","longitude":"120.463629","grade":"特優級","type2":"公園","type":"女廁所","exec":null,"diaper":null},{"country":"10020","city":"10020010","village":"民族里","number":"I010000655","name":"文昌公園男廁","address":"嘉義市東　區民族里蘭井街","administration":"縣市政府","latitude":"23.478352","longitude":"120.45625","grade":"特優級","type2":"公園","type":"男廁所","exec":null,"diaper":null},{"country":"10020","city":"10020010","village":"民族里","number":"I010000688","name":"城隍廟男廁","address":"嘉義市東　區民族里吳鳳北路","administration":"縣市政府","latitude":"23.478272","longitude":"120.453803","grade":"特優級","type2":"宗教禮儀場所","type":"男廁所","exec":null,"diaper":null},{"country":"10020","city":"10020010","village":"民族里","number":"I010000658","name":"東市場男廁","address":"嘉義市東　區民族里吳鳳北路","administration":"縣市政府","latitude":"23.479066","longitude":"120.453859","grade":"特優級","type2":"商業營業場所","type":"男廁所","exec":null,"diaper":null},{"country":"10020","city":"10020010","village":"民族里","number":"I010000690","name":"東區區公所男廁","address":"嘉義市東　區民族里吳鳳北路","administration":"縣市政府","latitude":"23.4787","longitude":"120.4535","grade":"特優級","type2":"民眾洽公場所","type":"男廁所","exec":null,"diaper":null},{"country":"10020","city":"10020010","village":"民族里","number":"I010000695","name":"環保局左側男廁","address":"嘉義市東　區民族里吳鳳北路","administration":"縣市政府","latitude":"23.478876","longitude":"120.453664","grade":"特優級","type2":"民眾洽公場所","type":"男廁所","exec":null,"diaper":null},{"country":"10020","city":"10020010","village":"民族里","number":"I010000693","name":"環保局右側男廁","address":"嘉義市東　區民族里吳鳳北路","administration":"縣市政府","latitude":"23.478876","longitude":"120.453664","grade":"特優級","type2":"民眾洽公場所","type":"男廁所","exec":null,"diaper":null},{"country":"10020","city":"10020010","village":"民族里","number":"I010000691","name":"東區戶政事務所男廁","address":"嘉義市東　區民族里吳鳳北路","administration":"縣市政府","latitude":"23.478719","longitude":"120.45343","grade":"特優級","type2":"民眾洽公場所","type":"男廁所","exec":null,"diaper":null},{"country":"10020","city":"10020010","village":"東興里","number":"I010000697","name":"警察局1F男廁","address":"嘉義市東　區東興里中山路195號","administration":"縣市政府","latitude":"23.481282","longitude":"120.454633","grade":"特優級","type2":"民眾洽公場所","type":"男廁所","exec":null,"diaper":null},{"country":"10020","city":"10020010","village":"東興里","number":"I010000709","name":"市政府9F近中山路男廁","address":"嘉義市東　區東興里中山路199號","administration":"縣市政府","latitude":"23.481305","longitude":"120.453566","grade":"特優級","type2":"民眾洽公場所","type":"男廁所","exec":null,"diaper":null},{"country":"10020","city":"10020010","village":"東興里","number":"I010000708","name":"市政府8F近中山路男廁","address":"嘉義市東　區東興里中山路199號","administration":"縣市政府","latitude":"23.481305","longitude":"120.453566","grade":"特優級","type2":"民眾洽公場所","type":"男廁所","exec":null,"diaper":null},{"country":"10020","city":"10020010","village":"東興里","number":"I010000707","name":"市政府7F近中山路男廁","address":"嘉義市東　區東興里中山路199號","administration":"縣市政府","latitude":"23.481305","longitude":"120.453566","grade":"特優級","type2":"民眾洽公場所","type":"男廁所","exec":null,"diaper":null},{"country":"10020","city":"10020010","village":"北門里","number":"I010000765","name":"博物館1F男廁","address":"嘉義市東　區北門里忠孝路","administration":"縣市政府","latitude":"23.488485","longitude":"120.451372","grade":"特優級","type2":"文化育樂活動場所","type":"男廁所","exec":null,"diaper":null},{"country":"10020","city":"10020010","village":"北門里","number":"I010000767","name":"博物館2F男廁","address":"嘉義市東　區北門里忠孝路","administration":"縣市政府","latitude":"23.488485","longitude":"120.451372","grade":"特優級","type2":"文化育樂活動場所","type":"男廁所","exec":null,"diaper":null},{"country":"10020","city":"10020020","village":"香湖里","number":"I020000194","name":"台灣中油博愛路加油站男廁","address":"嘉義市西　區香湖里博愛路一段2號","administration":"經濟部","latitude":"23.489056","longitude":"120.445639","grade":"特優級","type2":"商業營業場所","type":"男廁所","exec":null,"diaper":null},{"country":"10020","city":"10020010","village":"義教里","number":"I010000801","name":"耐斯百貨5F男廁","address":"嘉義市東　區義教里忠孝路","administration":"其他","latitude":"23.496941","longitude":"120.452414","grade":"特優級","type2":"商業營業場所","type":"男廁所","exec":null,"diaper":null},{"country":"10020","city":"10020010","village":"義教里","number":"I010000800","name":"耐斯百貨4F男廁","address":"嘉義市東　區義教里忠孝路","administration":"其他","latitude":"23.496941","longitude":"120.452414","grade":"特優級","type2":"商業營業場所","type":"男廁所","exec":null,"diaper":null},{"country":"10020","city":"10020010","village":"義教里","number":"I010000799","name":"耐斯百貨3F男廁","address":"嘉義市東　區義教里忠孝路","administration":"其他","latitude":"23.496941","longitude":"120.452414","grade":"特優級","type2":"商業營業場所","type":"男廁所","exec":null,"diaper":null},{"country":"10020","city":"10020010","village":"義教里","number":"I010000798","name":"耐斯百貨2F男廁","address":"嘉義市東　區義教里忠孝路","administration":"其他","latitude":"23.496941","longitude":"120.452414","grade":"特優級","type2":"商業營業場所","type":"男廁所","exec":null,"diaper":null},{"country":"10020","city":"10020010","village":"義教里","number":"I010000789","name":"耐斯王子大飯店5F女廁","address":"嘉義市東　區義教里忠孝路","administration":"縣市政府","latitude":"23.496654","longitude":"120.453199","grade":"特優級","type2":"商業營業場所","type":"女廁所","exec":null,"diaper":null},{"country":"10020","city":"10020010","village":"義教里","number":"I010000788","name":"耐斯王子大飯店5F男廁","address":"嘉義市東　區義教里忠孝路","administration":"縣市政府","latitude":"23.496654","longitude":"120.453199","grade":"特優級","type2":"商業營業場所","type":"男廁所","exec":null,"diaper":null}]