[{"country":"10018","city":"10018010","village":"千甲里","number":"O010001799","name":"新竹市左岸1號千甲公廁女廁","address":"新竹市東　區千甲里千甲里堤防公園附近","administration":"新竹市公園及觀光區設施維護管理中心","latitude":"24.80793","longitude":"121.01361","grade":"特優級","type2":"公園","type":"女廁所","exec":null,"diaper":null},{"country":"10018","city":"10018010","village":"千甲里","number":"O010001798","name":"新竹市左岸1號千甲公廁男廁","address":"新竹市東　區千甲里千甲里堤防公園附近","administration":"新竹市公園及觀光區設施維護管理中心","latitude":"24.80793","longitude":"121.01361","grade":"特優級","type2":"公園","type":"男廁所","exec":null,"diaper":null},{"country":"10018","city":"10018010","village":"立功里","number":"O010001820","name":"新竹市立馬偕兒童醫院2樓兒童門診區性別友善廁所","address":"新竹市東　區立功里建功二路28號","administration":"新竹市立馬偕兒童醫院","latitude":"24.79715","longitude":"121.00292","grade":"特優級","type2":"社福機構、集會場所","type":"性別友善廁所","exec":null,"diaper":null},{"country":"10018","city":"10018010","village":"立功里","number":"O010001819","name":"新竹市立馬偕兒童醫院2樓兒童門診區性別友善廁所","address":"新竹市東　區立功里建功二路28號","administration":"新竹市立馬偕兒童醫院","latitude":"24.79715","longitude":"121.00292","grade":"特優級","type2":"社福機構、集會場所","type":"性別友善廁所","exec":null,"diaper":null},{"country":"10018","city":"10018010","village":"立功里","number":"O010001815","name":"新竹市立馬偕兒童醫院2樓健兒門診區男廁","address":"新竹市東　區立功里建功二路28號","administration":"新竹市立馬偕兒童醫院","latitude":"24.79715","longitude":"121.00292","grade":"特優級","type2":"社福機構、集會場所","type":"男廁所","exec":null,"diaper":null},{"country":"10018","city":"10018030","village":"香村里","number":"O030000628","name":"青青草原公廁5青青步道旁女廁","address":"新竹市香山區香村里新竹市青青草原青青步道旁","administration":"新竹市公園及觀光區設施維護管理中心","latitude":"24.77071","longitude":"120.93265","grade":"特優級","type2":"觀光地區及風景區","type":"女廁所","exec":null,"diaper":null},{"country":"10018","city":"10018030","village":"香村里","number":"O030000627","name":"青青草原公廁5青青步道旁男廁","address":"新竹市香山區香村里新竹市青青草原青青步道旁","administration":"新竹市公園及觀光區設施維護管理中心","latitude":"24.77071","longitude":"120.93265","grade":"特優級","type2":"觀光地區及風景區","type":"男廁所","exec":null,"diaper":null},{"country":"10018","city":"10018030","village":"香村里","number":"O030000626","name":"青青草原公廁4地景遊戲場旁女廁","address":"新竹市香山區香村里青青草原地景遊戲場旁","administration":"新竹市公園及觀光區設施維護管理中心","latitude":"24.76677586","longitude":"120.9329999","grade":"特優級","type2":"觀光地區及風景區","type":"女廁所","exec":null,"diaper":null},{"country":"10018","city":"10018030","village":"香村里","number":"O030000625","name":"青青草原公廁4地景遊戲場旁男廁","address":"新竹市香山區香村里青青草原地景遊戲場旁","administration":"新竹市公園及觀光區設施維護管理中心","latitude":"24.76678561","longitude":"120.9330052","grade":"特優級","type2":"觀光地區及風景區","type":"男廁所","exec":null,"diaper":null},{"country":"10018","city":"10018030","village":"香村里","number":"O030000624","name":"青青草原公廁3油桐小徑旁女廁","address":"新竹市香山區香村里青青草原油桐小徑旁","administration":"新竹市公園及觀光區設施維護管理中心","latitude":"24.76863","longitude":"120.92904","grade":"特優級","type2":"觀光地區及風景區","type":"女廁所","exec":null,"diaper":null},{"country":"10018","city":"10018030","village":"香村里","number":"O030000623","name":"青青草原公廁3油桐小徑旁男廁","address":"新竹市香山區香村里青青草原油桐小徑旁","administration":"新竹市公園及觀光區設施維護管理中心","latitude":"24.76863765","longitude":"120.9290469","grade":"特優級","type2":"觀光地區及風景區","type":"男廁所","exec":null,"diaper":null},{"country":"10018","city":"10018030","village":"香村里","number":"O030000622","name":"青青草原公廁2第1草原東側女廁","address":"新竹市香山區香村里青青草原第1草原東側","administration":"新竹市公園及觀光區設施維護管理中心","latitude":"24.77322","longitude":"120.92687","grade":"特優級","type2":"觀光地區及風景區","type":"女廁所","exec":null,"diaper":null},{"country":"10018","city":"10018020","village":"湳雅里","number":"O020000712","name":"大魯閣湳雅廣場北側2樓男廁","address":"新竹市北　區湳雅里湳雅街91-2號","administration":"大魯閣湳雅廣場","latitude":"24.819206","longitude":"120.969676","grade":"特優級","type2":"商業營業場所","type":"男廁所","exec":null,"diaper":null},{"country":"10018","city":"10018020","village":"湳雅里","number":"O020000711","name":"大魯閣湳雅廣場北側B1女廁","address":"新竹市北　區湳雅里湳雅街91-2號","administration":"大魯閣湳雅廣場","latitude":"24.819206","longitude":"120.969676","grade":"特優級","type2":"商業營業場所","type":"女廁所","exec":null,"diaper":null},{"country":"10018","city":"10018020","village":"湳雅里","number":"O020000710","name":"大魯閣湳雅廣場北側B1男廁","address":"新竹市北　區湳雅里湳雅街91-2號","administration":"大魯閣湳雅廣場","latitude":"24.819206","longitude":"120.969676","grade":"特優級","type2":"商業營業場所","type":"男廁所","exec":null,"diaper":null},{"country":"10018","city":"10018020","village":"北門里","number":"O020000701","name":"新竹市中正市場3樓停車場無障礙廁所","address":"新竹市北　區北門里中正路245號","administration":"新竹市政府交通處","latitude":"24.81238","longitude":"120.96402","grade":"特優級","type2":"交通","type":"無障礙廁所","exec":null,"diaper":null},{"country":"10018","city":"10018020","village":"北門里","number":"O020000700","name":"新竹市中正市場3樓停車場女廁","address":"新竹市北　區北門里中正路245號","administration":"新竹市政府交通處","latitude":"24.81238","longitude":"120.96402","grade":"特優級","type2":"交通","type":"女廁所","exec":null,"diaper":null},{"country":"10018","city":"10018020","village":"北門里","number":"O020000699","name":"新竹市中正市場3樓停車場男廁","address":"新竹市北　區北門里中正路245號","administration":"新竹市政府交通處","latitude":"24.81238","longitude":"120.96402","grade":"特優級","type2":"交通","type":"男廁所","exec":null,"diaper":null},{"country":"10018","city":"10018020","village":"北門里","number":"O020000698","name":"新竹市中正市場2樓女廁","address":"新竹市北　區北門里中正路245號","administration":"新竹市政府產業發展處","latitude":"24.81238","longitude":"120.96402","grade":"特優級","type2":"商業營業場所","type":"女廁所","exec":null,"diaper":null},{"country":"10018","city":"10018020","village":"北門里","number":"O020000697","name":"新竹市中正市場2樓男廁","address":"新竹市北　區北門里中正路245號","administration":"新竹市政府產業發展處","latitude":"24.81238","longitude":"120.96402","grade":"特優級","type2":"商業營業場所","type":"男廁所","exec":null,"diaper":null},{"country":"10018","city":"10018010","village":"龍山里","number":"O010001832","name":"新竹市身心障礙者就業綜合大樓2樓右2無障礙廁所","address":"新竹市東　區龍山里龍山西路99號","administration":"新竹市政府勞工及青年處","latitude":"24.79038","longitude":"121.00993","grade":"特優級","type2":"民眾洽公場所","type":"無障礙廁所","exec":null,"diaper":null},{"country":"10018","city":"10018010","village":"龍山里","number":"O010001831","name":"新竹市身心障礙者就業綜合大樓2樓右1無障礙廁所","address":"新竹市東　區龍山里龍山西路99號","administration":"新竹市政府勞工及青年處","latitude":"24.79038","longitude":"121.00993","grade":"特優級","type2":"民眾洽公場所","type":"無障礙廁所","exec":null,"diaper":null},{"country":"10018","city":"10018010","village":"龍山里","number":"O010001830","name":"新竹市身心障礙者就業綜合大樓2樓左2無障礙廁所","address":"新竹市東　區龍山里龍山西路99號","administration":"新竹市政府勞工及青年處","latitude":"24.79038","longitude":"121.00993","grade":"特優級","type2":"民眾洽公場所","type":"無障礙廁所","exec":null,"diaper":null},{"country":"10018","city":"10018010","village":"龍山里","number":"O010001829","name":"新竹市身心障礙者就業綜合大樓1樓右2親子廁所","address":"新竹市東　區龍山里龍山西路99號","administration":"新竹市政府勞工及青年處","latitude":"24.79038","longitude":"121.00993","grade":"特優級","type2":"民眾洽公場所","type":"親子廁所","exec":null,"diaper":null},{"country":"10018","city":"10018010","village":"龍山里","number":"O010001828","name":"新竹市身心障礙者就業綜合大樓1樓左2無障礙廁所","address":"新竹市東　區龍山里龍山西路99號","administration":"新竹市政府勞工及青年處","latitude":"24.79038","longitude":"121.00993","grade":"特優級","type2":"民眾洽公場所","type":"無障礙廁所","exec":null,"diaper":null},{"country":"10018","city":"10018020","village":"金華里","number":"O020000604","name":"新竹臺大分院新竹醫院復健科旁性別友善廁所","address":"新竹市北　區金華里經國路一段442巷25號","administration":"國立臺灣大學醫學院附設醫院新竹臺大分院","latitude":"24.81624","longitude":"120.98029","grade":"特優級","type2":"社福機構、集會場所","type":"性別友善廁所","exec":null,"diaper":null},{"country":"10018","city":"10018020","village":"金華里","number":"O020000603","name":"新竹臺大分院新竹醫院復健科旁無障礙廁所","address":"新竹市北　區金華里經國路一段442巷25號","administration":"國立臺灣大學醫學院附設醫院新竹臺大分院","latitude":"24.81624","longitude":"120.98029","grade":"特優級","type2":"社福機構、集會場所","type":"無障礙廁所","exec":null,"diaper":null},{"country":"10018","city":"10018020","village":"金華里","number":"O020000602","name":"新竹臺大分院新竹醫院竹樓女廁","address":"新竹市北　區金華里經國路一段442巷25號","administration":"國立臺灣大學醫學院附設醫院新竹臺大分院","latitude":"24.81624","longitude":"120.98029","grade":"特優級","type2":"社福機構、集會場所","type":"女廁所","exec":null,"diaper":null},{"country":"10018","city":"10018020","village":"金華里","number":"O020000601","name":"新竹臺大分院新竹醫院醫檢旁男廁","address":"新竹市北　區金華里經國路一段442巷25號","administration":"國立臺灣大學醫學院附設醫院新竹臺大分院","latitude":"24.81624","longitude":"120.98029","grade":"特優級","type2":"社福機構、集會場所","type":"男廁所","exec":null,"diaper":null},{"country":"10018","city":"10018010","village":"復中里","number":"O010001852","name":"巨城購物中心(商場棟)一樓-S6六部客梯旁女廁","address":"新竹市東　區復中里中央路229號","administration":"遠東巨城購物中心","latitude":"24.809666","longitude":"120.974931","grade":"特優級","type2":"商業營業場所","type":"女廁所","exec":null,"diaper":null},{"country":"10018","city":"10018010","village":"復中里","number":"O010001851","name":"巨城購物中心(商場棟)一樓-S6六部客梯旁男廁","address":"新竹市東　區復中里中央路229號","administration":"遠東巨城購物中心","latitude":"24.809666","longitude":"120.974931","grade":"特優級","type2":"商業營業場所","type":"男廁所","exec":null,"diaper":null},{"country":"10018","city":"10018010","village":"龍山里","number":"O010001792","name":"新竹市身心障礙者就業綜合大樓1樓男廁","address":"新竹市東　區龍山里龍山西路99號","administration":"新竹市政府勞工及青年處","latitude":"24.79038","longitude":"121.00993","grade":"特優級","type2":"民眾洽公場所","type":"男廁所","exec":null,"diaper":null},{"country":"10018","city":"10018010","village":"公園里","number":"O010001791","name":"新竹市田徑場無障礙廁所","address":"新竹市東　區公園里食品路60號","administration":"新竹市立體育場","latitude":"24.80149","longitude":"120.98171","grade":"特優級","type2":"文化育樂活動場所","type":"無障礙廁所","exec":null,"diaper":null},{"country":"10018","city":"10018010","village":"關東里","number":"O010001844","name":"文化局圖書館關東分館男廁","address":"新竹市東　區關東里關東路23巷1-1號","administration":"新竹市文化局","latitude":"24.78244","longitude":"121.02242","grade":"特優級","type2":"文化育樂活動場所","type":"男廁所","exec":null,"diaper":null},{"country":"10018","city":"10018010","village":"建功里","number":"O010001850","name":"將軍村開放圖書資訊園區(金城二路)親子廁所","address":"新竹市東　區建功里金城二路14號後面","administration":"新竹市文化局","latitude":"24.79501","longitude":"121.00252","grade":"特優級","type2":"文化育樂活動場所","type":"親子廁所","exec":null,"diaper":null},{"country":"10018","city":"10018010","village":"建功里","number":"O010001849","name":"將軍村開放圖書資訊園區(金城二路)女廁","address":"新竹市東　區建功里金城二路14號後面","administration":"新竹市文化局","latitude":"24.79501","longitude":"121.00252","grade":"特優級","type2":"文化育樂活動場所","type":"女廁所","exec":null,"diaper":null},{"country":"10018","city":"10018010","village":"建功里","number":"O010001848","name":"將軍村開放圖書資訊園區(金城二路)男廁","address":"新竹市東　區建功里金城二路14號後面","administration":"新竹市文化局","latitude":"24.79501","longitude":"121.00252","grade":"特優級","type2":"文化育樂活動場所","type":"男廁所","exec":null,"diaper":null},{"country":"10018","city":"10018010","village":"建功里","number":"O010001847","name":"將軍村開放圖書資訊園區(金城一路)性別友善廁所","address":"新竹市東　區建功里金城一路69號後面","administration":"新竹市文化局","latitude":"24.79462","longitude":"121.00275","grade":"特優級","type2":"文化育樂活動場所","type":"性別友善廁所","exec":null,"diaper":null},{"country":"10018","city":"10018010","village":"關東里","number":"O010001846","name":"文化局圖書館關東分館親子廁所","address":"新竹市東　區關東里關東路23巷1-1號","administration":"新竹市文化局","latitude":"24.78244","longitude":"121.02242","grade":"特優級","type2":"文化育樂活動場所","type":"親子廁所","exec":null,"diaper":null},{"country":"10018","city":"10018010","village":"關東里","number":"O010001845","name":"文化局圖書館關東分館女廁","address":"新竹市東　區關東里關東路23巷1-1號","administration":"新竹市文化局","latitude":"24.78244","longitude":"121.02242","grade":"特優級","type2":"文化育樂活動場所","type":"女廁所","exec":null,"diaper":null},{"country":"10018","city":"10018010","village":"復中里","number":"O010001843","name":"中央公園無障礙廁所","address":"新竹市東　區復中里三民綠園道與東大路交叉口","administration":"新竹市公園及觀光區設施維護管理中心","latitude":"24.80775","longitude":"120.97308","grade":"特優級","type2":"公園","type":"無障礙廁所","exec":null,"diaper":null},{"country":"10018","city":"10018010","village":"中正里","number":"O010000192","name":"新竹市影像博物館2樓右側男廁","address":"新竹市東　區中正里中正路65號","administration":"新竹市文化局","latitude":"24.80504","longitude":"120.96963","grade":"特優級","type2":"文化育樂活動場所","type":"男廁所","exec":null,"diaper":null},{"country":"10018","city":"10018010","village":"中正里","number":"O010000191","name":"新竹市影像博物館1樓混合廁所","address":"新竹市東　區中正里中正路65號","administration":"新竹市文化局","latitude":"24.80504","longitude":"120.96963","grade":"特優級","type2":"文化育樂活動場所","type":"混合廁所","exec":null,"diaper":null},{"country":"10018","city":"10018010","village":"中正里","number":"O010000190","name":"新竹市影像博物館1樓男廁","address":"新竹市東　區中正里中正路65號","administration":"新竹市文化局","latitude":"24.80504","longitude":"120.96963","grade":"特優級","type2":"文化育樂活動場所","type":"男廁所","exec":null,"diaper":null},{"country":"10018","city":"10018010","village":"中正里","number":"O010000187","name":"新竹市影像博物館1樓後性別友善廁所","address":"新竹市東　區中正里中正路65號","administration":"新竹市文化局","latitude":"24.80504","longitude":"120.96963","grade":"特優級","type2":"文化育樂活動場所","type":"性別友善廁所","exec":null,"diaper":null},{"country":"10018","city":"10018010","village":"下竹里","number":"O010000119","name":"新竹轉運站女廁","address":"新竹市東　區下竹里東南街一巷6號","administration":"新竹市交通處","latitude":"24.80123","longitude":"120.97197","grade":"特優級","type2":"交通","type":"女廁所","exec":null,"diaper":null},{"country":"10018","city":"10018030","village":"香村里","number":"O030000333","name":"青青草原公廁6賞櫻街入口旁女廁","address":"新竹市香山區香村里大湖路167巷轉進賞櫻街停車場","administration":"新竹市公園及觀光區設施維護管理中心","latitude":"24.76796","longitude":"120.93129","grade":"特優級","type2":"觀光地區及風景區","type":"女廁所","exec":null,"diaper":null},{"country":"10018","city":"10018030","village":"香村里","number":"O030000332","name":"青青草原公廁6賞櫻街入口旁男廁","address":"新竹市香山區香村里大湖路167巷轉進賞櫻街停車場","administration":"新竹市公園及觀光區設施維護管理中心","latitude":"24.76796","longitude":"120.93129","grade":"特優級","type2":"觀光地區及風景區","type":"男廁所","exec":null,"diaper":null},{"country":"10018","city":"10018010","village":"明湖里","number":"O010001824","name":"青草湖風景區環湖道路旁無障礙廁所","address":"新竹市東　區明湖里青草湖風景區環湖道路旁","administration":"新竹市公園及觀光區設施維護管理中心","latitude":"24.77545","longitude":"120.97328","grade":"特優級","type2":"觀光地區及風景區","type":"無障礙廁所","exec":null,"diaper":null},{"country":"10018","city":"10018010","village":"明湖里","number":"O010001823","name":"青草湖風景區環湖道路旁女廁","address":"新竹市東　區明湖里青草湖風景區環湖道路旁","administration":"新竹市公園及觀光區設施維護管理中心","latitude":"24.77545","longitude":"120.97328","grade":"特優級","type2":"觀光地區及風景區","type":"女廁所","exec":null,"diaper":null},{"country":"10018","city":"10018010","village":"明湖里","number":"O010001822","name":"青草湖風景區環湖道路旁男廁","address":"新竹市東　區明湖里青草湖風景區環湖道路旁","administration":"新竹市公園及觀光區設施維護管理中心","latitude":"24.77545","longitude":"120.97328","grade":"特優級","type2":"觀光地區及風景區","type":"男廁所","exec":null,"diaper":null},{"country":"10018","city":"10018020","village":"南寮里","number":"O020000680","name":"南寮運動公園停車場旁男廁","address":"新竹市北　區南寮里榮濱路往台68線方向左側停車場內","administration":"新竹市公園及觀光區設施維護管理中心","latitude":"24.84555","longitude":"120.93136","grade":"特優級","type2":"公園","type":"男廁所","exec":null,"diaper":null},{"country":"10018","city":"10018010","village":"公園里","number":"O010001797","name":"新竹市消防局光復分隊1樓性別友善廁所","address":"新竹市東　區公園里公園路356號","administration":"新竹市消防局","latitude":"24.80024","longitude":"120.97525","grade":"特優級","type2":"民眾洽公場所","type":"性別友善廁所","exec":null,"diaper":null},{"country":"10018","city":"10018020","village":"南寮里","number":"O020000660","name":"新竹市消防局南寮分隊1樓性別友善廁所","address":"新竹市北　區南寮里新竹市東大路三段539號","administration":"新竹市消防局","latitude":"24.84036","longitude":"120.93751","grade":"特優級","type2":"民眾洽公場所","type":"性別友善廁所","exec":null,"diaper":null},{"country":"10018","city":"10018010","village":"文華里","number":"O010001796","name":"新竹市消防局三民分隊1樓性別友善廁所","address":"新竹市東　區文華里經國路一段486號","administration":"新竹市消防局","latitude":"24.81471","longitude":"120.97747","grade":"特優級","type2":"民眾洽公場所","type":"性別友善廁所","exec":null,"diaper":null},{"country":"10018","city":"10018020","village":"大同里","number":"O020000659","name":"新竹市消防局中山分隊1樓性別友善廁所","address":"新竹市北　區大同里新竹市中山路4號","administration":"新竹市消防局","latitude":"24.80643","longitude":"120.96813","grade":"特優級","type2":"民眾洽公場所","type":"性別友善廁所","exec":null,"diaper":null},{"country":"10018","city":"10018030","village":"朝山里","number":"O030000618","name":"新竹市消防局朝山分隊1樓性別友善廁所","address":"新竹市香山區朝山里中華路五段688號","administration":"新竹市消防局","latitude":"24.76642","longitude":"120.91476","grade":"特優級","type2":"民眾洽公場所","type":"性別友善廁所","exec":null,"diaper":null},{"country":"10018","city":"10018020","village":"湳雅里","number":"O020000225","name":"大魯閣湳雅廣場1樓女廁","address":"新竹市北　區湳雅里湳雅街91-2號","administration":"大魯閣湳雅廣場","latitude":"24.819206","longitude":"120.969676","grade":"特優級","type2":"商業營業場所","type":"女廁所","exec":null,"diaper":null},{"country":"10018","city":"10018020","village":"湳雅里","number":"O020000224","name":"大魯閣湳雅廣場1樓男廁","address":"新竹市北　區湳雅里湳雅街91-2號","administration":"大魯閣湳雅廣場","latitude":"24.819206","longitude":"120.969676","grade":"特優級","type2":"商業營業場所","type":"男廁所","exec":null,"diaper":null},{"country":"10018","city":"10018020","village":"湳雅里","number":"O020000223","name":"大魯閣湳雅廣場東側B1無障礙廁所","address":"新竹市北　區湳雅里湳雅街91-2號","administration":"大魯閣湳雅廣場","latitude":"24.819206","longitude":"120.969676","grade":"特優級","type2":"商業營業場所","type":"無障礙廁所","exec":null,"diaper":null},{"country":"10018","city":"10018020","village":"湳雅里","number":"O020000222","name":"大魯閣湳雅廣場東側B1女廁","address":"新竹市北　區湳雅里湳雅街91-2號","administration":"大魯閣湳雅廣場","latitude":"24.819206","longitude":"120.969676","grade":"特優級","type2":"商業營業場所","type":"女廁所","exec":null,"diaper":null},{"country":"10018","city":"10018020","village":"湳雅里","number":"O020000221","name":"大魯閣湳雅廣場東側B1男廁","address":"新竹市北　區湳雅里湳雅街91-2號","administration":"大魯閣湳雅廣場","latitude":"24.819206","longitude":"120.969676","grade":"特優級","type2":"商業營業場所","type":"男廁所","exec":null,"diaper":null},{"country":"10018","city":"10018020","village":"舊社里","number":"O020000677","name":"新竹市左岸6號溪埔子公廁男廁","address":"新竹市北　區舊社里溪埔子人工溼地公園","administration":"新竹市公園及觀光區設施維護管理中心","latitude":"24.82561","longitude":"120.97471","grade":"特優級","type2":"公園","type":"男廁所","exec":null,"diaper":null},{"country":"10018","city":"10018020","village":"舊社里","number":"O020000676","name":"新竹市左岸5號舊社公廁性別友善廁所","address":"新竹市北　區舊社里湳雅河濱公園","administration":"新竹市公園及觀光區設施維護管理中心","latitude":"24.82441","longitude":"120.97966","grade":"特優級","type2":"公園","type":"性別友善廁所","exec":null,"diaper":null},{"country":"10018","city":"10018020","village":"舊社里","number":"O020000675","name":"新竹市左岸5號舊社公廁女廁","address":"新竹市北　區舊社里湳雅河濱公園","administration":"新竹市公園及觀光區設施維護管理中心","latitude":"24.82441","longitude":"120.97966","grade":"特優級","type2":"公園","type":"女廁所","exec":null,"diaper":null},{"country":"10018","city":"10018020","village":"舊社里","number":"O020000674","name":"新竹市左岸5號舊社公廁男廁","address":"新竹市北　區舊社里湳雅河濱公園","administration":"新竹市公園及觀光區設施維護管理中心","latitude":"24.82441","longitude":"120.97966","grade":"特優級","type2":"公園","type":"男廁所","exec":null,"diaper":null},{"country":"10018","city":"10018010","village":"前溪里","number":"O010001810","name":"新竹市左岸4號滑輪公園性別友善廁所","address":"新竹市東　區前溪里左岸滑輪公園","administration":"新竹市公園及觀光區設施維護管理中心","latitude":"24.82104","longitude":"120.99193","grade":"特優級","type2":"公園","type":"性別友善廁所","exec":null,"diaper":null},{"country":"10018","city":"10018010","village":"前溪里","number":"O010001809","name":"新竹市左岸4號滑輪公園女廁","address":"新竹市東　區前溪里左岸滑輪公園","administration":"新竹市公園及觀光區設施維護管理中心","latitude":"24.82104","longitude":"120.99193","grade":"特優級","type2":"公園","type":"女廁所","exec":null,"diaper":null},{"country":"10018","city":"10018010","village":"前溪里","number":"O010001808","name":"新竹市左岸4號滑輪公園男廁","address":"新竹市東　區前溪里左岸滑輪公園","administration":"新竹市公園及觀光區設施維護管理中心","latitude":"24.82104","longitude":"120.99193","grade":"特優級","type2":"公園","type":"男廁所","exec":null,"diaper":null},{"country":"10018","city":"10018010","village":"水源里","number":"O010001807","name":"新竹市左岸3號狗狗公園性別友善廁所","address":"新竹市東　區水源里左岸狗狗公園","administration":"新竹市公園及觀光區設施維護管理中心","latitude":"24.82108","longitude":"120.99618","grade":"特優級","type2":"公園","type":"性別友善廁所","exec":null,"diaper":null},{"country":"10018","city":"10018010","village":"水源里","number":"O010001806","name":"新竹市左岸3號狗狗公園女廁","address":"新竹市東　區水源里左岸狗狗公園","administration":"新竹市公園及觀光區設施維護管理中心","latitude":"24.82108","longitude":"120.99618","grade":"特優級","type2":"公園","type":"女廁所","exec":null,"diaper":null},{"country":"10018","city":"10018010","village":"光復里","number":"O010000697","name":"新竹馬偕紀念醫院福音樓2樓電梯外親子廁所","address":"新竹市東　區光復里光復路二段690號","administration":"新竹馬偕紀念醫院","latitude":"24.800087","longitude":"120.990781","grade":"特優級","type2":"社福機構、集會場所","type":"親子廁所","exec":null,"diaper":null},{"country":"10018","city":"10018010","village":"光復里","number":"O010000696","name":"新竹馬偕紀念醫院福音樓2樓電梯外女廁","address":"新竹市東　區光復里光復路二段690號","administration":"新竹馬偕紀念醫院","latitude":"24.800087","longitude":"120.990781","grade":"特優級","type2":"社福機構、集會場所","type":"女廁所","exec":null,"diaper":null},{"country":"10018","city":"10018010","village":"光復里","number":"O010000695","name":"新竹馬偕紀念醫院福音樓2樓電梯外男廁","address":"新竹市東　區光復里光復路二段690號","administration":"新竹馬偕紀念醫院","latitude":"24.800087","longitude":"120.990781","grade":"特優級","type2":"社福機構、集會場所","type":"男廁所","exec":null,"diaper":null},{"country":"10018","city":"10018010","village":"光復里","number":"O010000694","name":"新竹馬偕紀念醫院福音樓2樓癌症中心旁女廁","address":"新竹市東　區光復里光復路二段690號","administration":"新竹馬偕紀念醫院","latitude":"24.800087","longitude":"120.990781","grade":"特優級","type2":"社福機構、集會場所","type":"女廁所","exec":null,"diaper":null},{"country":"10018","city":"10018020","village":"曲溪里","number":"O020000672","name":"新竹市殯儀館新館地下室女廁","address":"新竹市北　區曲溪里成德路132號","administration":"新竹市殯葬管理所","latitude":"24.79315","longitude":"120.95661","grade":"特優級","type2":"宗教禮儀場所","type":"女廁所","exec":null,"diaper":null},{"country":"10018","city":"10018020","village":"曲溪里","number":"O020000671","name":"新竹市殯儀館新館地下室男廁","address":"新竹市北　區曲溪里成德路132號","administration":"新竹市殯葬管理所","latitude":"24.79315","longitude":"120.95661","grade":"特優級","type2":"宗教禮儀場所","type":"男廁所","exec":null,"diaper":null},{"country":"10018","city":"10018020","village":"曲溪里","number":"O020000670","name":"新竹市殯儀館新館二樓無障礙廁所","address":"新竹市北　區曲溪里成德132號","administration":"新竹市殯葬管理所","latitude":"24.79315","longitude":"120.95661","grade":"特優級","type2":"宗教禮儀場所","type":"無障礙廁所","exec":null,"diaper":null},{"country":"10018","city":"10018020","village":"曲溪里","number":"O020000669","name":"新竹市殯儀館新館二樓女廁","address":"新竹市北　區曲溪里成德132號","administration":"新竹市殯葬管理所","latitude":"24.79315","longitude":"120.95661","grade":"特優級","type2":"宗教禮儀場所","type":"女廁所","exec":null,"diaper":null},{"country":"10018","city":"10018020","village":"曲溪里","number":"O020000668","name":"新竹市殯儀館新館二樓男廁","address":"新竹市北　區曲溪里成德132號","administration":"新竹市殯葬管理所","latitude":"24.79315","longitude":"120.95661","grade":"特優級","type2":"宗教禮儀場所","type":"男廁所","exec":null,"diaper":null},{"country":"10018","city":"10018030","village":"美山里","number":"O030000631","name":"香山濕地生態館2樓男女混合廁所","address":"新竹市香山區美山里西濱路三段500巷17號","administration":"新竹市政府產業發展處","latitude":"24.78355","longitude":"120.91497","grade":"特優級","type2":"觀光地區及風景區","type":"混合廁所","exec":null,"diaper":null},{"country":"10018","city":"10018030","village":"美山里","number":"O030000630","name":"香山濕地生態館1樓男女混合廁所","address":"新竹市香山區美山里西濱路三段500巷17號","administration":"新竹市政府產業發展處","latitude":"24.78355","longitude":"120.91497","grade":"特優級","type2":"觀光地區及風景區","type":"混合廁所","exec":null,"diaper":null},{"country":"10018","city":"10018030","village":"美山里","number":"O030000629","name":"香山濕地生態館1樓無障礙廁所","address":"新竹市香山區美山里西濱路三段500巷17號","administration":"新竹市政府產業發展處","latitude":"24.78355","longitude":"120.91497","grade":"特優級","type2":"觀光地區及風景區","type":"無障礙廁所","exec":null,"diaper":null},{"country":"10018","city":"10018020","village":"舊社里","number":"O020000679","name":"新竹市左岸6號溪埔子公廁性別友善廁所","address":"新竹市北　區舊社里溪埔子人工溼地公園","administration":"新竹市公園及觀光區設施維護管理中心","latitude":"24.82561","longitude":"120.97471","grade":"特優級","type2":"公園","type":"性別友善廁所","exec":null,"diaper":null},{"country":"10018","city":"10018020","village":"舊社里","number":"O020000678","name":"新竹市左岸6號溪埔子公廁女廁","address":"新竹市北　區舊社里溪埔子人工溼地公園","administration":"新竹市公園及觀光區設施維護管理中心","latitude":"24.82561","longitude":"120.97471","grade":"特優級","type2":"公園","type":"女廁所","exec":null,"diaper":null},{"country":"10018","city":"10018010","village":"水源里","number":"O010001805","name":"新竹市左岸3號狗狗公園男廁","address":"新竹市東　區水源里左岸狗狗公園","administration":"新竹市公園及觀光區設施維護管理中心","latitude":"24.82108","longitude":"120.99618","grade":"特優級","type2":"公園","type":"男廁所","exec":null,"diaper":null},{"country":"10018","city":"10018010","village":"水源里","number":"O010001804","name":"新竹市左岸2號球場公廁右側性別友善廁所","address":"新竹市東　區水源里河濱運動公園球場附近","administration":"新竹市公園及觀光區設施維護管理中心","latitude":"24.81876","longitude":"121.00011","grade":"特優級","type2":"公園","type":"性別友善廁所","exec":null,"diaper":null},{"country":"10018","city":"10018010","village":"水源里","number":"O010001803","name":"新竹市左岸2號球場公廁左側性別友善廁所","address":"新竹市東　區水源里河濱運動公園球場附近","administration":"新竹市公園及觀光區設施維護管理中心","latitude":"24.81876","longitude":"121.00011","grade":"特優級","type2":"公園","type":"性別友善廁所","exec":null,"diaper":null},{"country":"10018","city":"10018010","village":"水源里","number":"O010001802","name":"新竹市左岸2號球場公廁女廁","address":"新竹市東　區水源里河濱運動公園球場附近","administration":"新竹市公園及觀光區設施維護管理中心","latitude":"24.81876","longitude":"121.00011","grade":"特優級","type2":"公園","type":"女廁所","exec":null,"diaper":null},{"country":"10018","city":"10018010","village":"水源里","number":"O010001801","name":"新竹市左岸2號球場公廁男廁","address":"新竹市東　區水源里河濱運動公園球場附近","administration":"新竹市公園及觀光區設施維護管理中心","latitude":"24.81876","longitude":"121.00011","grade":"特優級","type2":"公園","type":"男廁所","exec":null,"diaper":null},{"country":"10018","city":"10018010","village":"千甲里","number":"O010001800","name":"新竹市左岸1號千甲公廁性別友善廁所","address":"新竹市東　區千甲里千甲里堤防公園附近","administration":"新竹市公園及觀光區設施維護管理中心","latitude":"24.80793","longitude":"121.01361","grade":"特優級","type2":"公園","type":"性別友善廁所","exec":null,"diaper":null},{"country":"10018","city":"10018020","village":"曲溪里","number":"O020000673","name":"新竹市殯儀館新館地下室無障礙廁所","address":"新竹市北　區曲溪里成德132號","administration":"新竹市殯葬管理所","latitude":"24.79315","longitude":"120.95661","grade":"特優級","type2":"宗教禮儀場所","type":"無障礙廁所","exec":null,"diaper":null},{"country":"10018","city":"10018020","village":"北門里","number":"O020000696","name":"新竹市中正市場1樓無障礙廁所","address":"新竹市北　區北門里中正路245號","administration":"新竹市政府產業發展處","latitude":"24.81238","longitude":"120.96402","grade":"特優級","type2":"商業營業場所","type":"無障礙廁所","exec":null,"diaper":null},{"country":"10018","city":"10018020","village":"北門里","number":"O020000695","name":"新竹市中正市場1樓女廁","address":"新竹市北　區北門里中正路245號","administration":"新竹市政府產業發展處","latitude":"24.81238","longitude":"120.96402","grade":"特優級","type2":"商業營業場所","type":"女廁所","exec":null,"diaper":null},{"country":"10018","city":"10018020","village":"北門里","number":"O020000694","name":"新竹市中正市場1樓男廁","address":"新竹市北　區北門里中正路245號","administration":"新竹市政府產業發展處","latitude":"24.81238","longitude":"120.96402","grade":"特優級","type2":"商業營業場所","type":"男廁所","exec":null,"diaper":null},{"country":"10018","city":"10018010","village":"南大里","number":"O010000321","name":"竹蓮市場1樓-A女廁","address":"新竹市東　區南大里竹蓮街15號","administration":"新竹市政府產業發展處","latitude":"24.79707","longitude":"120.97191","grade":"特優級","type2":"商業營業場所","type":"女廁所","exec":null,"diaper":null},{"country":"10018","city":"10018010","village":"復中里","number":"O010000454","name":"巨城購物中心(商場棟)八樓-W1六部客梯旁婦幼廁所","address":"新竹市東　區復中里中央路229號","administration":"遠東巨城購物中心","latitude":"24.809666","longitude":"120.974931","grade":"特優級","type2":"商業營業場所","type":"親子廁所","exec":null,"diaper":null},{"country":"10018","city":"10018010","village":"復中里","number":"O010000453","name":"巨城購物中心(商場棟)五樓-W1六部客梯旁婦幼廁所","address":"新竹市東　區復中里中央路229號","administration":"遠東巨城購物中心","latitude":"24.809666","longitude":"120.974931","grade":"特優級","type2":"商業營業場所","type":"親子廁所","exec":null,"diaper":null},{"country":"10018","city":"10018030","village":"美山里","number":"O030000475","name":"惠民宮旁無障礙廁所","address":"新竹市香山區美山里惠民宮旁","administration":"新竹市公園及觀光區設施維護管理中心","latitude":"24.78567","longitude":"120.91516","grade":"特優級","type2":"觀光地區及風景區","type":"無障礙廁所","exec":null,"diaper":null},{"country":"10018","city":"10018030","village":"美山里","number":"O030000474","name":"惠民宮旁女廁","address":"新竹市香山區美山里惠民宮旁","administration":"新竹市公園及觀光區設施維護管理中心","latitude":"24.78567","longitude":"120.91516","grade":"特優級","type2":"觀光地區及風景區","type":"女廁所","exec":null,"diaper":null},{"country":"10018","city":"10018030","village":"美山里","number":"O030000473","name":"惠民宮旁男廁","address":"新竹市香山區美山里惠民宮旁","administration":"新竹市公園及觀光區設施維護管理中心","latitude":"24.78567","longitude":"120.91516","grade":"特優級","type2":"觀光地區及風景區","type":"男廁所","exec":null,"diaper":null},{"country":"10018","city":"10018010","village":"南市里","number":"O010001837","name":"大遠百(新竹分公司)B1親子廁所","address":"新竹市東　區南市里西大路323號","administration":"其他","latitude":"24.80218","longitude":"120.96521","grade":"特優級","type2":"商業營業場所","type":"親子廁所","exec":null,"diaper":null},{"country":"10018","city":"10018010","village":"南市里","number":"O010001836","name":"大遠百(新竹分公司)7樓前親子廁所","address":"新竹市東　區南市里西大路323號","administration":"其他","latitude":"24.80218","longitude":"120.96521","grade":"特優級","type2":"商業營業場所","type":"親子廁所","exec":null,"diaper":null},{"country":"10018","city":"10018010","village":"南市里","number":"O010001835","name":"大遠百(新竹分公司)6樓前親子廁所","address":"新竹市東　區南市里西大路323號","administration":"其他","latitude":"24.80218","longitude":"120.96521","grade":"特優級","type2":"商業營業場所","type":"親子廁所","exec":null,"diaper":null},{"country":"10018","city":"10018010","village":"南市里","number":"O010001834","name":"大遠百(新竹分公司)3樓前親子廁所","address":"新竹市東　區南市里西大路323號","administration":"其他","latitude":"24.80218","longitude":"120.96521","grade":"特優級","type2":"商業營業場所","type":"親子廁所","exec":null,"diaper":null},{"country":"10018","city":"10018010","village":"埔頂里","number":"O010001296","name":"全國加油(股)公司新竹交流道站無障礙廁所","address":"新竹市東　區埔頂里公道五路二段1號","administration":"全國加油(股)公司新竹交流道站","latitude":"24.79549","longitude":"121.012922","grade":"特優級","type2":"商業營業場所","type":"無障礙廁所","exec":null,"diaper":null},{"country":"10018","city":"10018010","village":"錦華里","number":"O010000353","name":"全國加油(股)公司民生站性別友善廁所","address":"新竹市東　區錦華里民生路308號","administration":"全國加油(股)公司民生站","latitude":"24.81378","longitude":"120.97442","grade":"特優級","type2":"商業營業場所","type":"男廁所","exec":null,"diaper":null},{"country":"10018","city":"10018010","village":"埔頂里","number":"O010001295","name":"全國加油(股)公司新竹交流道站女廁","address":"新竹市東　區埔頂里公道五路二段1號","administration":"全國加油(股)公司新竹交流道站","latitude":"24.79549","longitude":"121.012922","grade":"特優級","type2":"商業營業場所","type":"女廁所","exec":null,"diaper":null},{"country":"10018","city":"10018010","village":"埔頂里","number":"O010001294","name":"全國加油(股)公司新竹交流道站男廁","address":"新竹市東　區埔頂里公道五路二段1號","administration":"全國加油(股)公司新竹交流道站","latitude":"24.79549","longitude":"121.012922","grade":"特優級","type2":"商業營業場所","type":"男廁所","exec":null,"diaper":null},{"country":"10018","city":"10018020","village":"北門里","number":"O020000028","name":"全國加油(股)公司經國站女廁","address":"新竹市北　區北門里經國路二段126號","administration":"全國加油(股)公司經國站","latitude":"24.81164","longitude":"120.963702","grade":"特優級","type2":"商業營業場所","type":"女廁所","exec":null,"diaper":null},{"country":"10018","city":"10018020","village":"北門里","number":"O020000027","name":"全國加油(股)公司經國站男廁","address":"新竹市北　區北門里經國路二段126號","administration":"全國加油(股)公司經國站","latitude":"24.81164","longitude":"120.963702","grade":"特優級","type2":"商業營業場所","type":"男廁所","exec":null,"diaper":null},{"country":"10018","city":"10018010","village":"育賢里","number":"O010000176","name":"新竹巿東區衛生所無障礙廁所","address":"新竹市東　區育賢里民族路40之2號","administration":"新竹市東區衛生所","latitude":"24.80537","longitude":"120.97375","grade":"特優級","type2":"民眾洽公場所","type":"無障礙廁所","exec":null,"diaper":null},{"country":"10018","city":"10018010","village":"復中里","number":"O010000456","name":"新竹市衛生局女廁","address":"新竹市東　區復中里中央路241號","administration":"新竹市衛生局","latitude":"24.80972","longitude":"120.97636","grade":"特優級","type2":"民眾洽公場所","type":"女廁所","exec":null,"diaper":null},{"country":"10018","city":"10018010","village":"復中里","number":"O010000390","name":"巨城購物中心(商場棟)地下一樓-W3三部電梯旁男廁","address":"新竹市東　區復中里中央路229號","administration":"遠東巨城購物中心","latitude":"24.809666","longitude":"120.974931","grade":"特優級","type2":"商業營業場所","type":"男廁所","exec":null,"diaper":null},{"country":"10018","city":"10018010","village":"復中里","number":"O010000389","name":"巨城購物中心(商場棟)地下一樓-W1六部客梯旁多功能廁所","address":"新竹市東　區復中里中央路229號","administration":"遠東巨城購物中心","latitude":"24.809666","longitude":"120.974931","grade":"特優級","type2":"商業營業場所","type":"混合廁所","exec":null,"diaper":null},{"country":"10018","city":"10018010","village":"復中里","number":"O010000388","name":"巨城購物中心(商場棟)地下一樓-W1六部客梯旁女廁","address":"新竹市東　區復中里中央路229號","administration":"遠東巨城購物中心","latitude":"24.809666","longitude":"120.974931","grade":"特優級","type2":"商業營業場所","type":"女廁所","exec":null,"diaper":null},{"country":"10018","city":"10018010","village":"復中里","number":"O010000387","name":"巨城購物中心(商場棟)地下一樓-W1六部客梯旁男廁","address":"新竹市東　區復中里中央路229號","administration":"遠東巨城購物中心","latitude":"24.809666","longitude":"120.974931","grade":"特優級","type2":"商業營業場所","type":"男廁所","exec":null,"diaper":null},{"country":"10018","city":"10018010","village":"復中里","number":"O010000386","name":"巨城購物中心(Sogo百貨)六樓-W3三部客梯旁多功能廁所","address":"新竹市東　區復中里中央路229號","administration":"遠東SOGO百貨新竹店","latitude":"24.809666","longitude":"120.974931","grade":"特優級","type2":"商業營業場所","type":"無障礙廁所","exec":null,"diaper":null},{"country":"10018","city":"10018010","village":"復中里","number":"O010000385","name":"巨城購物中心(Sogo百貨)六樓-W3三部客梯旁女廁","address":"新竹市東　區復中里中央路229號","administration":"遠東SOGO百貨新竹店","latitude":"24.809666","longitude":"120.974931","grade":"特優級","type2":"商業營業場所","type":"女廁所","exec":null,"diaper":null},{"country":"10018","city":"10018010","village":"復中里","number":"O010000384","name":"巨城購物中心(Sogo百貨)六樓-W3三部客梯旁男廁","address":"新竹市東　區復中里中央路229號","administration":"遠東SOGO百貨新竹店","latitude":"24.809666","longitude":"120.974931","grade":"特優級","type2":"商業營業場所","type":"男廁所","exec":null,"diaper":null},{"country":"10018","city":"10018010","village":"復中里","number":"O010000383","name":"巨城購物中心(Sogo百貨)五樓-W3三部客梯旁多功能廁所","address":"新竹市東　區復中里中央路229號","administration":"遠東SOGO百貨新竹店","latitude":"24.809666","longitude":"120.974931","grade":"特優級","type2":"商業營業場所","type":"無障礙廁所","exec":null,"diaper":null},{"country":"10018","city":"10018010","village":"科園里","number":"O010001521","name":"龍山綜合大樓4樓無障礙廁所","address":"新竹市東　區科園里科學園路162巷36號","administration":"新竹市文化局","latitude":"24.78215","longitude":"121.01039","grade":"特優級","type2":"文化育樂活動場所","type":"無障礙廁所","exec":null,"diaper":null},{"country":"10018","city":"10018010","village":"科園里","number":"O010001520","name":"龍山綜合大樓4樓男廁","address":"新竹市東　區科園里科學園路162巷36號","administration":"新竹市文化局","latitude":"24.78215","longitude":"121.01039","grade":"特優級","type2":"文化育樂活動場所","type":"男廁所","exec":null,"diaper":null},{"country":"10018","city":"10018010","village":"科園里","number":"O010001519","name":"龍山綜合大樓3樓女廁","address":"新竹市東　區科園里科學園路162巷36號","administration":"新竹市文化局","latitude":"24.78215","longitude":"121.01039","grade":"特優級","type2":"文化育樂活動場所","type":"女廁所","exec":null,"diaper":null},{"country":"10018","city":"10018010","village":"科園里","number":"O010001518","name":"龍山綜合大樓3樓男廁","address":"新竹市東　區科園里科學園路162巷36號","administration":"新竹市文化局","latitude":"24.78215","longitude":"121.01039","grade":"特優級","type2":"文化育樂活動場所","type":"男廁所","exec":null,"diaper":null},{"country":"10018","city":"10018010","village":"科園里","number":"O010001517","name":"龍山綜合大樓2樓女廁","address":"新竹市東　區科園里科學園路162巷36號","administration":"新竹市文化局","latitude":"24.78215","longitude":"121.01039","grade":"特優級","type2":"文化育樂活動場所","type":"女廁所","exec":null,"diaper":null},{"country":"10018","city":"10018010","village":"科園里","number":"O010001516","name":"龍山綜合大樓2樓親子廁所","address":"新竹市東　區科園里科學園路162巷36號","administration":"新竹市文化局","latitude":"24.78215","longitude":"121.01039","grade":"特優級","type2":"文化育樂活動場所","type":"親子廁所","exec":null,"diaper":null},{"country":"10018","city":"10018010","village":"育賢里","number":"O010000175","name":"新竹市東區區公所3樓性別友善廁所(調解室旁)","address":"新竹市東　區育賢里民族路40號","administration":"新竹市東區區公所","latitude":"24.80522","longitude":"120.97348","grade":"特優級","type2":"民眾洽公場所","type":"性別友善廁所","exec":null,"diaper":null},{"country":"10018","city":"10018010","village":"育賢里","number":"O010000174","name":"新竹市東區區公所3樓女廁","address":"新竹市東　區育賢里民族路40號","administration":"新竹市東區區公所","latitude":"24.80522","longitude":"120.97348","grade":"特優級","type2":"民眾洽公場所","type":"女廁所","exec":null,"diaper":null},{"country":"10018","city":"10018010","village":"育賢里","number":"O010000173","name":"新竹市東區區公所3樓性別友善廁所(禮堂旁)","address":"新竹市東　區育賢里民族路40號","administration":"新竹市東區區公所","latitude":"24.80522","longitude":"120.97348","grade":"特優級","type2":"民眾洽公場所","type":"性別友善廁所","exec":null,"diaper":null},{"country":"10018","city":"10018020","village":"曲溪里","number":"O020000441","name":"新竹市殯儀館新館志工室旁男廁","address":"新竹市北　區曲溪里成德路132號","administration":"新竹市殯葬管理所","latitude":"24.79315","longitude":"120.95661","grade":"特優級","type2":"宗教禮儀場所","type":"男廁所","exec":null,"diaper":null},{"country":"10018","city":"10018020","village":"曲溪里","number":"O020000440","name":"新竹市殯儀館舊館入殮室(二)旁無障礙廁所","address":"新竹市北　區曲溪里成德路132號","administration":"新竹市殯葬管理所","latitude":"24.79315","longitude":"120.95661","grade":"特優級","type2":"宗教禮儀場所","type":"無障礙廁所","exec":null,"diaper":null},{"country":"10018","city":"10018020","village":"曲溪里","number":"O020000439","name":"新竹市殯儀館舊館入殮室(二)旁女廁","address":"新竹市北　區曲溪里成德路132號","administration":"新竹市殯葬管理所","latitude":"24.79315","longitude":"120.95661","grade":"特優級","type2":"宗教禮儀場所","type":"女廁所","exec":null,"diaper":null},{"country":"10018","city":"10018020","village":"曲溪里","number":"O020000438","name":"新竹市殯儀館舊館入殮室(二)旁男廁","address":"新竹市北　區曲溪里成德路132號","administration":"新竹市殯葬管理所","latitude":"24.79315","longitude":"120.95661","grade":"特優級","type2":"宗教禮儀場所","type":"男廁所","exec":null,"diaper":null},{"country":"10018","city":"10018020","village":"曲溪里","number":"O020000437","name":"新竹市殯儀館舊館奠禮堂德風堂旁無障礙廁所","address":"新竹市北　區曲溪里成德路132號","administration":"新竹市殯葬管理所","latitude":"24.79315","longitude":"120.95661","grade":"特優級","type2":"宗教禮儀場所","type":"無障礙廁所","exec":null,"diaper":null},{"country":"10018","city":"10018020","village":"曲溪里","number":"O020000436","name":"新竹市殯儀館舊館奠禮堂德風堂旁女廁","address":"新竹市北　區曲溪里成德路132號","administration":"新竹市殯葬管理所","latitude":"24.79315","longitude":"120.95661","grade":"特優級","type2":"宗教禮儀場所","type":"女廁所","exec":null,"diaper":null},{"country":"10018","city":"10018020","village":"曲溪里","number":"O020000435","name":"新竹市殯儀館舊館奠禮堂德風堂旁男廁","address":"新竹市北　區曲溪里成德路132號","administration":"新竹市殯葬管理所","latitude":"24.79315","longitude":"120.95661","grade":"特優級","type2":"宗教禮儀場所","type":"男廁所","exec":null,"diaper":null},{"country":"10018","city":"10018020","village":"曲溪里","number":"O020000434","name":"新竹市殯儀館舊館景行廳下方女廁無障礙廁所","address":"新竹市北　區曲溪里成德路132號","administration":"新竹市殯葬管理所","latitude":"24.79315","longitude":"120.95661","grade":"特優級","type2":"宗教禮儀場所","type":"無障礙廁所","exec":null,"diaper":null},{"country":"10018","city":"10018020","village":"曲溪里","number":"O020000433","name":"新竹市殯儀館舊館景行廳下方男廁無障礙廁所","address":"新竹市北　區曲溪里成德路132號","administration":"新竹市殯葬管理所","latitude":"24.79315","longitude":"120.95661","grade":"特優級","type2":"宗教禮儀場所","type":"無障礙廁所","exec":null,"diaper":null},{"country":"10018","city":"10018020","village":"曲溪里","number":"O020000432","name":"新竹市殯儀館舊館景行廳下方女廁","address":"新竹市北　區曲溪里成德路132號","administration":"新竹市殯葬管理所","latitude":"24.79315","longitude":"120.95661","grade":"特優級","type2":"宗教禮儀場所","type":"女廁所","exec":null,"diaper":null},{"country":"10018","city":"10018030","village":"南港里","number":"O030000588","name":"南港安檢所旁親子廁所","address":"新竹市香山區南港里南港街52巷100-1號旁邊","administration":"新竹市公園及觀光區設施維護管理中心","latitude":"24.74294","longitude":"120.89456","grade":"特優級","type2":"觀光地區及風景區","type":"親子廁所","exec":null,"diaper":null},{"country":"10018","city":"10018010","village":"南大里","number":"O010001833","name":"竹蓮市場2樓-A無障礙廁所","address":"新竹市東　區南大里竹蓮街15號","administration":"新竹市政府產業發展處","latitude":"24.79707","longitude":"120.97191","grade":"特優級","type2":"商業營業場所","type":"無障礙廁所","exec":null,"diaper":null},{"country":"10018","city":"10018010","village":"公園里","number":"O010000257","name":"新竹市立動物園星巴克旁男廁","address":"新竹市東　區公園里博愛街111號","administration":"新竹市立動物園","latitude":"24.80012","longitude":"120.97936","grade":"特優級","type2":"觀光地區及風景區","type":"男廁所","exec":null,"diaper":null},{"country":"10018","city":"10018010","village":"關新里","number":"O010001418","name":"台灣中油青雲加盟站無障礙廁所","address":"新竹市東　區關新里關東路171號","administration":"台灣中油青雲加盟站","latitude":"24.789431","longitude":"121.019972","grade":"特優級","type2":"商業營業場所","type":"無障礙廁所","exec":null,"diaper":null},{"country":"10018","city":"10018010","village":"關新里","number":"O010001417","name":"台灣中油青雲加盟站女廁","address":"新竹市東　區關新里關東路171號","administration":"台灣中油青雲加盟站","latitude":"24.789431","longitude":"121.019972","grade":"特優級","type2":"商業營業場所","type":"女廁所","exec":null,"diaper":null},{"country":"10018","city":"10018010","village":"關新里","number":"O010001416","name":"台灣中油青雲加盟站男廁","address":"新竹市東　區關新里關東路171號","administration":"台灣中油青雲加盟站","latitude":"24.789431","longitude":"121.019972","grade":"特優級","type2":"商業營業場所","type":"男廁所","exec":null,"diaper":null},{"country":"10018","city":"10018020","village":"境福里","number":"O020000466","name":"台灣中油永富加盟站男廁","address":"新竹市北　區境福里中正路620號","administration":"台灣中油永富加盟站","latitude":"24.818228","longitude":"120.955592","grade":"特優級","type2":"商業營業場所","type":"男廁所","exec":null,"diaper":null},{"country":"10018","city":"10018020","village":"民富里","number":"O020000101","name":"台灣中油昌益加盟站女廁","address":"新竹市北　區民富里經國路二段293號","administration":"台灣中油昌益加盟站","latitude":"24.809522","longitude":"120.961005","grade":"特優級","type2":"商業營業場所","type":"女廁所","exec":null,"diaper":null},{"country":"10018","city":"10018020","village":"民富里","number":"O020000100","name":"台灣中油昌益加盟站男廁","address":"新竹市北　區民富里經國路二段293號","administration":"台灣中油昌益加盟站","latitude":"24.809522","longitude":"120.961005","grade":"特優級","type2":"商業營業場所","type":"男廁所","exec":null,"diaper":null},{"country":"10018","city":"10018030","village":"港南里","number":"O030000010","name":"台灣中油港南加油站女廁","address":"新竹市香山區港南里海埔路142巷55號","administration":"台灣中油港南加油站","latitude":"24.82042","longitude":"120.92622","grade":"特優級","type2":"商業營業場所","type":"女廁所","exec":null,"diaper":null},{"country":"10018","city":"10018030","village":"港南里","number":"O030000009","name":"台灣中油港南加油站男廁","address":"新竹市香山區港南里海埔路142巷55號","administration":"台灣中油港南加油站","latitude":"24.82042","longitude":"120.92622","grade":"特優級","type2":"商業營業場所","type":"男廁所","exec":null,"diaper":null},{"country":"10018","city":"10018030","village":"東香里","number":"O030000184","name":"台灣中油奕承加油站無障礙廁所","address":"新竹市香山區東香里景觀大道830號","administration":"台灣中油奕承加油站","latitude":"24.76037","longitude":"120.95818","grade":"特優級","type2":"商業營業場所","type":"無障礙廁所","exec":null,"diaper":null},{"country":"10018","city":"10018030","village":"東香里","number":"O030000183","name":"台灣中油奕承加油站女廁","address":"新竹市香山區東香里景觀大道830號","administration":"台灣中油奕承加油站","latitude":"24.76037","longitude":"120.95818","grade":"特優級","type2":"商業營業場所","type":"女廁所","exec":null,"diaper":null},{"country":"10018","city":"10018030","village":"東香里","number":"O030000182","name":"台灣中油奕承加油站男廁","address":"新竹市香山區東香里景觀大道830號","administration":"台灣中油奕承加油站","latitude":"24.76037","longitude":"120.95818","grade":"特優級","type2":"商業營業場所","type":"男廁所","exec":null,"diaper":null},{"country":"10018","city":"10018030","village":"朝山里","number":"O030000493","name":"香山火車站無障礙廁所","address":"新竹市香山區朝山里中華路五段347巷2弄27號","administration":"交通部臺灣鐵路管理局","latitude":"24.76346","longitude":"120.91411","grade":"特優級","type2":"交通","type":"無障礙廁所","exec":null,"diaper":null},{"country":"10018","city":"10018030","village":"朝山里","number":"O030000492","name":"香山火車站女廁","address":"新竹市香山區朝山里中華路五段347巷2弄27號","administration":"交通部臺灣鐵路管理局","latitude":"24.76346","longitude":"120.91411","grade":"特優級","type2":"交通","type":"女廁所","exec":null,"diaper":null},{"country":"10018","city":"10018030","village":"朝山里","number":"O030000491","name":"香山火車站男廁","address":"新竹市香山區朝山里中華路五段347巷2弄27號","administration":"交通部臺灣鐵路管理局","latitude":"24.76346","longitude":"120.91411","grade":"特優級","type2":"交通","type":"男廁所","exec":null,"diaper":null},{"country":"10018","city":"10018020","village":"海濱里","number":"O020000386","name":"新竹巿環境保護局2樓無障礙廁所","address":"新竹市北　區海濱里海濱路240號","administration":"新竹市環境保護局","latitude":"24.83421","longitude":"120.91636","grade":"特優級","type2":"民眾洽公場所","type":"無障礙廁所","exec":null,"diaper":null},{"country":"10018","city":"10018020","village":"海濱里","number":"O020000385","name":"新竹巿環境保護局2樓性別友善廁所","address":"新竹市北　區海濱里海濱路240號","administration":"新竹市環境保護局","latitude":"24.83421","longitude":"120.91636","grade":"特優級","type2":"民眾洽公場所","type":"性別友善廁所","exec":null,"diaper":null},{"country":"10018","city":"10018020","village":"海濱里","number":"O020000367","name":"台灣中油尚隆加盟站無障礙廁所","address":"新竹市北　區海濱里天府路二段51號","administration":"台灣中油尚隆加盟站","latitude":"24.839623","longitude":"120.929283","grade":"特優級","type2":"商業營業場所","type":"無障礙廁所","exec":null,"diaper":null},{"country":"10018","city":"10018020","village":"海濱里","number":"O020000366","name":"台灣中油尚隆加盟站女廁","address":"新竹市北　區海濱里天府路二段51號","administration":"台灣中油尚隆加盟站","latitude":"24.839623","longitude":"120.929283","grade":"特優級","type2":"商業營業場所","type":"女廁所","exec":null,"diaper":null},{"country":"10018","city":"10018020","village":"士林里","number":"O020000201","name":"台灣中油長隆加盟站無障礙廁所","address":"新竹市北　區士林里東大路二段657號","administration":"台灣中油長隆加盟站","latitude":"24.823964","longitude":"120.957735","grade":"特優級","type2":"商業營業場所","type":"無障礙廁所","exec":null,"diaper":null},{"country":"10018","city":"10018020","village":"士林里","number":"O020000199","name":"台灣中油長隆加盟站性別友善廁所","address":"新竹市北　區士林里東大路二段657號","administration":"台灣中油長隆加盟站","latitude":"24.823964","longitude":"120.957735","grade":"特優級","type2":"商業營業場所","type":"性別友善廁所","exec":null,"diaper":null},{"country":"10018","city":"10018020","village":"中山里","number":"O020000086","name":"城隍廟男廁","address":"新竹市北　區中山里中山路75號","administration":"城隍廟","latitude":"24.804485","longitude":"120.965885","grade":"特優級","type2":"宗教禮儀場所","type":"男廁所","exec":null,"diaper":null},{"country":"10018","city":"10018010","village":"復興里","number":"O010001614","name":"新竹市果菜批發市場3樓女廁","address":"新竹市東　區復興里經國路一段411號","administration":"新竹市政府產業發展處","latitude":"24.81376","longitude":"120.97779","grade":"特優級","type2":"商業營業場所","type":"女廁所","exec":null,"diaper":null},{"country":"10018","city":"10018010","village":"復興里","number":"O010001613","name":"新竹市果菜批發市場3樓男廁","address":"新竹市東　區復興里經國路一段411號","administration":"新竹市政府產業發展處","latitude":"24.81376","longitude":"120.97779","grade":"特優級","type2":"商業營業場所","type":"男廁所","exec":null,"diaper":null},{"country":"10018","city":"10018010","village":"復興里","number":"O010001612","name":"新竹市果菜批發市場2樓後無障礙廁所","address":"新竹市東　區復興里經國路一段411號","administration":"新竹市政府產業發展處","latitude":"24.81376","longitude":"120.97779","grade":"特優級","type2":"商業營業場所","type":"無障礙廁所","exec":null,"diaper":null},{"country":"10018","city":"10018010","village":"復興里","number":"O010001611","name":"新竹市果菜批發市場2樓後女廁","address":"新竹市東　區復興里經國路一段411號","administration":"新竹市政府產業發展處","latitude":"24.81376","longitude":"120.97779","grade":"特優級","type2":"商業營業場所","type":"女廁所","exec":null,"diaper":null},{"country":"10018","city":"10018010","village":"復興里","number":"O010001610","name":"新竹市果菜批發市場2樓後男廁","address":"新竹市東　區復興里經國路一段411號","administration":"新竹市政府產業發展處","latitude":"24.81376","longitude":"120.97779","grade":"特優級","type2":"商業營業場所","type":"男廁所","exec":null,"diaper":null},{"country":"10018","city":"10018010","village":"育賢里","number":"O010000344","name":"新竹市護城河無障礙廁所","address":"新竹市東　區育賢里文化街與民族路33巷交叉口","administration":"新竹市公園及觀光區設施維護管理中心","latitude":"24.80572","longitude":"120.97111","grade":"特優級","type2":"觀光地區及風景區","type":"無障礙廁所","exec":null,"diaper":null},{"country":"10018","city":"10018010","village":"復中里","number":"O010000432","name":"巨城購物中心(商場棟)八樓-W3三部客梯旁女廁","address":"新竹市東　區復中里中央路229號","administration":"遠東巨城購物中心","latitude":"24.809666","longitude":"120.974931","grade":"特優級","type2":"商業營業場所","type":"女廁所","exec":null,"diaper":null},{"country":"10018","city":"10018010","village":"復中里","number":"O010000431","name":"巨城購物中心(商場棟)八樓-W3三部客梯旁男廁","address":"新竹市東　區復中里中央路229號","administration":"遠東巨城購物中心","latitude":"24.809666","longitude":"120.974931","grade":"特優級","type2":"商業營業場所","type":"男廁所","exec":null,"diaper":null},{"country":"10018","city":"10018010","village":"復中里","number":"O010000430","name":"巨城購物中心(商場棟)八樓-W1六部客梯旁多功能廁所","address":"新竹市東　區復中里中央路229號","administration":"遠東巨城購物中心","latitude":"24.809666","longitude":"120.974931","grade":"特優級","type2":"商業營業場所","type":"無障礙廁所","exec":null,"diaper":null},{"country":"10018","city":"10018010","village":"復中里","number":"O010000429","name":"巨城購物中心(商場棟)八樓-W1六部客梯旁女廁","address":"新竹市東　區復中里中央路229號","administration":"遠東巨城購物中心","latitude":"24.809666","longitude":"120.974931","grade":"特優級","type2":"商業營業場所","type":"女廁所","exec":null,"diaper":null},{"country":"10018","city":"10018010","village":"復中里","number":"O010000428","name":"巨城購物中心(商場棟)八樓-W1六部客梯旁男廁","address":"新竹市東　區復中里中央路229號","administration":"遠東巨城購物中心","latitude":"24.809666","longitude":"120.974931","grade":"特優級","type2":"商業營業場所","type":"男廁所","exec":null,"diaper":null},{"country":"10018","city":"10018010","village":"復中里","number":"O010000427","name":"巨城購物中心(商場棟)七樓-W3三部客梯旁多功能廁所","address":"新竹市東　區復中里中央路229號","administration":"遠東巨城購物中心","latitude":"24.809666","longitude":"120.974931","grade":"特優級","type2":"商業營業場所","type":"無障礙廁所","exec":null,"diaper":null},{"country":"10018","city":"10018010","village":"復中里","number":"O010000426","name":"巨城購物中心(商場棟)七樓-W3三部客梯旁女廁","address":"新竹市東　區復中里中央路229號","administration":"遠東巨城購物中心","latitude":"24.809666","longitude":"120.974931","grade":"特優級","type2":"商業營業場所","type":"女廁所","exec":null,"diaper":null},{"country":"10018","city":"10018010","village":"復中里","number":"O010000425","name":"巨城購物中心(商場棟)七樓-W3三部客梯旁男廁","address":"新竹市東　區復中里中央路229號","administration":"遠東巨城購物中心","latitude":"24.809666","longitude":"120.974931","grade":"特優級","type2":"商業營業場所","type":"男廁所","exec":null,"diaper":null},{"country":"10018","city":"10018010","village":"復中里","number":"O010000424","name":"巨城購物中心(商場棟)七樓-W1六部客梯旁多功能廁所","address":"新竹市東　區復中里中央路229號","administration":"遠東巨城購物中心","latitude":"24.809666","longitude":"120.974931","grade":"特優級","type2":"商業營業場所","type":"無障礙廁所","exec":null,"diaper":null},{"country":"10018","city":"10018020","village":"西雅里","number":"O020000446","name":"台塑石油新竹中山站無障礙廁所","address":"新竹市北　區西雅里中山路332號","administration":"台朔石油台亞新竹中山站","latitude":"24.801348","longitude":"120.960168","grade":"特優級","type2":"商業營業場所","type":"無障礙廁所","exec":null,"diaper":null},{"country":"10018","city":"10018020","village":"南寮里","number":"O020000658","name":"新竹漁港波光市集旁親子廁所","address":"新竹市北　區南寮里新港3路3號","administration":"新竹市政府產業發展處","latitude":"24.84902","longitude":"120.92544","grade":"特優級","type2":"觀光地區及風景區","type":"親子廁所","exec":null,"diaper":null},{"country":"10018","city":"10018020","village":"南寮里","number":"O020000657","name":"新竹漁港波光市集旁無障礙廁所","address":"新竹市北　區南寮里新港3路3號","administration":"新竹市政府產業發展處","latitude":"24.84902","longitude":"120.92544","grade":"特優級","type2":"觀光地區及風景區","type":"無障礙廁所","exec":null,"diaper":null},{"country":"10018","city":"10018020","village":"南寮里","number":"O020000656","name":"新竹漁港波光市集旁女廁","address":"新竹市北　區南寮里新港3路3號","administration":"新竹市政府產業發展處","latitude":"24.84902","longitude":"120.92544","grade":"特優級","type2":"觀光地區及風景區","type":"女廁所","exec":null,"diaper":null},{"country":"10018","city":"10018020","village":"南寮里","number":"O020000655","name":"新竹漁港波光市集旁男廁","address":"新竹市北　區南寮里新港3路3號","administration":"新竹市政府產業發展處","latitude":"24.84902","longitude":"120.92544","grade":"特優級","type2":"觀光地區及風景區","type":"男廁所","exec":null,"diaper":null},{"country":"10018","city":"10018030","village":"香山里","number":"O030000390","name":"台灣中油百祥加盟站無障礙廁所","address":"新竹市香山區香山里中華路五段111號","administration":"台灣中油百祥加盟站","latitude":"24.787067","longitude":"120.926346","grade":"特優級","type2":"商業營業場所","type":"無障礙廁所","exec":null,"diaper":null},{"country":"10018","city":"10018030","village":"香山里","number":"O030000389","name":"台灣中油百祥加盟站女廁","address":"新竹市香山區香山里中華路五段111號","administration":"台灣中油百祥加盟站","latitude":"24.787067","longitude":"120.926346","grade":"特優級","type2":"商業營業場所","type":"女廁所","exec":null,"diaper":null},{"country":"10018","city":"10018030","village":"香山里","number":"O030000388","name":"台灣中油百祥加盟站男廁","address":"新竹市香山區香山里中華路五段111號","administration":"台灣中油百祥加盟站","latitude":"24.787067","longitude":"120.926346","grade":"特優級","type2":"商業營業場所","type":"男廁所","exec":null,"diaper":null},{"country":"10018","city":"10018010","village":"豐功里","number":"O010000761","name":"台灣中油公道五加盟站無障礙廁所","address":"新竹市東　區豐功里公道五路二段228號","administration":"台灣中油公道五加盟站","latitude":"24.80109501","longitude":"121.0024588","grade":"特優級","type2":"商業營業場所","type":"無障礙廁所","exec":null,"diaper":null},{"country":"10018","city":"10018010","village":"豐功里","number":"O010000760","name":"台灣中油公道五加盟站女廁","address":"新竹市東　區豐功里公道五路二段228號","administration":"台灣中油公道五加盟站","latitude":"24.80109501","longitude":"121.0024588","grade":"特優級","type2":"商業營業場所","type":"女廁所","exec":null,"diaper":null},{"country":"10018","city":"10018010","village":"豐功里","number":"O010000759","name":"台灣中油公道五加盟站男廁","address":"新竹市東　區豐功里公道五路二段228號","administration":"台灣中油公道五加盟站","latitude":"24.80109501","longitude":"121.0024588","grade":"特優級","type2":"商業營業場所","type":"男廁所","exec":null,"diaper":null},{"country":"10018","city":"10018010","village":"復興里","number":"O010001582","name":"台灣中油民弘加盟站無障礙廁所","address":"新竹市東　區復興里自由路65號","administration":"台灣中油民弘加盟站","latitude":"24.812674","longitude":"120.980904","grade":"特優級","type2":"商業營業場所","type":"無障礙廁所","exec":null,"diaper":null},{"country":"10018","city":"10018010","village":"復興里","number":"O010001581","name":"台灣中油民弘加盟站女廁","address":"新竹市東　區復興里自由路65號","administration":"台灣中油民弘加盟站","latitude":"24.812674","longitude":"120.980904","grade":"特優級","type2":"商業營業場所","type":"女廁所","exec":null,"diaper":null},{"country":"10018","city":"10018010","village":"復興里","number":"O010001580","name":"台灣中油民弘加盟站男廁","address":"新竹市東　區復興里自由路65號","administration":"台灣中油民弘加盟站","latitude":"24.812674","longitude":"120.980904","grade":"特優級","type2":"商業營業場所","type":"男廁所","exec":null,"diaper":null},{"country":"10018","city":"10018020","village":"境福里","number":"O020000467","name":"台灣中油永富加盟站女廁","address":"新竹市北　區境福里中正路620號","administration":"台灣中油永富加盟站","latitude":"24.818228","longitude":"120.955592","grade":"特優級","type2":"商業營業場所","type":"女廁所","exec":null,"diaper":null},{"country":"10018","city":"10018010","village":"東園里","number":"O010000648","name":"台塑石油西歐新竹中華站女廁","address":"新竹市東　區東園里中華路二段59號","administration":"台塑石油西歐新竹中華站","latitude":"24.808418","longitude":"120.981984","grade":"特優級","type2":"商業營業場所","type":"女廁所","exec":null,"diaper":null},{"country":"10018","city":"10018010","village":"東園里","number":"O010000647","name":"台塑石油西歐新竹中華站男廁","address":"新竹市東　區東園里中華路二段59號","administration":"台塑石油西歐新竹中華站","latitude":"24.808418","longitude":"120.981984","grade":"特優級","type2":"商業營業場所","type":"男廁所","exec":null,"diaper":null},{"country":"10018","city":"10018010","village":"新光里","number":"O010001749","name":"全國加油(股)公司明湖站無障礙廁所","address":"新竹市東　區新光里明湖路361號","administration":"全國加油(股)公司明湖站","latitude":"24.785693","longitude":"120.967793","grade":"特優級","type2":"商業營業場所","type":"無障礙廁所","exec":null,"diaper":null},{"country":"10018","city":"10018010","village":"新光里","number":"O010001748","name":"全國加油(股)公司明湖站女廁","address":"新竹市東　區新光里明湖路361號","administration":"全國加油(股)公司明湖站","latitude":"24.785693","longitude":"120.967793","grade":"特優級","type2":"商業營業場所","type":"女廁所","exec":null,"diaper":null},{"country":"10018","city":"10018010","village":"新光里","number":"O010001747","name":"全國加油(股)公司明湖站男廁","address":"新竹市東　區新光里明湖路361號","administration":"全國加油(股)公司明湖站","latitude":"24.785693","longitude":"120.967793","grade":"特優級","type2":"商業營業場所","type":"男廁所","exec":null,"diaper":null},{"country":"10018","city":"10018010","village":"錦華里","number":"O010000355","name":"全國加油(股)公司民生站無障礙廁所","address":"新竹市東　區錦華里民生路308號","administration":"全國加油(股)公司民生站","latitude":"24.813783","longitude":"120.97442","grade":"特優級","type2":"商業營業場所","type":"無障礙廁所","exec":null,"diaper":null},{"country":"10018","city":"10018030","village":"南港里","number":"O030000591","name":"17公里海岸線南港終點站無障礙廁所","address":"新竹市香山區南港里西濱公路560號","administration":"新竹市公園及觀光區設施維護管理中心","latitude":"24.74031","longitude":"120.88968","grade":"特優級","type2":"觀光地區及風景區","type":"無障礙廁所","exec":null,"diaper":null},{"country":"10018","city":"10018030","village":"南港里","number":"O030000590","name":"17公里海岸線南港終點站女廁","address":"新竹市香山區南港里西濱公路560號","administration":"新竹市公園及觀光區設施維護管理中心","latitude":"24.74031","longitude":"120.88968","grade":"特優級","type2":"觀光地區及風景區","type":"女廁所","exec":null,"diaper":null},{"country":"10018","city":"10018030","village":"南港里","number":"O030000589","name":"17公里海岸線南港終點站男廁","address":"新竹市香山區南港里西濱公路560號","administration":"新竹市公園及觀光區設施維護管理中心","latitude":"24.74031","longitude":"120.88968","grade":"特優級","type2":"觀光地區及風景區","type":"男廁所","exec":null,"diaper":null},{"country":"10018","city":"10018010","village":"公園里","number":"O010000229","name":"麗池公園男廁","address":"新竹市東　區公園里新竹市立動物園大象門斜對面","administration":"新竹市公園及觀光區設施維護管理中心","latitude":"24.80162","longitude":"120.97927","grade":"特優級","type2":"公園","type":"男廁所","exec":null,"diaper":null},{"country":"10018","city":"10018020","village":"海濱里","number":"O020000400","name":"新竹市環境保護局8樓無障礙廁所","address":"新竹市北　區海濱里海濱路240號","administration":"新竹市環境保護局","latitude":"24.83421","longitude":"120.91636","grade":"特優級","type2":"民眾洽公場所","type":"無障礙廁所","exec":null,"diaper":null},{"country":"10018","city":"10018020","village":"海濱里","number":"O020000399","name":"新竹市環境保護局1樓親子廁所","address":"新竹市北　區海濱里海濱路240號","administration":"新竹市環境保護局","latitude":"24.83421","longitude":"120.91636","grade":"特優級","type2":"民眾洽公場所","type":"親子廁所","exec":null,"diaper":null},{"country":"10018","city":"10018010","village":"公園里","number":"O010000290","name":"新竹市立動物園地下停車場出口無障礙廁所","address":"新竹市東　區公園里食品路50號","administration":"新竹市政府交通處","latitude":"24.80103","longitude":"120.98216","grade":"特優級","type2":"交通","type":"無障礙廁所","exec":null,"diaper":null},{"country":"10018","city":"10018010","village":"公園里","number":"O010000289","name":"新竹市立動物園地下停車場出口女廁","address":"新竹市東　區公園里食品路50號","administration":"新竹市政府交通處","latitude":"24.80103","longitude":"120.98216","grade":"特優級","type2":"交通","type":"女廁所","exec":null,"diaper":null},{"country":"10018","city":"10018010","village":"公園里","number":"O010000288","name":"新竹市立動物園地下停車場出口男廁","address":"新竹市東　區公園里食品路50號","administration":"新竹市政府交通處","latitude":"24.80103","longitude":"120.98216","grade":"特優級","type2":"交通","type":"男廁所","exec":null,"diaper":null},{"country":"10018","city":"10018010","village":"公園里","number":"O010000222","name":"新竹孔廟旁親子廁所","address":"新竹市東　區公園里公園路289號","administration":"新竹市公園及觀光區設施維護管理中心","latitude":"24.79976","longitude":"120.97741","grade":"特優級","type2":"觀光地區及風景區","type":"親子廁所","exec":null,"diaper":null},{"country":"10018","city":"10018010","village":"公園里","number":"O010000221","name":"新竹孔廟旁女廁","address":"新竹市東　區公園里公園路289號","administration":"新竹市公園及觀光區設施維護管理中心","latitude":"24.79976","longitude":"120.97741","grade":"特優級","type2":"觀光地區及風景區","type":"女廁所","exec":null,"diaper":null},{"country":"10018","city":"10018010","village":"公園里","number":"O010000220","name":"新竹孔廟旁男廁","address":"新竹市東　區公園里公園路289號","administration":"新竹市公園及觀光區設施維護管理中心","latitude":"24.79976","longitude":"120.97741","grade":"特優級","type2":"觀光地區及風景區","type":"男廁所","exec":null,"diaper":null},{"country":"10018","city":"10018010","village":"東勢里","number":"O010000659","name":"7-11便利商店-新勝門市男女混合廁所","address":"新竹市東　區東勢里東光路75號","administration":"7-11便利商店-新勝門市","latitude":"24.80356","longitude":"120.98673","grade":"特優級","type2":"商業營業場所","type":"混合廁所","exec":null,"diaper":null},{"country":"10018","city":"10018020","village":"南寮里","number":"O020000325","name":"7-11便利商店-聖華門市男女混合廁所","address":"新竹市北　區南寮里西濱路一段399號","administration":"7-11便利商店-聖華門市","latitude":"24.84091","longitude":"120.93234","grade":"特優級","type2":"商業營業場所","type":"混合廁所","exec":null,"diaper":null},{"country":"10018","city":"10018020","village":"海濱里","number":"O020000370","name":"7-11便利商店-冠盈門市男女混合廁所","address":"新竹市北　區海濱里西濱路一段286號","administration":"7-11便利商店-冠盈門市","latitude":"24.83552","longitude":"120.92937","grade":"特優級","type2":"商業營業場所","type":"混合廁所","exec":null,"diaper":null},{"country":"10018","city":"10018010","village":"光復里","number":"O010000746","name":"新竹水道取水口展示館親子廁所","address":"新竹市東　區光復里東勢街4號","administration":"新竹市文化局","latitude":"24.80724","longitude":"120.99276","grade":"特優級","type2":"文化育樂活動場所","type":"親子廁所","exec":null,"diaper":null},{"country":"10018","city":"10018010","village":"公園里","number":"O010000259","name":"新竹市立動物園星巴克旁無障礙廁所","address":"新竹市東　區公園里博愛街111號","administration":"新竹市立動物園","latitude":"24.80012","longitude":"120.97936","grade":"特優級","type2":"觀光地區及風景區","type":"無障礙廁所","exec":null,"diaper":null},{"country":"10018","city":"10018010","village":"公園里","number":"O010000258","name":"新竹市立動物園星巴克旁女廁","address":"新竹市東　區公園里博愛街111號","administration":"新竹市立動物園","latitude":"24.80012","longitude":"120.97936","grade":"特優級","type2":"觀光地區及風景區","type":"女廁所","exec":null,"diaper":null},{"country":"10018","city":"10018030","village":"大庄里","number":"O030000480","name":"吳先生廟旁女廁","address":"新竹市香山區大庄里西濱路三段20巷附近","administration":"新竹市政府工務處","latitude":"24.79301","longitude":"120.91881","grade":"特優級","type2":"觀光地區及風景區","type":"女廁所","exec":null,"diaper":null},{"country":"10018","city":"10018020","village":"水田里","number":"O020000189","name":"新竹市演藝廳3樓廳外女廁","address":"新竹市北　區水田里東大路二段17號","administration":"新竹市文化局","latitude":"24.81142","longitude":"120.96829","grade":"特優級","type2":"文化育樂活動場所","type":"女廁所","exec":null,"diaper":null},{"country":"10018","city":"10018020","village":"水田里","number":"O020000188","name":"新竹市演藝廳3樓廳外男廁","address":"新竹市北　區水田里東大路二段17號","administration":"新竹市文化局","latitude":"24.81142","longitude":"120.96829","grade":"特優級","type2":"文化育樂活動場所","type":"男廁所","exec":null,"diaper":null},{"country":"10018","city":"10018020","village":"水田里","number":"O020000187","name":"新竹市演藝廳3樓廳內女廁","address":"新竹市北　區水田里東大路二段17號","administration":"新竹市文化局","latitude":"24.81142","longitude":"120.96829","grade":"特優級","type2":"文化育樂活動場所","type":"女廁所","exec":null,"diaper":null},{"country":"10018","city":"10018020","village":"水田里","number":"O020000186","name":"新竹市演藝廳3樓廳內男廁","address":"新竹市北　區水田里東大路二段17號","administration":"新竹市文化局","latitude":"24.81142","longitude":"120.96829","grade":"特優級","type2":"文化育樂活動場所","type":"男廁所","exec":null,"diaper":null},{"country":"10018","city":"10018020","village":"水田里","number":"O020000185","name":"新竹市演藝廳2樓廳內女廁","address":"新竹市北　區水田里東大路二段17號","administration":"新竹市文化局","latitude":"24.81142","longitude":"120.96829","grade":"特優級","type2":"文化育樂活動場所","type":"女廁所","exec":null,"diaper":null},{"country":"10018","city":"10018020","village":"水田里","number":"O020000184","name":"新竹市演藝廳2樓廳內男廁","address":"新竹市北　區水田里東大路二段17號","administration":"新竹市文化局","latitude":"24.81142","longitude":"120.96829","grade":"特優級","type2":"文化育樂活動場所","type":"男廁所","exec":null,"diaper":null},{"country":"10018","city":"10018020","village":"水田里","number":"O020000183","name":"新竹市演藝廳1樓碼頭區女廁","address":"新竹市北　區水田里東大路二段17號","administration":"新竹市文化局","latitude":"24.81142","longitude":"120.96829","grade":"特優級","type2":"文化育樂活動場所","type":"女廁所","exec":null,"diaper":null},{"country":"10018","city":"10018020","village":"水田里","number":"O020000182","name":"新竹市演藝廳1樓碼頭區男廁","address":"新竹市北　區水田里東大路二段17號","administration":"新竹市文化局","latitude":"24.81142","longitude":"120.96829","grade":"特優級","type2":"文化育樂活動場所","type":"男廁所","exec":null,"diaper":null},{"country":"10018","city":"10018010","village":"南市里","number":"O010000048","name":"大遠百(新竹分公司)B1女廁","address":"新竹市東　區南市里西大路323號","administration":"其他","latitude":"24.80218","longitude":"120.96521","grade":"特優級","type2":"商業營業場所","type":"女廁所","exec":null,"diaper":null},{"country":"10018","city":"10018010","village":"埔頂里","number":"O010001305","name":"好市多Costco新竹店B3停車場女廁","address":"新竹市東　區埔頂里慈雲路188號","administration":"好市多股份有限公司新竹分公司","latitude":"24.793341","longitude":"121.013246","grade":"特優級","type2":"商業營業場所","type":"女廁所","exec":null,"diaper":null},{"country":"10018","city":"10018010","village":"埔頂里","number":"O010001304","name":"好市多Costco新竹店B3停車場男廁","address":"新竹市東　區埔頂里慈雲路188號","administration":"好市多股份有限公司新竹分公司","latitude":"24.793341","longitude":"121.013246","grade":"特優級","type2":"商業營業場所","type":"男廁所","exec":null,"diaper":null},{"country":"10018","city":"10018010","village":"埔頂里","number":"O010001303","name":"好市多Costco新竹店B2停車場女廁","address":"新竹市東　區埔頂里慈雲路188號","administration":"好市多股份有限公司新竹分公司","latitude":"24.793341","longitude":"121.013246","grade":"特優級","type2":"商業營業場所","type":"女廁所","exec":null,"diaper":null},{"country":"10018","city":"10018010","village":"埔頂里","number":"O010001302","name":"好市多Costco新竹店B2停車場男廁","address":"新竹市東　區埔頂里慈雲路188號","administration":"好市多股份有限公司新竹分公司","latitude":"24.793341","longitude":"121.013246","grade":"特優級","type2":"商業營業場所","type":"男廁所","exec":null,"diaper":null},{"country":"10018","city":"10018010","village":"埔頂里","number":"O010001301","name":"好市多Costco新竹店B1停車場無障礙廁所","address":"新竹市東　區埔頂里慈雲路188號","administration":"好市多股份有限公司新竹分公司","latitude":"24.793341","longitude":"121.013246","grade":"特優級","type2":"商業營業場所","type":"無障礙廁所","exec":null,"diaper":null},{"country":"10018","city":"10018010","village":"埔頂里","number":"O010001300","name":"好市多Costco新竹店B1停車場女廁","address":"新竹市東　區埔頂里慈雲路188號","administration":"好市多股份有限公司新竹分公司","latitude":"24.793341","longitude":"121.013246","grade":"特優級","type2":"商業營業場所","type":"女廁所","exec":null,"diaper":null},{"country":"10018","city":"10018010","village":"埔頂里","number":"O010001299","name":"好市多Costco新竹店B1停車場男廁","address":"新竹市東　區埔頂里慈雲路188號","administration":"好市多股份有限公司新竹分公司","latitude":"24.793341","longitude":"121.013246","grade":"特優級","type2":"商業營業場所","type":"男廁所","exec":null,"diaper":null},{"country":"10018","city":"10018010","village":"埔頂里","number":"O010001298","name":"好市多Costco新竹店1樓賣場內女廁","address":"新竹市東　區埔頂里慈雲路188號","administration":"好市多股份有限公司新竹分公司","latitude":"24.793341","longitude":"121.013246","grade":"特優級","type2":"商業營業場所","type":"女廁所","exec":null,"diaper":null},{"country":"10018","city":"10018010","village":"埔頂里","number":"O010001297","name":"好市多Costco新竹店1樓賣場內男廁","address":"新竹市東　區埔頂里慈雲路188號","administration":"好市多股份有限公司新竹分公司","latitude":"24.793341","longitude":"121.013246","grade":"特優級","type2":"商業營業場所","type":"男廁所","exec":null,"diaper":null},{"country":"10018","city":"10018010","village":"下竹里","number":"O010000120","name":"新竹轉運站無障礙廁所","address":"新竹市東　區下竹里東南街一巷6號","administration":"新竹市交通處","latitude":"24.80123","longitude":"120.97197","grade":"特優級","type2":"交通","type":"無障礙廁所","exec":null,"diaper":null},{"country":"10018","city":"10018030","village":"茄苳里","number":"O030000524","name":"台灣中油茄苳加盟站女廁","address":"新竹市香山區茄苳里五福路2段900號","administration":"台灣中油茄苳加盟站","latitude":"24.754414","longitude":"120.954309","grade":"特優級","type2":"商業營業場所","type":"女廁所","exec":null,"diaper":null},{"country":"10018","city":"10018030","village":"茄苳里","number":"O030000523","name":"台灣中油茄苳加盟站男廁","address":"新竹市香山區茄苳里五福路2段900號","administration":"台灣中油茄苳加盟站","latitude":"24.754414","longitude":"120.954309","grade":"特優級","type2":"商業營業場所","type":"男廁所","exec":null,"diaper":null},{"country":"10018","city":"10018030","village":"大庄里","number":"O030000479","name":"吳先生廟旁男廁","address":"新竹市香山區大庄里西濱路三段20巷附近","administration":"新竹市政府工務處","latitude":"24.79301","longitude":"120.91881","grade":"特優級","type2":"觀光地區及風景區","type":"男廁所","exec":null,"diaper":null},{"country":"10018","city":"10018010","village":"復中里","number":"O010000455","name":"新竹巿衛生局男廁","address":"新竹市東　區復中里中央路241號","administration":"新竹市衛生局","latitude":"24.80972","longitude":"120.97636","grade":"特優級","type2":"民眾洽公場所","type":"男廁所","exec":null,"diaper":null},{"country":"10018","city":"10018010","village":"南市里","number":"O010000008","name":"大遠百威秀影城女廁","address":"新竹市東　區南市里西大路323號","administration":"大遠百威秀影城","latitude":"24.80218","longitude":"120.96521","grade":"特優級","type2":"休閒娛樂場所","type":"女廁所","exec":null,"diaper":null},{"country":"10018","city":"10018010","village":"南市里","number":"O010000007","name":"大遠百威秀影城男廁","address":"新竹市東　區南市里西大路323號","administration":"大遠百威秀影城","latitude":"24.80218","longitude":"120.96521","grade":"特優級","type2":"休閒娛樂場所","type":"男廁所","exec":null,"diaper":null},{"country":"10018","city":"10018010","village":"三民里","number":"O010000459","name":"台灣中油民華加油站無障礙廁所","address":"新竹市東　區三民里中華路２段156號","administration":"台灣中油民華加油站","latitude":"24.80683","longitude":"120.97877","grade":"特優級","type2":"商業營業場所","type":"無障礙廁所","exec":null,"diaper":null},{"country":"10018","city":"10018030","village":"牛埔里","number":"O030000169","name":"新竹市香山區公所親子廁所","address":"新竹市香山區牛埔里育德街188號","administration":"新竹市香山區公所","latitude":"24.79429","longitude":"120.94249","grade":"特優級","type2":"民眾洽公場所","type":"親子廁所","exec":null,"diaper":null},{"country":"10018","city":"10018030","village":"牛埔里","number":"O030000168","name":"新竹市香山區公所女廁","address":"新竹市香山區牛埔里育德街188號","administration":"新竹市香山區公所","latitude":"24.79429","longitude":"120.94249","grade":"特優級","type2":"民眾洽公場所","type":"女廁所","exec":null,"diaper":null},{"country":"10018","city":"10018030","village":"牛埔里","number":"O030000167","name":"新竹市香山區公所男廁","address":"新竹市香山區牛埔里育德街188號","administration":"新竹市香山區公所","latitude":"24.79429","longitude":"120.94249","grade":"特優級","type2":"民眾洽公場所","type":"男廁所","exec":null,"diaper":null},{"country":"10018","city":"10018030","village":"牛埔里","number":"O030000166","name":"新竹市香山戶政事務所親子廁所","address":"新竹市香山區牛埔里育德街188號","administration":"新竹市香山戶政事務所","latitude":"24.79429","longitude":"120.94257","grade":"特優級","type2":"民眾洽公場所","type":"親子廁所","exec":null,"diaper":null},{"country":"10018","city":"10018030","village":"牛埔里","number":"O030000165","name":"新竹市香山戶政事務所女廁","address":"新竹市香山區牛埔里育德街188號","administration":"新竹市香山戶政事務所","latitude":"24.79429","longitude":"120.94257","grade":"特優級","type2":"民眾洽公場所","type":"女廁所","exec":null,"diaper":null},{"country":"10018","city":"10018030","village":"牛埔里","number":"O030000164","name":"新竹市香山戶政事務所男廁","address":"新竹市香山區牛埔里育德街188號","administration":"新竹市香山戶政事務所","latitude":"24.79429","longitude":"120.94257","grade":"特優級","type2":"民眾洽公場所","type":"男廁所","exec":null,"diaper":null},{"country":"10018","city":"10018030","village":"牛埔里","number":"O030000163","name":"新竹巿香山衛生所親子廁所","address":"新竹市香山區牛埔里育德街188號","administration":"新竹巿香山衛生所","latitude":"24.79429","longitude":"120.94257","grade":"特優級","type2":"民眾洽公場所","type":"親子廁所","exec":null,"diaper":null},{"country":"10018","city":"10018030","village":"香山里","number":"O030000393","name":"三姓橋火車站無障礙廁所","address":"新竹市香山區香山里元培街32巷30號","administration":"交通部臺灣鐵路管理局","latitude":"24.78726","longitude":"120.92849","grade":"特優級","type2":"交通","type":"無障礙廁所","exec":null,"diaper":null},{"country":"10018","city":"10018030","village":"香山里","number":"O030000392","name":"三姓橋火車站女廁","address":"新竹市香山區香山里元培街32巷30號","administration":"交通部臺灣鐵路管理局","latitude":"24.78726","longitude":"120.92849","grade":"特優級","type2":"交通","type":"女廁所","exec":null,"diaper":null},{"country":"10018","city":"10018030","village":"香山里","number":"O030000391","name":"三姓橋火車站男廁","address":"新竹市香山區香山里元培街32巷30號","administration":"交通部臺灣鐵路管理局","latitude":"24.78726","longitude":"120.92849","grade":"特優級","type2":"交通","type":"男廁所","exec":null,"diaper":null},{"country":"10018","city":"10018020","village":"西雅里","number":"O020000445","name":"台塑石油新竹中山站女廁","address":"新竹市北　區西雅里中山路332號","administration":"台朔石油台亞新竹中山站","latitude":"24.801348","longitude":"120.960168","grade":"特優級","type2":"商業營業場所","type":"女廁所","exec":null,"diaper":null},{"country":"10018","city":"10018010","village":"下竹里","number":"O010000118","name":"新竹轉運站男廁","address":"新竹市東　區下竹里東南街一巷6號","administration":"新竹交通處","latitude":"24.80123","longitude":"120.97197","grade":"特優級","type2":"交通","type":"男廁所","exec":null,"diaper":null},{"country":"10018","city":"10018020","village":"西雅里","number":"O020000444","name":"台塑石油新竹中山站男廁","address":"新竹市北　區西雅里中山路332號","administration":"台朔石油台亞新竹中山站","latitude":"24.801348","longitude":"120.960168","grade":"特優級","type2":"商業營業場所","type":"男廁所","exec":null,"diaper":null},{"country":"10018","city":"10018010","village":"公園里","number":"O010000281","name":"新竹市立體育館地下一樓右側1女廁","address":"新竹市東　區公園里公園路295號","administration":"新竹市立體育場","latitude":"24.79958","longitude":"120.97893","grade":"特優級","type2":"文化育樂活動場所","type":"女廁所","exec":null,"diaper":null},{"country":"10018","city":"10018010","village":"公園里","number":"O010000263","name":"新竹市立體育館二樓左側1女廁","address":"新竹市東　區公園里公園路295號","administration":"新竹市立體育場","latitude":"24.79958","longitude":"120.97893","grade":"特優級","type2":"文化育樂活動場所","type":"女廁所","exec":null,"diaper":null},{"country":"10018","city":"10018010","village":"公園里","number":"O010000262","name":"新竹市立體育館二樓左側1男廁","address":"新竹市東　區公園里公園路295號","administration":"新竹市立體育場","latitude":"24.79958","longitude":"120.97893","grade":"特優級","type2":"文化育樂活動場所","type":"男廁所","exec":null,"diaper":null},{"country":"10018","city":"10018020","village":"南勢里","number":"O020000465","name":"全家便利商店-新竹金鵬門市男女混合廁所","address":"新竹市北　區南勢里延平路一段388號","administration":"全家便利商店-新竹金鵬門市","latitude":"24.80516","longitude":"120.94915","grade":"特優級","type2":"商業營業場所","type":"混合廁所","exec":null,"diaper":null},{"country":"10018","city":"10018020","village":"南寮里","number":"O020000691","name":"新竹漁港魚鱗天梯旁親子廁所","address":"新竹市北　區南寮里新港四路魚鱗天梯旁","administration":"新竹市政府產業發展處","latitude":"24.85132","longitude":"120.92299","grade":"特優級","type2":"觀光地區及風景區","type":"親子廁所","exec":null,"diaper":null},{"country":"10018","city":"10018020","village":"南寮里","number":"O020000690","name":"新竹漁港魚鱗天梯旁無障礙廁所","address":"新竹市北　區南寮里新港四路魚鱗天梯旁","administration":"新竹市政府產業發展處","latitude":"24.85132","longitude":"120.92299","grade":"特優級","type2":"觀光地區及風景區","type":"無障礙廁所","exec":null,"diaper":null},{"country":"10018","city":"10018010","village":"龍山里","number":"O010001814","name":"新竹市身心障礙者就業綜合大樓2樓左1無障礙廁所","address":"新竹市東　區龍山里龍山西路99號","administration":"新竹市政府勞工及青年處","latitude":"24.79038","longitude":"121.00993","grade":"特優級","type2":"民眾洽公場所","type":"無障礙廁所","exec":null,"diaper":null},{"country":"10018","city":"10018010","village":"龍山里","number":"O010001813","name":"新竹市身心障礙者就業綜合大樓2樓女廁","address":"新竹市東　區龍山里龍山西路99號","administration":"新竹市政府勞工及青年處","latitude":"24.79038","longitude":"121.00993","grade":"特優級","type2":"民眾洽公場所","type":"女廁所","exec":null,"diaper":null},{"country":"10018","city":"10018010","village":"龍山里","number":"O010001812","name":"新竹市身心障礙者就業綜合大樓2樓男廁","address":"新竹市東　區龍山里龍山西路99號","administration":"新竹市政府勞工及青年處","latitude":"24.79038","longitude":"121.00993","grade":"特優級","type2":"民眾洽公場所","type":"男廁所","exec":null,"diaper":null},{"country":"10018","city":"10018010","village":"前溪里","number":"O010001254","name":"台灣中油佳隆加盟站無障礙廁所","address":"新竹市東　區前溪里公道五路三段669號","administration":"台灣中油佳隆加盟站","latitude":"24.821598","longitude":"120.980956","grade":"特優級","type2":"商業營業場所","type":"無障礙廁所","exec":null,"diaper":null},{"country":"10018","city":"10018010","village":"前溪里","number":"O010001251","name":"台灣中油昌隆加盟站無障礙廁所","address":"新竹市東　區前溪里公道五路三段669號","administration":"台灣中油昌隆加盟站","latitude":"24.821189","longitude":"120.980723","grade":"特優級","type2":"商業營業場所","type":"無障礙廁所","exec":null,"diaper":null},{"country":"10018","city":"10018010","village":"前溪里","number":"O010001253","name":"台灣中油佳隆加盟站女廁","address":"新竹市東　區前溪里公道五路三段669號","administration":"台灣中油佳隆加盟站","latitude":"24.821598","longitude":"120.980956","grade":"特優級","type2":"商業營業場所","type":"女廁所","exec":null,"diaper":null},{"country":"10018","city":"10018010","village":"前溪里","number":"O010001252","name":"台灣中油佳隆加盟站男廁","address":"新竹市東　區前溪里公道五路三段669號","administration":"台灣中油佳隆加盟站","latitude":"24.821598","longitude":"120.980956","grade":"特優級","type2":"商業營業場所","type":"男廁所","exec":null,"diaper":null},{"country":"10018","city":"10018010","village":"前溪里","number":"O010001250","name":"台灣中油昌隆加盟站女廁","address":"新竹市東　區前溪里公道五路三段669號","administration":"台灣中油昌隆加盟站","latitude":"24.821189","longitude":"120.980723","grade":"特優級","type2":"商業營業場所","type":"女廁所","exec":null,"diaper":null},{"country":"10018","city":"10018010","village":"前溪里","number":"O010001249","name":"台灣中油昌隆加盟站男廁","address":"新竹市東　區前溪里公道五路三段669號","administration":"台灣中油昌隆加盟站","latitude":"24.821189","longitude":"120.980723","grade":"特優級","type2":"商業營業場所","type":"男廁所","exec":null,"diaper":null},{"country":"10018","city":"10018020","village":"海濱里","number":"O020000365","name":"台灣中油尚隆加盟站男廁","address":"新竹市北　區海濱里天府路二段51號","administration":"台灣中油尚隆加盟站","latitude":"24.839623","longitude":"120.929283","grade":"特優級","type2":"商業營業場所","type":"男廁所","exec":null,"diaper":null},{"country":"10018","city":"10018030","village":"內湖里","number":"O030000546","name":"全國加油(股)公司新竹站無障礙廁所","address":"新竹市香山區內湖里中華路六段182號","administration":"全國加油(股)公司新竹站","latitude":"24.745481","longitude":"120.906161","grade":"特優級","type2":"商業營業場所","type":"無障礙廁所","exec":null,"diaper":null},{"country":"10018","city":"10018030","village":"內湖里","number":"O030000545","name":"全國加油(股)公司新竹站女廁","address":"新竹市香山區內湖里中華路六段182號","administration":"全國加油(股)公司新竹站","latitude":"24.745481","longitude":"120.906161","grade":"特優級","type2":"商業營業場所","type":"女廁所","exec":null,"diaper":null},{"country":"10018","city":"10018030","village":"內湖里","number":"O030000544","name":"全國加油(股)公司新竹站男廁","address":"新竹市香山區內湖里中華路六段182號","administration":"全國加油(股)公司新竹站","latitude":"24.745481","longitude":"120.906161","grade":"特優級","type2":"商業營業場所","type":"男廁所","exec":null,"diaper":null},{"country":"10018","city":"10018010","village":"公園里","number":"O010000287","name":"新竹市立動物園地下停車場入口無障礙廁所","address":"新竹市東　區公園里食品路50號","administration":"新竹市政府交通處","latitude":"24.80103","longitude":"120.98216","grade":"特優級","type2":"交通","type":"無障礙廁所","exec":null,"diaper":null},{"country":"10018","city":"10018010","village":"公園里","number":"O010000286","name":"新竹市立動物園地下停車場入口女廁","address":"新竹市東　區公園里食品路50號","administration":"新竹市政府交通處","latitude":"24.80103","longitude":"120.98216","grade":"特優級","type2":"交通","type":"女廁所","exec":null,"diaper":null},{"country":"10018","city":"10018010","village":"公園里","number":"O010000271","name":"新竹市立體育館一樓右側女廁","address":"新竹市東　區公園里公園路295號","administration":"新竹市立體育場","latitude":"24.79958","longitude":"120.97893","grade":"特優級","type2":"文化育樂活動場所","type":"女廁所","exec":null,"diaper":null},{"country":"10018","city":"10018010","village":"公園里","number":"O010000270","name":"新竹市立體育館一樓右側男廁","address":"新竹市東　區公園里公園路295號","administration":"新竹市立體育場","latitude":"24.79958","longitude":"120.97893","grade":"特優級","type2":"文化育樂活動場所","type":"男廁所","exec":null,"diaper":null},{"country":"10018","city":"10018010","village":"公園里","number":"O010000269","name":"新竹市立體育館二樓右側1女廁","address":"新竹市東　區公園里公園路295號","administration":"新竹市立體育場","latitude":"24.79958","longitude":"120.97893","grade":"特優級","type2":"文化育樂活動場所","type":"女廁所","exec":null,"diaper":null},{"country":"10018","city":"10018010","village":"公園里","number":"O010000268","name":"新竹市立體育館二樓右側1男廁","address":"新竹市東　區公園里公園路295號","administration":"新竹市立體育場","latitude":"24.79958","longitude":"120.97893","grade":"特優級","type2":"文化育樂活動場所","type":"男廁所","exec":null,"diaper":null},{"country":"10018","city":"10018010","village":"公園里","number":"O010000267","name":"新竹市立體育館二樓右側2女廁","address":"新竹市東　區公園里公園路295號","administration":"新竹市立體育場","latitude":"24.79958","longitude":"120.97893","grade":"特優級","type2":"文化育樂活動場所","type":"女廁所","exec":null,"diaper":null},{"country":"10018","city":"10018010","village":"金山里","number":"O010001414","name":"文化局圖書館金山分館男廁","address":"新竹市東　區金山里光復路一段163巷53弄1-4號2樓 ","administration":"新竹市文化局","latitude":"24.78013","longitude":"121.02183","grade":"特優級","type2":"文化育樂活動場所","type":"男廁所","exec":null,"diaper":null},{"country":"10018","city":"10018020","village":"南寮里","number":"O020000340","name":"文化局圖書館南寮分館無障礙廁所","address":"新竹市北　區南寮里中光路17號","administration":"新竹市文化局","latitude":"24.84075","longitude":"120.93472","grade":"特優級","type2":"文化育樂活動場所","type":"無障礙廁所","exec":null,"diaper":null},{"country":"10018","city":"10018020","village":"南寮里","number":"O020000339","name":"文化局圖書館南寮分館女廁","address":"新竹市北　區南寮里中光路17號","administration":"新竹市文化局","latitude":"24.84075","longitude":"120.93472","grade":"特優級","type2":"文化育樂活動場所","type":"女廁所","exec":null,"diaper":null},{"country":"10018","city":"10018020","village":"磐石里","number":"O020000468","name":"全家便利商店-大竹門市男女混合廁所","address":"新竹市北　區磐石里西大路848號","administration":"全家便利商店-大竹門市","latitude":"24.81147","longitude":"120.95642","grade":"特優級","type2":"商業營業場所","type":"混合廁所","exec":null,"diaper":null},{"country":"10018","city":"10018020","village":"福林里","number":"O020000205","name":"新竹市士林公有零售市場女廁","address":"新竹市北　區福林里東大路2段477號","administration":"新竹市政府產業發展處","latitude":"24.82072","longitude":"120.96037","grade":"特優級","type2":"商業營業場所","type":"女廁所","exec":null,"diaper":null},{"country":"10018","city":"10018020","village":"南寮里","number":"O020000322","name":"南寮市場無障礙廁所","address":"新竹市北　區南寮里東大路4段32號","administration":"新竹市政府產業發展處","latitude":"24.84151","longitude":"120.93619","grade":"特優級","type2":"商業營業場所","type":"無障礙廁所","exec":null,"diaper":null},{"country":"10018","city":"10018020","village":"南寮里","number":"O020000321","name":"南寮市場女廁","address":"新竹市北　區南寮里東大路4段32號","administration":"新竹市政府產業發展處","latitude":"24.84151","longitude":"120.93619","grade":"特優級","type2":"商業營業場所","type":"女廁所","exec":null,"diaper":null},{"country":"10018","city":"10018020","village":"南寮里","number":"O020000293","name":"南寮旅遊服務中心無障礙廁所","address":"新竹市北　區南寮里南寮街261號","administration":"新竹市政府產業發展處","latitude":"24.84899","longitude":"120.92808","grade":"特優級","type2":"觀光地區及風景區","type":"無障礙廁所","exec":null,"diaper":null},{"country":"10018","city":"10018020","village":"南寮里","number":"O020000292","name":"南寮旅遊服務中心女廁","address":"新竹市北　區南寮里南寮街261號","administration":"新竹市政府產業發展處","latitude":"24.84899","longitude":"120.92808","grade":"特優級","type2":"觀光地區及風景區","type":"女廁所","exec":null,"diaper":null},{"country":"10018","city":"10018020","village":"南寮里","number":"O020000297","name":"舊漁港親子廁所(靠近女廁)","address":"新竹市北　區南寮里南寮街241號","administration":"新竹市政府產業發展處","latitude":"24.85012","longitude":"120.92924","grade":"特優級","type2":"觀光地區及風景區","type":"親子廁所","exec":null,"diaper":null},{"country":"10018","city":"10018020","village":"南寮里","number":"O020000296","name":"舊漁港親子廁所(靠近男廁)","address":"新竹市北　區南寮里南寮街241號","administration":"新竹市政府產業發展處","latitude":"24.85012","longitude":"120.92924","grade":"特優級","type2":"觀光地區及風景區","type":"親子廁所","exec":null,"diaper":null},{"country":"10018","city":"10018020","village":"南寮里","number":"O020000295","name":"舊漁港女廁","address":"新竹市北　區南寮里南寮街241號","administration":"新竹市政府產業發展處","latitude":"24.85012","longitude":"120.92924","grade":"特優級","type2":"觀光地區及風景區","type":"女廁所","exec":null,"diaper":null},{"country":"10018","city":"10018020","village":"南寮里","number":"O020000304","name":"台灣中油南寮加油站女廁","address":"新竹市北　區南寮里東大路四段292號","administration":"台灣中油南寮加油站","latitude":"24.845649","longitude":"120.92791","grade":"特優級","type2":"商業營業場所","type":"女廁所","exec":null,"diaper":null},{"country":"10018","city":"10018010","village":"三民里","number":"O010001584","name":"三民公園女廁","address":"新竹市東　區三民里自由路27巷37號對面","administration":"新竹市公園及觀光區設施維護管理中心","latitude":"24.81104","longitude":"120.98047","grade":"特優級","type2":"公園","type":"女廁所","exec":null,"diaper":null},{"country":"10018","city":"10018010","village":"三民里","number":"O010000458","name":"台灣中油民華加油站女廁","address":"新竹市東　區三民里中華路２段156號","administration":"台灣中油民華加油站","latitude":"24.80683","longitude":"120.97877","grade":"特優級","type2":"商業營業場所","type":"女廁所","exec":null,"diaper":null},{"country":"10018","city":"10018010","village":"建華里","number":"O010001532","name":"十八尖山寶山路入口-4無障礙廁所","address":"新竹市東　區建華里十八尖山","administration":"新竹市公園及觀光區設施維護管理中心","latitude":"24.79053","longitude":"120.97936","grade":"特優級","type2":"觀光地區及風景區","type":"無障礙廁所","exec":null,"diaper":null},{"country":"10018","city":"10018010","village":"南市里","number":"O010000046","name":"大遠百(新竹分公司)9樓後無障礙廁所","address":"新竹市東　區南市里西大路","administration":"其他","latitude":"24.80218","longitude":"120.96521","grade":"特優級","type2":"商業營業場所","type":"無障礙廁所","exec":null,"diaper":null},{"country":"10018","city":"10018010","village":"南市里","number":"O010000045","name":"大遠百(新竹分公司)9樓後女廁","address":"新竹市東　區南市里西大路","administration":"其他","latitude":"24.80218","longitude":"120.96521","grade":"特優級","type2":"商業營業場所","type":"女廁所","exec":null,"diaper":null},{"country":"10018","city":"10018010","village":"南市里","number":"O010000044","name":"大遠百(新竹分公司)9樓後男廁","address":"新竹市東　區南市里西大路","administration":"其他","latitude":"24.80218","longitude":"120.96521","grade":"特優級","type2":"商業營業場所","type":"男廁所","exec":null,"diaper":null},{"country":"10018","city":"10018010","village":"南市里","number":"O010000040","name":"大遠百(新竹分公司)7樓後女廁","address":"新竹市東　區南市里西大路","administration":"其他","latitude":"24.80218","longitude":"120.96521","grade":"特優級","type2":"商業營業場所","type":"女廁所","exec":null,"diaper":null},{"country":"10018","city":"10018010","village":"南市里","number":"O010000039","name":"大遠百(新竹分公司)7樓後男廁","address":"新竹市東　區南市里西大路","administration":"其他","latitude":"24.80218","longitude":"120.96521","grade":"特優級","type2":"商業營業場所","type":"男廁所","exec":null,"diaper":null},{"country":"10018","city":"10018010","village":"南市里","number":"O010000038","name":"大遠百(新竹分公司)7樓前女廁","address":"新竹市東　區南市里西大路","administration":"其他","latitude":"24.80218","longitude":"120.96521","grade":"特優級","type2":"商業營業場所","type":"女廁所","exec":null,"diaper":null},{"country":"10018","city":"10018010","village":"南市里","number":"O010000037","name":"大遠百(新竹分公司)7樓前男廁","address":"新竹市東　區南市里西大路","administration":"其他","latitude":"24.80218","longitude":"120.96521","grade":"特優級","type2":"商業營業場所","type":"男廁所","exec":null,"diaper":null},{"country":"10018","city":"10018010","village":"南市里","number":"O010000036","name":"大遠百(新竹分公司)6樓後女廁","address":"新竹市東　區南市里西大路323號","administration":"其他","latitude":"24.802185","longitude":"120.965211","grade":"特優級","type2":"商業營業場所","type":"女廁所","exec":null,"diaper":null},{"country":"10018","city":"10018010","village":"東勢里","number":"O010000665","name":"大潤發(忠孝店)飲食部女廁","address":"新竹市東　區東勢里大潤發(忠孝店)量販部無障礙廁","administration":"大潤發(忠孝店)","latitude":"24.805488","longitude":"120.98476","grade":"特優級","type2":"商業營業場所","type":"女廁所","exec":null,"diaper":null},{"country":"10018","city":"10018010","village":"東勢里","number":"O010000663","name":"大潤發(忠孝店)量販部無障礙廁所","address":"新竹市東　區東勢里大潤發(忠孝店)量販部無障礙廁","administration":"大潤發(忠孝店)","latitude":"24.805488","longitude":"120.98476","grade":"特優級","type2":"商業營業場所","type":"無障礙廁所","exec":null,"diaper":null},{"country":"10018","city":"10018020","village":"光田里","number":"O020000197","name":"7-11便利商店-竹陵門市男女混合廁所","address":"新竹市北　區光田里東大路二段174號","administration":"7-11便利商店-竹陵門市","latitude":"24.81650749","longitude":"120.967176","grade":"特優級","type2":"商業營業場所","type":"混合廁所","exec":null,"diaper":null},{"country":"10018","city":"10018030","village":"頂福里","number":"O030000594","name":"景觀大道女廁","address":"新竹市香山區頂福里香山區茄苳景觀大道201號前","administration":"新竹市公園及觀光區設施維護管理中心","latitude":"24.78697416","longitude":"120.9496579","grade":"特優級","type2":"觀光地區及風景區","type":"女廁所","exec":null,"diaper":null},{"country":"10018","city":"10018010","village":"明湖里","number":"O010001752","name":"青草湖風景區無障礙廁所","address":"新竹市東　區明湖里明湖路1075巷","administration":"新竹市公園及觀光區設施維護管理中心","latitude":"24.77431","longitude":"120.96979","grade":"特優級","type2":"觀光地區及風景區","type":"無障礙廁所","exec":null,"diaper":null},{"country":"10018","city":"10018010","village":"明湖里","number":"O010001751","name":"青草湖風景區女廁","address":"新竹市東　區明湖里明湖路1075巷","administration":"新竹市公園及觀光區設施維護管理中心","latitude":"24.77431","longitude":"120.96979","grade":"特優級","type2":"觀光地區及風景區","type":"女廁所","exec":null,"diaper":null},{"country":"10018","city":"10018030","village":"東香里","number":"O030000181","name":"香山客運轉運站無障礙廁所","address":"新竹市香山區東香里五福路二段757號之1旁","administration":"蔡錦基","latitude":"24.75556","longitude":"120.95293","grade":"特優級","type2":"交通","type":"無障礙廁所","exec":null,"diaper":null},{"country":"10018","city":"10018030","village":"東香里","number":"O030000180","name":"香山客運轉運站女廁","address":"新竹市香山區東香里五福路二段757號之1旁","administration":"蔡錦基","latitude":"24.75556","longitude":"120.95293","grade":"特優級","type2":"交通","type":"女廁所","exec":null,"diaper":null},{"country":"10018","city":"10018020","village":"港北里","number":"O020000354","name":"海天一線(下)無障礙廁所","address":"新竹市北　區港北里海濱路","administration":"新竹市公園及觀光區設施維護管理中心","latitude":"24.83232","longitude":"120.91511","grade":"特優級","type2":"觀光地區及風景區","type":"無障礙廁所","exec":null,"diaper":null},{"country":"10018","city":"10018020","village":"港北里","number":"O020000353","name":"海天一線(下)女廁","address":"新竹市北　區港北里海濱路","administration":"新竹市公園及觀光區設施維護管理中心","latitude":"24.83232","longitude":"120.91511","grade":"特優級","type2":"觀光地區及風景區","type":"女廁所","exec":null,"diaper":null},{"country":"10018","city":"10018020","village":"海濱里","number":"O020000364","name":"(幸福沙灣)看海公園(下)無障礙廁所","address":"新竹市北　區海濱里海濱路","administration":"新竹市公園及觀光區設施維護管理中心","latitude":"24.83648","longitude":"120.91997","grade":"特優級","type2":"觀光地區及風景區","type":"無障礙廁所","exec":null,"diaper":null},{"country":"10018","city":"10018020","village":"長和里","number":"O020000093","name":"長和宮2樓女廁","address":"新竹市北　區長和里北門街135號","administration":"長和宮","latitude":"24.80855","longitude":"120.96486","grade":"特優級","type2":"宗教禮儀場所","type":"女廁所","exec":null,"diaper":null},{"country":"10018","city":"10018020","village":"長和里","number":"O020000092","name":"長和宮2樓男廁","address":"新竹市北　區長和里北門街135號","administration":"長和宮","latitude":"24.80855","longitude":"120.96486","grade":"特優級","type2":"宗教禮儀場所","type":"男廁所","exec":null,"diaper":null},{"country":"10018","city":"10018010","village":"南大里","number":"O010000323","name":"竹蓮市場1樓-B男廁","address":"新竹市東　區南大里竹蓮街15號","administration":"新竹市政府產業發展處","latitude":"24.79707","longitude":"120.97191","grade":"特優級","type2":"商業營業場所","type":"男廁所","exec":null,"diaper":null},{"country":"10018","city":"10018030","village":"東香里","number":"O030000179","name":"香山客運轉運站男廁","address":"新竹市香山區東香里五福路二段757號之1旁","administration":"蔡錦基","latitude":"24.75556","longitude":"120.95293","grade":"特優級","type2":"交通","type":"男廁所","exec":null,"diaper":null},{"country":"10018","city":"10018010","village":"竹蓮里","number":"O010000121","name":"竹蓮寺男廁","address":"新竹市東　區竹蓮里竹蓮街100號","administration":"竹蓮寺","latitude":"24.79888","longitude":"120.97002","grade":"特優級","type2":"宗教禮儀場所","type":"男廁所","exec":null,"diaper":null},{"country":"10018","city":"10018020","village":"育英里","number":"O020000424","name":"天公壇男廁","address":"新竹市北　區育英里中山路431巷36號","administration":"天公壇","latitude":"24.799703","longitude":"120.958557","grade":"特優級","type2":"宗教禮儀場所","type":"男廁所","exec":null,"diaper":null},{"country":"10018","city":"10018010","village":"育賢里","number":"O010000160","name":"新竹巿東區區公所2樓經建課旁男廁","address":"新竹市東　區育賢里民族路40號","administration":"新竹市東區區公所","latitude":"24.80522","longitude":"120.97348","grade":"特優級","type2":"民眾洽公場所","type":"男廁所","exec":null,"diaper":null},{"country":"10018","city":"10018030","village":"港南里","number":"O030000002","name":"金城湖賞鳥區女廁","address":"新竹市香山區港南里海埔路183巷","administration":"新竹市公園及觀光區設施維護管理中心","latitude":"24.81034","longitude":"120.91244","grade":"特優級","type2":"觀光地區及風景區","type":"女廁所","exec":null,"diaper":null},{"country":"10018","city":"10018030","village":"頂福里","number":"O030000593","name":"景觀大道男廁","address":"新竹市香山區頂福里香山區茄苳景觀大道201號前","administration":"新竹市公園及觀光區設施維護管理中心","latitude":"24.78712","longitude":"120.94973","grade":"特優級","type2":"觀光地區及風景區","type":"男廁所","exec":null,"diaper":null},{"country":"10018","city":"10018030","village":"南港里","number":"O030000586","name":"南港安檢所旁男廁","address":"新竹市香山區南港里南港街52巷100-1號旁邊","administration":"新竹市公園及觀光區設施維護管理中心","latitude":"24.74294","longitude":"120.89456","grade":"特優級","type2":"觀光地區及風景區","type":"男廁所","exec":null,"diaper":null},{"country":"10018","city":"10018010","village":"湖濱里","number":"O010001744","name":"客雅大道男廁","address":"新竹市東　區湖濱里客雅大道觀景平台","administration":"新竹市公園及觀光區設施維護管理中心","latitude":"24.78523","longitude":"120.96064","grade":"特優級","type2":"觀光地區及風景區","type":"男廁所","exec":null,"diaper":null},{"country":"10018","city":"10018010","village":"綠水里","number":"O010000773","name":"十八尖山博愛街入口-2女廁","address":"新竹市東　區綠水里十八尖山","administration":"新竹市公園及觀光區設施維護管理中心","latitude":"24.79108","longitude":"120.98665","grade":"特優級","type2":"觀光地區及風景區","type":"女廁所","exec":null,"diaper":null},{"country":"10018","city":"10018010","village":"明湖里","number":"O010001750","name":"青草湖風景區男廁","address":"新竹市東　區明湖里明湖路1075巷","administration":"新竹市公園及觀光區設施維護管理中心","latitude":"24.77431","longitude":"120.96979","grade":"特優級","type2":"觀光地區及風景區","type":"男廁所","exec":null,"diaper":null},{"country":"10018","city":"10018020","village":"湳中里","number":"O020000653","name":"湳雅公園混合廁所","address":"新竹市北　區湳中里湳雅街與武陵路交叉口","administration":"新竹市公園及觀光區設施維護管理中心","latitude":"24.81952","longitude":"120.96838","grade":"特優級","type2":"公園","type":"混合廁所","exec":null,"diaper":null},{"country":"10018","city":"10018020","village":"海濱里","number":"O020000355","name":"海天一線(上)男廁","address":"新竹市北　區海濱里海濱路","administration":"新竹市公園及觀光區設施維護管理中心","latitude":"24.83394","longitude":"120.91561","grade":"特優級","type2":"觀光地區及風景區","type":"男廁所","exec":null,"diaper":null},{"country":"10018","city":"10018030","village":"牛埔里","number":"O030000173","name":"牛埔停車場地下1樓男廁","address":"新竹市香山區牛埔里牛埔路387號","administration":"新竹市政府交通處","latitude":"24.79747","longitude":"120.94309","grade":"特優級","type2":"交通","type":"男廁所","exec":null,"diaper":null},{"country":"10018","city":"10018030","village":"樹下里","number":"O030000106","name":"香山綜合體育場男廁","address":"新竹市香山區樹下里香北路12號","administration":"新竹市立體育場","latitude":"24.79228","longitude":"120.93113","grade":"優等級","type2":"文化育樂活動場所","type":"男廁所","exec":null,"diaper":null},{"country":"10018","city":"10018020","village":"光華里","number":"O020000550","name":"新竹市北區衛生所男廁","address":"新竹市北　區光華里國華街69號","administration":"新竹市北區衛生所","latitude":"24.81622","longitude":"120.97036","grade":"特優級","type2":"民眾洽公場所","type":"男廁所","exec":null,"diaper":null},{"country":"10018","city":"10018020","village":"大同里","number":"O020000066","name":"青少年館男廁","address":"新竹市北　區大同里府後街58號","administration":"新竹市文化局","latitude":"24.80873","longitude":"120.96885","grade":"特優級","type2":"文化育樂活動場所","type":"男廁所","exec":null,"diaper":null},{"country":"10018","city":"10018020","village":"中央里","number":"O020000011","name":"新竹市中央商場男廁","address":"新竹市北　區中央里中央路3巷1號","administration":"新竹市政府產業發展處","latitude":"24.80406","longitude":"120.96631","grade":"特優級","type2":"商業營業場所","type":"男廁所","exec":null,"diaper":null},{"country":"10018","city":"10018020","village":"中央里","number":"O020000015","name":"新竹市中央公有零售市場女廁","address":"新竹市北　區中央里西門街2巷1號","administration":"新竹市政府產業發展處","latitude":"24.80353","longitude":"120.96626","grade":"特優級","type2":"商業營業場所","type":"女廁所","exec":null,"diaper":null},{"country":"10018","city":"10018010","village":"南市里","number":"O010000049","name":"明志書院停車場地下1樓男廁","address":"新竹市東　區南市里西大路317號","administration":"新竹市政府交通處","latitude":"24.80168","longitude":"120.96564","grade":"特優級","type2":"交通","type":"男廁所","exec":null,"diaper":null},{"country":"10018","city":"10018010","village":"三民里","number":"O010001583","name":"三民公園男廁","address":"新竹市東　區三民里自由路27巷37號對面","administration":"新竹市公園及觀光區設施維護管理中心","latitude":"24.81104","longitude":"120.98047","grade":"特優級","type2":"公園","type":"男廁所","exec":null,"diaper":null},{"country":"10018","city":"10018010","village":"中正里","number":"O010000199","name":"新竹市東門公有零售市場3樓男廁","address":"新竹市東　區中正里大同路86號","administration":"新竹市政府產業發展處","latitude":"24.804866","longitude":"120.968645","grade":"特優級","type2":"商業營業場所","type":"男廁所","exec":null,"diaper":null},{"country":"10018","city":"10018010","village":"中正里","number":"O010000197","name":"新竹市東門公有零售市場2樓男廁","address":"新竹市東　區中正里大同路86號","administration":"新竹市政府產業發展處","latitude":"24.804866","longitude":"120.968645","grade":"特優級","type2":"商業營業場所","type":"男廁所","exec":null,"diaper":null},{"country":"10018","city":"10018010","village":"中正里","number":"O010000196","name":"新竹市東門公有零售市場1樓無障礙廁所","address":"新竹市東　區中正里大同路86號","administration":"新竹市政府產業發展處","latitude":"24.80481","longitude":"120.96921","grade":"特優級","type2":"商業營業場所","type":"無障礙廁所","exec":null,"diaper":null},{"country":"10018","city":"10018010","village":"中正里","number":"O010000195","name":"新竹市東門公有零售市場1樓女廁","address":"新竹市東　區中正里大同路86號","administration":"新竹市政府產業發展處","latitude":"24.80481","longitude":"120.96921","grade":"特優級","type2":"商業營業場所","type":"女廁所","exec":null,"diaper":null},{"country":"10018","city":"10018020","village":"中央里","number":"O020000013","name":"新竹市中央商場性別友善廁所","address":"新竹市北　區中央里中央路3巷1號","administration":"新竹市政府產業發展處","latitude":"24.80406","longitude":"120.96631","grade":"特優級","type2":"商業營業場所","type":"無障礙廁所","exec":null,"diaper":null},{"country":"10018","city":"10018020","village":"中央里","number":"O020000012","name":"新竹市中央商場女廁","address":"新竹市北　區中央里中央路3巷1號","administration":"新竹市政府產業發展處","latitude":"24.80406","longitude":"120.96631","grade":"特優級","type2":"商業營業場所","type":"女廁所","exec":null,"diaper":null},{"country":"10018","city":"10018010","village":"中正里","number":"O010000207","name":"新竹市稅務局男廁","address":"新竹市東　區中正里中央路112號","administration":"新竹市稅務局","latitude":"24.80626","longitude":"120.96985","grade":"特優級","type2":"民眾洽公場所","type":"男廁所","exec":null,"diaper":null},{"country":"10018","city":"10018010","village":"福德里","number":"O010000002","name":"國泰醫院新竹分院1樓男廁","address":"新竹市東　區福德里中華路二段678號","administration":"國泰醫院新竹分院","latitude":"24.79825","longitude":"120.96522","grade":"特優級","type2":"社福機構、集會場所","type":"男廁所","exec":null,"diaper":null},{"country":"10018","city":"10018010","village":"成功里","number":"O010000113","name":"南門綜合醫院1樓男廁","address":"新竹市東　區成功里林森路20號","administration":"南門綜合醫院","latitude":"24.802219","longitude":"120.969682","grade":"特優級","type2":"社福機構、集會場所","type":"男廁所","exec":null,"diaper":null},{"country":"10018","city":"10018020","village":"福林里","number":"O020000207","name":"國軍桃園總醫院新竹分院男廁","address":"新竹市北　區福林里武陵路3號","administration":"國防部軍醫局","latitude":"24.81623","longitude":"120.96214","grade":"特優級","type2":"社福機構、集會場所","type":"男廁所","exec":null,"diaper":null},{"country":"10018","city":"10018020","village":"湳雅里","number":"O020000215","name":"大潤發(湳雅店)2樓男廁","address":"新竹市北　區湳雅里湳雅街95號","administration":"大潤發(湳雅店)","latitude":"24.818444","longitude":"120.970871","grade":"特優級","type2":"商業營業場所","type":"男廁所","exec":null,"diaper":null},{"country":"10018","city":"10018020","village":"南寮里","number":"O020000316","name":"漁港港產直銷中心2樓A北區男廁","address":"新竹市北　區南寮里新港3路1-9號","administration":"新竹市政府產業發展處","latitude":"24.84781","longitude":"120.92495","grade":"優等級","type2":"觀光地區及風景區","type":"男廁所","exec":null,"diaper":null},{"country":"10018","city":"10018020","village":"南寮里","number":"O020000312","name":"漁港港產直銷中心2樓A南區男廁","address":"新竹市北　區南寮里新港3路1-9號","administration":"新竹市政府產業發展處","latitude":"24.84781","longitude":"120.92495","grade":"優等級","type2":"觀光地區及風景區","type":"男廁所","exec":null,"diaper":null},{"country":"10018","city":"10018020","village":"南寮里","number":"O020000309","name":"漁港港產直銷中心1樓C區男廁","address":"新竹市北　區南寮里新港3路1-9號","administration":"新竹市政府產業發展處","latitude":"24.84781","longitude":"120.92495","grade":"優等級","type2":"觀光地區及風景區","type":"男廁所","exec":null,"diaper":null},{"country":"10018","city":"10018010","village":"中正里","number":"O010000198","name":"新竹市東門公有零售市場2樓女廁","address":"新竹市東　區中正里大同路86號","administration":"新竹市政府產業發展處","latitude":"24.804866","longitude":"120.968645","grade":"特優級","type2":"商業營業場所","type":"女廁所","exec":null,"diaper":null},{"country":"10018","city":"10018010","village":"東園里","number":"O010000655","name":"交通部公路總局新竹區監理所新竹市監理站女廁","address":"新竹市東　區東園里自由路10號","administration":"交通部公路總局","latitude":"24.81083","longitude":"120.98284","grade":"特優級","type2":"民眾洽公場所","type":"女廁所","exec":null,"diaper":null},{"country":"10018","city":"10018010","village":"東園里","number":"O010000654","name":"交通部公路總局新竹區監理所新竹市監理站男廁","address":"新竹市東　區東園里自由路10號","administration":"交通部公路總局","latitude":"24.81083","longitude":"120.98284","grade":"特優級","type2":"民眾洽公場所","type":"男廁所","exec":null,"diaper":null},{"country":"10018","city":"10018020","village":"南寮里","number":"O020000305","name":"台灣中油南寮加油站無障礙廁所","address":"新竹市北　區南寮里東大路四段292號","administration":"台灣中油南寮加油站","latitude":"24.845649","longitude":"120.92791","grade":"特優級","type2":"商業營業場所","type":"無障礙廁所","exec":null,"diaper":null},