[{"country":"09020","city":"09020030","village":"正義里","number":"W030000131","name":"金門航空站候機室1號無障礙廁所","address":"金門縣金湖鎮正義里尚義機場2號","administration":"交通部民用航空局","latitude":"24.43541676","longitude":"118.3679274","grade":"特優級","type2":"交通","type":"無障礙廁所","exec":null,"diaper":null},{"country":"09020","city":"09020030","village":"正義里","number":"W030000130","name":"金門航空站候機室1號女廁","address":"金門縣金湖鎮正義里尚義機場2號","administration":"交通部民用航空局","latitude":"24.43541676","longitude":"118.3679274","grade":"特優級","type2":"交通","type":"女廁所","exec":null,"diaper":null},{"country":"09020","city":"09020030","village":"正義里","number":"W030000129","name":"金門航空站候機室1號男廁","address":"金門縣金湖鎮正義里尚義機場2號","administration":"交通部民用航空局","latitude":"24.43541676","longitude":"118.3679274","grade":"特優級","type2":"交通","type":"男廁所","exec":null,"diaper":null},{"country":"09020","city":"09020030","village":"正義里","number":"W030000128","name":"金門航空站候機室2號無障礙廁所","address":"金門縣金湖鎮正義里尚義機場2號","administration":"交通部民用航空局","latitude":"24.43541676","longitude":"118.3679274","grade":"特優級","type2":"交通","type":"無障礙廁所","exec":null,"diaper":null},{"country":"09020","city":"09020030","village":"正義里","number":"W030000127","name":"金門航空站候機室2號女廁","address":"金門縣金湖鎮正義里尚義機場2號","administration":"交通部民用航空局","latitude":"24.43541676","longitude":"118.3679274","grade":"特優級","type2":"交通","type":"女廁所","exec":null,"diaper":null},{"country":"09020","city":"09020030","village":"正義里","number":"W030000126","name":"金門航空站候機室2號男廁","address":"金門縣金湖鎮正義里尚義機場2號","administration":"交通部民用航空局","latitude":"24.435551","longitude":"118.3679274","grade":"特優級","type2":"交通","type":"男廁所","exec":null,"diaper":null},{"country":"09020","city":"09020040","village":"盤山村","number":"W040000051","name":"家樂福金門店-無障礙廁所","address":"金門縣金寧鄉盤山村伯玉路二段223號","administration":"家樂福金門店","latitude":"24.44028363","longitude":"118.3380333","grade":"特優級","type2":"商業營業場所","type":"無障礙廁所","exec":null,"diaper":null},{"country":"09020","city":"09020040","village":"盤山村","number":"W040000050","name":"家樂福金門店-女廁","address":"金門縣金寧鄉盤山村伯玉路二段223號","administration":"家樂福金門店","latitude":"24.44028363","longitude":"118.3380333","grade":"特優級","type2":"商業營業場所","type":"女廁所","exec":null,"diaper":null},{"country":"09020","city":"09020040","village":"盤山村","number":"W040000049","name":"家樂福金門店-男廁","address":"金門縣金寧鄉盤山村伯玉路二段223號","administration":"家樂福金門店","latitude":"24.44028363","longitude":"118.3380333","grade":"特優級","type2":"商業營業場所","type":"男廁所","exec":null,"diaper":null},{"country":"09020","city":"09020030","village":"山外里","number":"W030000115","name":"金門植物園女廁","address":"金門縣金湖鎮山外里太武山10號","administration":"縣市政府","latitude":"24.45530791","longitude":"118.3967501","grade":"特優級","type2":"公園","type":"女廁所","exec":null,"diaper":null},{"country":"09020","city":"09020030","village":"山外里","number":"W030000114","name":"金門植物園男廁","address":"金門縣金湖鎮山外里太武山10號","administration":"縣市政府","latitude":"24.45530791","longitude":"118.3967501","grade":"特優級","type2":"公園","type":"男廁所","exec":null,"diaper":null},{"country":"09020","city":"09020050","village":"上林村","number":"W050000051","name":"衛福部金門醫院烈嶼分院無障礙廁所","address":"金門縣烈嶼鄉上林村后井37號","administration":"衛生福利部","latitude":"24.43099328","longitude":"118.2425126","grade":"特優級","type2":"社福機構、集會場所","type":"無障礙廁所","exec":null,"diaper":null},{"country":"09020","city":"09020050","village":"上林村","number":"W050000050","name":"衛福部金門醫院烈嶼分院女廁","address":"金門縣烈嶼鄉上林村后井37號","administration":"衛生福利部","latitude":"24.43099328","longitude":"118.2425126","grade":"特優級","type2":"社福機構、集會場所","type":"女廁所","exec":null,"diaper":null},{"country":"09020","city":"09020050","village":"林湖村","number":"W050000049","name":"四維坑道無障礙廁所","address":"金門縣烈嶼鄉林湖村四維坑道","administration":"內政部國家公園署","latitude":"24.42418074","longitude":"118.2623965","grade":"特優級","type2":"觀光地區及風景區","type":"無障礙廁所","exec":null,"diaper":null},{"country":"09020","city":"09020050","village":"林湖村","number":"W050000048","name":"四維坑道女廁","address":"金門縣烈嶼鄉林湖村四維坑道","administration":"內政部國家公園署","latitude":"24.42418074","longitude":"118.2623965","grade":"特優級","type2":"觀光地區及風景區","type":"女廁所","exec":null,"diaper":null},{"country":"09020","city":"09020010","village":"金水里","number":"W010000064","name":"僑鄉館公廁","address":"金門縣金城鎮金水里前水頭","administration":"內政部國家公園署","latitude":"24.40971768","longitude":"118.2988347","grade":"特優級","type2":"觀光地區及風景區","type":"混合廁所","exec":null,"diaper":null},{"country":"09020","city":"09020030","village":"蓮庵里","number":"W030000097","name":"畜試所1F無障礙廁所","address":"金門縣金湖鎮蓮庵里惠民富康農莊17號","administration":"縣市政府","latitude":"24.43336498","longitude":"118.4384637","grade":"特優級","type2":"民眾洽公場所","type":"無障礙廁所","exec":null,"diaper":null},{"country":"09020","city":"09020030","village":"蓮庵里","number":"W030000096","name":"畜試所1F女廁","address":"金門縣金湖鎮蓮庵里惠民富康農莊17號","administration":"縣市政府","latitude":"24.43336498","longitude":"118.4384637","grade":"特優級","type2":"民眾洽公場所","type":"女廁所","exec":null,"diaper":null},{"country":"09020","city":"09020030","village":"蓮庵里","number":"W030000095","name":"畜試所1F男廁","address":"金門縣金湖鎮蓮庵里惠民富康農莊17號","administration":"縣市政府","latitude":"24.43336498","longitude":"118.4384637","grade":"特優級","type2":"民眾洽公場所","type":"男廁所","exec":null,"diaper":null},{"country":"09020","city":"09020010","village":"東門里","number":"W010000083","name":"浯江溪停車場3號無障礙廁所","address":"金門縣金城鎮東門里浯江北堤路旁","administration":"縣市政府","latitude":"24.42958011","longitude":"118.321268","grade":"特優級","type2":"民眾洽公場所","type":"無障礙廁所","exec":null,"diaper":null},{"country":"09020","city":"09020010","village":"東門里","number":"W010000082","name":"浯江溪停車場2號親子廁所","address":"金門縣金城鎮東門里北堤路停車場","administration":"縣市政府","latitude":"24.42940294","longitude":"118.3182753","grade":"特優級","type2":"交通","type":"親子廁所","exec":null,"diaper":null},{"country":"09020","city":"09020010","village":"東門里","number":"W010000081","name":"浯江溪停車場2號無障礙廁所","address":"金門縣金城鎮東門里北堤路停車場","administration":"縣市政府","latitude":"24.42940294","longitude":"118.3182753","grade":"特優級","type2":"交通","type":"無障礙廁所","exec":null,"diaper":null},{"country":"09020","city":"09020010","village":"南門里","number":"W010000080","name":"浯江溪停車場1號親子廁所","address":"金門縣金城鎮南門里北堤路停車場","administration":"縣市政府","latitude":"24.42899818","longitude":"118.3157274","grade":"特優級","type2":"交通","type":"親子廁所","exec":null,"diaper":null},{"country":"09020","city":"09020010","village":"南門里","number":"W010000079","name":"浯江溪停車場1號無障礙廁所","address":"金門縣金城鎮南門里北堤路停車場","administration":"縣市政府","latitude":"24.42899818","longitude":"118.3157274","grade":"特優級","type2":"交通","type":"無障礙廁所","exec":null,"diaper":null},{"country":"09020","city":"09020010","village":"東門里","number":"W010000084","name":"浯江溪停車場3號親子廁所","address":"金門縣金城鎮東門里北堤路停車場","administration":"縣市政府","latitude":"24.42957066","longitude":"118.3212155","grade":"特優級","type2":"交通","type":"親子廁所","exec":null,"diaper":null},{"country":"09020","city":"09020020","village":"汶沙里","number":"W020000044","name":"金沙清潔隊部無障礙廁所","address":"金門縣金沙鎮汶沙里英坑60之1號","administration":"縣市政府","latitude":"24.49948985","longitude":"118.4206168","grade":"特優級","type2":"民眾洽公場所","type":"無障礙廁所","exec":null,"diaper":null},{"country":"09020","city":"09020020","village":"汶沙里","number":"W020000043","name":"金沙清潔隊部女廁","address":"金門縣金沙鎮汶沙里英坑60之1號","administration":"縣市政府","latitude":"24.49948985","longitude":"118.4206168","grade":"特優級","type2":"民眾洽公場所","type":"女廁所","exec":null,"diaper":null},{"country":"09020","city":"09020020","village":"汶沙里","number":"W020000042","name":"金沙清潔隊部男廁","address":"金門縣金沙鎮汶沙里英坑60之1號","administration":"縣市政府","latitude":"24.49948985","longitude":"118.4206168","grade":"特優級","type2":"民眾洽公場所","type":"男廁所","exec":null,"diaper":null},{"country":"09020","city":"09020010","village":"西門里","number":"W010000085","name":"金城民防坑道出口處女廁","address":"金門縣金城鎮西門里金門高中旁","administration":"縣市政府","latitude":"24.4370361","longitude":"118.3122324","grade":"特優級","type2":"觀光地區及風景區","type":"女廁所","exec":null,"diaper":null},{"country":"09020","city":"09020040","village":"榜林村","number":"W040000048","name":"金酒公司福利大樓無障礙廁所","address":"金門縣金寧鄉榜林村桃園路1號","administration":"縣市政府","latitude":"24.43210466","longitude":"118.3425892","grade":"特優級","type2":"商業營業場所","type":"無障礙廁所","exec":null,"diaper":null},{"country":"09020","city":"09020040","village":"榜林村","number":"W040000047","name":"金酒公司福利大樓女廁","address":"金門縣金寧鄉榜林村桃園路1號","administration":"縣市政府","latitude":"24.43210466","longitude":"118.3425892","grade":"特優級","type2":"商業營業場所","type":"女廁所","exec":null,"diaper":null},{"country":"09020","city":"09020040","village":"榜林村","number":"W040000046","name":"金酒公司福利大樓男廁","address":"金門縣金寧鄉榜林村桃園路1號","administration":"縣市政府","latitude":"24.43210466","longitude":"118.3425892","grade":"特優級","type2":"商業營業場所","type":"男廁所","exec":null,"diaper":null},{"country":"09020","city":"09020040","village":"榜林村","number":"W040000045","name":"后湖濱海公園無障礙廁所","address":"金門縣金寧鄉榜林村東湖路后湖","administration":"縣市政府","latitude":"24.41651456","longitude":"118.3444954","grade":"特優級","type2":"公園","type":"無障礙廁所","exec":null,"diaper":null},{"country":"09020","city":"09020040","village":"榜林村","number":"W040000044","name":"金民加油站無障礙廁所","address":"金門縣金寧鄉榜林村伯玉路二段161號","administration":"金民股份有限公司","latitude":"24.439162","longitude":"118.3342518","grade":"特優級","type2":"商業營業場所","type":"無障礙廁所","exec":null,"diaper":null},{"country":"09020","city":"09020040","village":"榜林村","number":"W040000043","name":"金民加油站女廁","address":"金門縣金寧鄉榜林村伯玉路二段161號","administration":"金民股份有限公司","latitude":"24.439162","longitude":"118.3342518","grade":"特優級","type2":"觀光地區及風景區","type":"女廁所","exec":null,"diaper":null},{"country":"09020","city":"09020040","village":"榜林村","number":"W040000042","name":"金門加油站女廁","address":"金門縣金寧鄉榜林村伯玉路一段222號","administration":"安佳信股份有限公司","latitude":"24.43598093","longitude":"118.327153","grade":"特優級","type2":"商業營業場所","type":"女廁所","exec":null,"diaper":null},{"country":"09020","city":"09020040","village":"盤山村","number":"W040000041","name":"乳山遊客中心無障礙廁所","address":"金門縣金寧鄉盤山村桃園路190號","administration":"內政部國家公園署","latitude":"24.43663","longitude":"118.353389","grade":"特優級","type2":"觀光地區及風景區","type":"無障礙廁所","exec":null,"diaper":null},{"country":"09020","city":"09020040","village":"盤山村","number":"W040000040","name":"蔣經國先生紀念館後側無障礙廁所","address":"金門縣金寧鄉盤山村桃園路","administration":"內政部國家公園署","latitude":"24.43700745","longitude":"118.3536868","grade":"特優級","type2":"觀光地區及風景區","type":"無障礙廁所","exec":null,"diaper":null},{"country":"09020","city":"09020040","village":"后盤村","number":"W040000039","name":"國家公園大門左側無障礙廁所","address":"金門縣金寧鄉后盤村伯玉路二段","administration":"內政部國家公園署","latitude":"24.44388635","longitude":"118.3533229","grade":"特優級","type2":"觀光地區及風景區","type":"無障礙廁所","exec":null,"diaper":null},{"country":"09020","city":"09020040","village":"古寧村","number":"W040000038","name":"雙鯉濕地自然中心無障礙廁所","address":"金門縣金寧鄉古寧村南山1之6號","administration":"內政部國家公園署","latitude":"24.47646435","longitude":"118.3102405","grade":"特優級","type2":"觀光地區及風景區","type":"無障礙廁所","exec":null,"diaper":null},{"country":"09020","city":"09020040","village":"古寧村","number":"W040000037","name":"雙鯉濕地自然中心女廁","address":"金門縣金寧鄉古寧村南山1之6號","administration":"內政部國家公園署","latitude":"24.47646435","longitude":"118.3102405","grade":"特優級","type2":"觀光地區及風景區","type":"女廁所","exec":null,"diaper":null},{"country":"09020","city":"09020040","village":"古寧村","number":"W040000036","name":"雙鯉濕地自然中心男廁","address":"金門縣金寧鄉古寧村南山1之6號","administration":"內政部國家公園署","latitude":"24.47646435","longitude":"118.3102405","grade":"特優級","type2":"觀光地區及風景區","type":"男廁所","exec":null,"diaper":null},{"country":"09020","city":"09020040","village":"古寧村","number":"W040000035","name":"和平公園無障礙廁所","address":"金門縣金寧鄉古寧村頂林路和平公園","administration":"內政部國家公園署","latitude":"24.47668406","longitude":"118.3168509","grade":"特優級","type2":"觀光地區及風景區","type":"無障礙廁所","exec":null,"diaper":null},{"country":"09020","city":"09020040","village":"古寧村","number":"W040000034","name":"和平公園女廁","address":"金門縣金寧鄉古寧村頂林路和平公園","administration":"內政部國家公園署","latitude":"24.47668406","longitude":"118.3168509","grade":"特優級","type2":"觀光地區及風景區","type":"女廁所","exec":null,"diaper":null},{"country":"09020","city":"09020040","village":"古寧村","number":"W040000033","name":"和平公園男廁","address":"金門縣金寧鄉古寧村頂林路和平公園","administration":"內政部國家公園署","latitude":"24.47668406","longitude":"118.3168509","grade":"特優級","type2":"觀光地區及風景區","type":"男廁所","exec":null,"diaper":null},{"country":"09020","city":"09020020","village":"西園里","number":"W020000035","name":"文化園區C棟B1男廁","address":"金門縣金沙鎮西園里文化路450巷52號","administration":"縣市政府","latitude":"24.49931484","longitude":"118.4035868","grade":"特優級","type2":"文化育樂活動場所","type":"男廁所","exec":null,"diaper":null},{"country":"09020","city":"09020020","village":"西園里","number":"W020000034","name":"文化園區C棟1F後方無障礙廁所","address":"金門縣金沙鎮西園里文化路450巷52號","administration":"縣市政府","latitude":"24.49931484","longitude":"118.4035868","grade":"特優級","type2":"文化育樂活動場所","type":"無障礙廁所","exec":null,"diaper":null},{"country":"09020","city":"09020020","village":"西園里","number":"W020000033","name":"文化園區C棟1F後方女廁","address":"金門縣金沙鎮西園里文化路450巷52號","administration":"縣市政府","latitude":"24.49931484","longitude":"118.4035868","grade":"特優級","type2":"文化育樂活動場所","type":"女廁所","exec":null,"diaper":null},{"country":"09020","city":"09020020","village":"西園里","number":"W020000032","name":"文化園區C棟1F後方男廁","address":"金門縣金沙鎮西園里文化路450巷52號","administration":"縣市政府","latitude":"24.49931484","longitude":"118.4035868","grade":"特優級","type2":"文化育樂活動場所","type":"男廁所","exec":null,"diaper":null},{"country":"09020","city":"09020020","village":"三山里","number":"W020000055","name":"楓香林無障礙廁所","address":"金門縣金沙鎮三山里陽沙路旁楓香林","administration":"內政部國家公園署","latitude":"24.49292225","longitude":"118.4447811","grade":"特優級","type2":"觀光地區及風景區","type":"無障礙廁所","exec":null,"diaper":null},{"country":"09020","city":"09020020","village":"三山里","number":"W020000054","name":"楓香林女廁","address":"金門縣金沙鎮三山里陽沙路旁楓香林","administration":"內政部國家公園署","latitude":"24.49292225","longitude":"118.4447811","grade":"特優級","type2":"觀光地區及風景區","type":"女廁所","exec":null,"diaper":null},{"country":"09020","city":"09020020","village":"三山里","number":"W020000053","name":"獅山砲陣地無障礙廁所","address":"金門縣金沙鎮三山里陽沙路376號","administration":"縣市政府","latitude":"24.50389471","longitude":"118.4369726","grade":"特優級","type2":"觀光地區及風景區","type":"無障礙廁所","exec":null,"diaper":null},{"country":"09020","city":"09020020","village":"三山里","number":"W020000052","name":"獅山砲陣地女廁","address":"金門縣金沙鎮三山里陽沙路376號","administration":"縣市政府","latitude":"24.50389471","longitude":"118.4369726","grade":"特優級","type2":"觀光地區及風景區","type":"女廁所","exec":null,"diaper":null},{"country":"09020","city":"09020020","village":"三山里","number":"W020000051","name":"獅山砲陣地男廁","address":"金門縣金沙鎮三山里陽沙路376號","administration":"縣市政府","latitude":"24.50389471","longitude":"118.4369726","grade":"特優級","type2":"觀光地區及風景區","type":"男廁所","exec":null,"diaper":null},{"country":"09020","city":"09020020","village":"三山里","number":"W020000050","name":"五虎山無障礙廁所","address":"金門縣金沙鎮三山里山西五虎山","administration":"內政部國家公園署","latitude":"24.49972997","longitude":"118.4344789","grade":"特優級","type2":"觀光地區及風景區","type":"無障礙廁所","exec":null,"diaper":null},{"country":"09020","city":"09020020","village":"三山里","number":"W020000049","name":"五虎山女廁","address":"金門縣金沙鎮三山里山西五虎山","administration":"內政部國家公園署","latitude":"24.49972997","longitude":"118.4344789","grade":"特優級","type2":"觀光地區及風景區","type":"女廁所","exec":null,"diaper":null},{"country":"09020","city":"09020020","village":"三山里","number":"W020000048","name":"五虎山男廁","address":"金門縣金沙鎮三山里山西五虎山","administration":"內政部國家公園署","latitude":"24.49972997","longitude":"118.4344789","grade":"特優級","type2":"觀光地區及風景區","type":"男廁所","exec":null,"diaper":null},{"country":"09020","city":"09020030","village":"新湖里","number":"W030000079","name":"82據點無障礙廁所","address":"金門縣金湖鎮新湖里82據點","administration":"縣市政府","latitude":"24.42491923","longitude":"118.42757","grade":"特優級","type2":"觀光地區及風景區","type":"無障礙廁所","exec":null,"diaper":null},{"country":"09020","city":"09020030","village":"新湖里","number":"W030000078","name":"82據點女廁","address":"金門縣金湖鎮新湖里82據點","administration":"縣市政府","latitude":"24.42491923","longitude":"118.42757","grade":"特優級","type2":"觀光地區及風景區","type":"女廁所","exec":null,"diaper":null},{"country":"09020","city":"09020030","village":"新市里","number":"W030000047","name":"新市里菜市場無障礙廁所","address":"金門縣金湖鎮新市里武德新莊","administration":"縣市政府","latitude":"24.44171614","longitude":"118.412988","grade":"特優級","type2":"商業營業場所","type":"無障礙廁所","exec":null,"diaper":null},{"country":"09020","city":"09020030","village":"新市里","number":"W030000046","name":"新市里菜市場女廁","address":"金門縣金湖鎮新市里武德新莊","administration":"縣市政府","latitude":"24.44171614","longitude":"118.412988","grade":"特優級","type2":"商業營業場所","type":"女廁所","exec":null,"diaper":null},{"country":"09020","city":"09020050","village":"林湖村","number":"W050000047","name":"四維坑道男廁","address":"金門縣烈嶼鄉林湖村四維坑道","administration":"內政部國家公園署","latitude":"24.42418074","longitude":"118.2623965","grade":"特優級","type2":"觀光地區及風景區","type":"男廁所","exec":null,"diaper":null},{"country":"09020","city":"09020050","village":"西口村","number":"W050000046","name":"湖井頭戰史館無障礙廁所","address":"金門縣烈嶼鄉西口村湖井頭","administration":"縣市政府","latitude":"24.44660195","longitude":"118.231651","grade":"特優級","type2":"觀光地區及風景區","type":"無障礙廁所","exec":null,"diaper":null},{"country":"09020","city":"09020050","village":"上林村","number":"W050000045","name":"上林將軍廟女廁","address":"金門縣烈嶼鄉上林村上林","administration":"內政部國家公園署","latitude":"24.42854724","longitude":"118.2284576","grade":"特優級","type2":"觀光地區及風景區","type":"女廁所","exec":null,"diaper":null},{"country":"09020","city":"09020010","village":"古城里","number":"W010000075","name":"翟山坑道女廁","address":"金門縣金城鎮古城里翟山坑道入口處","administration":"內政部國家公園署","latitude":"24.39067026","longitude":"118.3206772","grade":"特優級","type2":"觀光地區及風景區","type":"女廁所","exec":null,"diaper":null},{"country":"09020","city":"09020010","village":"古城里","number":"W010000074","name":"翟山坑道男廁","address":"金門縣金城鎮古城里翟山坑道入口處","administration":"內政部國家公園署","latitude":"24.39067026","longitude":"118.3206772","grade":"特優級","type2":"觀光地區及風景區","type":"男廁所","exec":null,"diaper":null},{"country":"09020","city":"09020010","village":"西門里","number":"W010000112","name":"金門縣政府1號無障礙廁所","address":"金門縣金城鎮西門里民生路60號","administration":"縣市政府","latitude":"24.43708405","longitude":"118.3196844","grade":"特優級","type2":"民眾洽公場所","type":"無障礙廁所","exec":null,"diaper":null},{"country":"09020","city":"09020030","village":"正義里","number":"W030000132","name":"環保公園1號無障礙廁所","address":"金門縣金湖鎮正義里環保公園","administration":"縣市政府","latitude":"24.43828065","longitude":"118.3688349","grade":"特優級","type2":"公園","type":"無障礙廁所","exec":null,"diaper":null},{"country":"09020","city":"09020010","village":"南門里","number":"W010000016","name":"同安渡頭女廁","address":"金門縣金城鎮南門里同安渡頭","administration":"縣市政府","latitude":"24.43726432","longitude":"118.309719","grade":"特優級","type2":"觀光地區及風景區","type":"女廁所","exec":null,"diaper":null},{"country":"09020","city":"09020040","village":"古寧村","number":"W040000009","name":"慈湖三角堡公廁","address":"金門縣金寧鄉古寧村慈湖路三段","administration":"內政部國家公園署","latitude":"24.4652436","longitude":"118.2974119","grade":"特優級","type2":"觀光地區及風景區","type":"混合廁所","exec":null,"diaper":null},{"country":"09020","city":"09020040","village":"古寧村","number":"W040000005","name":"古寧頭戰史館無障礙廁所","address":"金門縣金寧鄉古寧村北山","administration":"內政部國家公園署","latitude":"24.4832303","longitude":"118.3209261","grade":"特優級","type2":"觀光地區及風景區","type":"無障礙廁所","exec":null,"diaper":null},{"country":"09020","city":"09020010","village":"南門里","number":"W010000015","name":"同安渡頭男廁","address":"金門縣金城鎮南門里同安渡頭","administration":"縣市政府","latitude":"24.43726432","longitude":"118.309719","grade":"特優級","type2":"觀光地區及風景區","type":"男廁所","exec":null,"diaper":null},{"country":"09020","city":"09020030","village":"溪湖里","number":"W030000040","name":"休閒農場男廁","address":"金門縣金湖鎮溪湖里后壟","administration":"縣市政府","latitude":"24.44667738","longitude":"118.4471109","grade":"特優級","type2":"觀光地區及風景區","type":"男廁所","exec":null,"diaper":null},{"country":"09020","city":"09020010","village":"賢庵里","number":"W010000042","name":"延平郡王祠男廁","address":"金門縣金城鎮賢庵里夏墅西北方","administration":"縣市政府","latitude":"24.42442456","longitude":"118.3049784","grade":"特優級","type2":"宗教禮儀場所","type":"男廁所","exec":null,"diaper":null},{"country":"09020","city":"09020030","village":"正義里","number":"W030000063","name":"金門航空站大廳2號無障礙廁所","address":"金門縣金湖鎮正義里尚義機場","administration":"交通部民用航空局","latitude":"24.43541676","longitude":"118.3679274","grade":"特優級","type2":"交通","type":"無障礙廁所","exec":null,"diaper":null},{"country":"09020","city":"09020030","village":"正義里","number":"W030000062","name":"金門航空站大廳2號女廁","address":"金門縣金湖鎮正義里尚義機場","administration":"交通部民用航空局","latitude":"24.43541676","longitude":"118.3679274","grade":"特優級","type2":"交通","type":"女廁所","exec":null,"diaper":null},{"country":"09020","city":"09020030","village":"新市里","number":"W030000102","name":"金湖鎮立圖書館2F男廁","address":"金門縣金湖鎮新市里林森路6-2號","administration":"縣市政府","latitude":"24.44204055","longitude":"118.4166908","grade":"特優級","type2":"文化育樂活動場所","type":"男廁所","exec":null,"diaper":null},{"country":"09020","city":"09020030","village":"新市里","number":"W030000101","name":"金湖鎮立圖書館1F無障礙廁所","address":"金門縣金湖鎮新市里林森路6-2號","administration":"縣市政府","latitude":"24.44204055","longitude":"118.4166908","grade":"特優級","type2":"文化育樂活動場所","type":"無障礙廁所","exec":null,"diaper":null},{"country":"09020","city":"09020030","village":"新市里","number":"W030000100","name":"金湖鎮立圖書館1F女廁","address":"金門縣金湖鎮新市里林森路6-2號","administration":"縣市政府","latitude":"24.44204055","longitude":"118.4166908","grade":"特優級","type2":"文化育樂活動場所","type":"女廁所","exec":null,"diaper":null},{"country":"09020","city":"09020030","village":"料羅里","number":"W030000099","name":"料羅海濱公園女廁","address":"金門縣金湖鎮料羅里金港路","administration":"縣市政府","latitude":"24.41632812","longitude":"118.4341494","grade":"特優級","type2":"公園","type":"女廁所","exec":null,"diaper":null},{"country":"09020","city":"09020030","village":"料羅里","number":"W030000098","name":"料羅海濱公園男廁","address":"金門縣金湖鎮料羅里金港路","administration":"縣市政府","latitude":"24.41632812","longitude":"118.4341494","grade":"特優級","type2":"公園","type":"男廁所","exec":null,"diaper":null},{"country":"09020","city":"09020050","village":"上林村","number":"W050000044","name":"烈嶼鄉圖書館2F女廁","address":"金門縣烈嶼鄉上林村后井40號","administration":"縣市政府","latitude":"24.4289141","longitude":"118.2427387","grade":"特優級","type2":"文化育樂活動場所","type":"女廁所","exec":null,"diaper":null},{"country":"09020","city":"09020050","village":"上林村","number":"W050000043","name":"烈嶼鄉圖書館2F男廁","address":"金門縣烈嶼鄉上林村后井40號","administration":"縣市政府","latitude":"24.4289141","longitude":"118.2427387","grade":"特優級","type2":"文化育樂活動場所","type":"男廁所","exec":null,"diaper":null},{"country":"09020","city":"09020050","village":"上林村","number":"W050000042","name":"烈嶼鄉圖書館1F無障礙廁所","address":"金門縣烈嶼鄉上林村后井40號","administration":"縣市政府","latitude":"24.4289141","longitude":"118.2427387","grade":"特優級","type2":"文化育樂活動場所","type":"無障礙廁所","exec":null,"diaper":null},{"country":"09020","city":"09020050","village":"上林村","number":"W050000041","name":"烈嶼鄉圖書館1F女廁","address":"金門縣烈嶼鄉上林村后井40號","administration":"縣市政府","latitude":"24.4289141","longitude":"118.2427387","grade":"特優級","type2":"文化育樂活動場所","type":"女廁所","exec":null,"diaper":null},{"country":"09020","city":"09020040","village":"盤山村","number":"W040000029","name":"乳山遊客中心女廁","address":"金門縣金寧鄉盤山村桃園路","administration":"內政部國家公園署","latitude":"24.43674428","longitude":"118.3533848","grade":"特優級","type2":"觀光地區及風景區","type":"女廁所","exec":null,"diaper":null},{"country":"09020","city":"09020010","village":"南門里","number":"W010000049","name":"莒光樓2號男廁","address":"金門縣金城鎮南門里賢城路","administration":"縣市政府","latitude":"24.42541652","longitude":"118.319223","grade":"特優級","type2":"觀光地區及風景區","type":"男廁所","exec":null,"diaper":null},{"country":"09020","city":"09020010","village":"南門里","number":"W010000044","name":"莒光湖公園男廁","address":"金門縣金城鎮南門里莒光湖公園","administration":"縣市政府","latitude":"24.42665483","longitude":"118.3180437","grade":"特優級","type2":"公園","type":"男廁所","exec":null,"diaper":null},{"country":"09020","city":"09020010","village":"賢庵里","number":"W010000066","name":"延平郡王祠無障礙廁所","address":"金門縣金城鎮賢庵里夏墅西北方","administration":"縣市政府","latitude":"24.42442456","longitude":"118.3049784","grade":"特優級","type2":"宗教禮儀場所","type":"無障礙廁所","exec":null,"diaper":null},{"country":"09020","city":"09020010","village":"南門里","number":"W010000047","name":"雄獅堡女廁","address":"金門縣金城鎮南門里民權路30巷旁","administration":"縣市政府","latitude":"24.4315112","longitude":"118.3101098","grade":"特優級","type2":"觀光地區及風景區","type":"女廁所","exec":null,"diaper":null},{"country":"09020","city":"09020050","village":"林湖村","number":"W050000018","name":"烈嶼車站男廁","address":"金門縣烈嶼鄉林湖村九井路","administration":"縣市政府","latitude":"24.42686622","longitude":"118.25711","grade":"特優級","type2":"交通","type":"男廁所","exec":null,"diaper":null},{"country":"09020","city":"09020010","village":"北門里","number":"W010000055","name":"金城車站無障礙廁所","address":"金門縣金城鎮北門里民生路","administration":"縣市政府","latitude":"24.43328613","longitude":"118.3199992","grade":"特優級","type2":"交通","type":"無障礙廁所","exec":null,"diaper":null},{"country":"09020","city":"09020010","village":"北門里","number":"W010000054","name":"金城車站女廁","address":"金門縣金城鎮北門里民生路","administration":"縣市政府","latitude":"24.43328613","longitude":"118.3199992","grade":"特優級","type2":"交通","type":"女廁所","exec":null,"diaper":null},{"country":"09020","city":"09020020","village":"汶沙里","number":"W020000017","name":"沙美車站無障礙廁所","address":"金門縣金沙鎮汶沙里環島東路一段","administration":"縣市政府","latitude":"24.48903257","longitude":"118.4133272","grade":"特優級","type2":"交通","type":"無障礙廁所","exec":null,"diaper":null},{"country":"09020","city":"09020020","village":"汶沙里","number":"W020000016","name":"沙美車站女廁","address":"金門縣金沙鎮汶沙里環島東路一段","administration":"縣市政府","latitude":"24.48908789","longitude":"118.4132262","grade":"特優級","type2":"交通","type":"女廁所","exec":null,"diaper":null},{"country":"09020","city":"09020050","village":"上岐村","number":"W050000016","name":"沙溪堡女廁","address":"金門縣烈嶼鄉上岐村濱海大道","administration":"縣市政府","latitude":"24.41156487","longitude":"118.2129978","grade":"特優級","type2":"觀光地區及風景區","type":"女廁所","exec":null,"diaper":null},{"country":"09020","city":"09020050","village":"上岐村","number":"W050000015","name":"沙溪堡男廁","address":"金門縣烈嶼鄉上岐村濱海大道","administration":"縣市政府","latitude":"24.41156487","longitude":"118.2129978","grade":"特優級","type2":"觀光地區及風景區","type":"男廁所","exec":null,"diaper":null},{"country":"09020","city":"09020030","village":"新湖里","number":"W030000089","name":"市港重劃區公園無障礙廁所","address":"金門縣金湖鎮新湖里市港五路","administration":"縣市政府","latitude":"24.43958745","longitude":"118.4117003","grade":"特優級","type2":"公園","type":"無障礙廁所","exec":null,"diaper":null},{"country":"09020","city":"09020010","village":"南門里","number":"W010000051","name":"莒光樓2號無障礙廁所","address":"金門縣金城鎮南門里賢城路1號","administration":"縣市政府","latitude":"24.42541652","longitude":"118.319223","grade":"特優級","type2":"觀光地區及風景區","type":"無障礙廁所","exec":null,"diaper":null},{"country":"09020","city":"09020010","village":"南門里","number":"W010000050","name":"莒光樓2號女廁","address":"金門縣金城鎮南門里賢城路1號","administration":"縣市政府","latitude":"24.42541652","longitude":"118.319223","grade":"特優級","type2":"觀光地區及風景區","type":"女廁所","exec":null,"diaper":null},{"country":"09020","city":"09020010","village":"南門里","number":"W010000053","name":"莒光湖公園無障礙廁所","address":"金門縣金城鎮南門里莒光湖公園","administration":"縣市政府","latitude":"24.42665483","longitude":"118.3180437","grade":"特優級","type2":"公園","type":"無障礙廁所","exec":null,"diaper":null},{"country":"09020","city":"09020010","village":"南門里","number":"W010000052","name":"莒光湖公園女廁","address":"金門縣金城鎮南門里莒光湖公園","administration":"縣市政府","latitude":"24.42665483","longitude":"118.3180437","grade":"特優級","type2":"公園","type":"女廁所","exec":null,"diaper":null},{"country":"09020","city":"09020030","village":"山外里","number":"W030000052","name":"太武山2號男廁","address":"金門縣金湖鎮山外里太武山上","administration":"內政部國家公園署","latitude":"24.46270235","longitude":"118.4171796","grade":"特優級","type2":"觀光地區及風景區","type":"男廁所","exec":null,"diaper":null},{"country":"09020","city":"09020030","village":"山外里","number":"W030000056","name":"金湖鎮公有零售市場男廁","address":"金門縣金湖鎮山外里黃海路90之5號","administration":"縣市政府","latitude":"24.44171614","longitude":"118.412988","grade":"特優級","type2":"商業營業場所","type":"男廁所","exec":null,"diaper":null},{"country":"09020","city":"09020030","village":"山外里","number":"W030000051","name":"山外車站無障礙廁所","address":"金門縣金湖鎮山外里黃海路90之1號旁","administration":"縣市政府","latitude":"24.4420942","longitude":"118.4136529","grade":"特優級","type2":"交通","type":"無障礙廁所","exec":null,"diaper":null},{"country":"09020","city":"09020030","village":"山外里","number":"W030000050","name":"山外車站女廁","address":"金門縣金湖鎮山外里黃海路90之1號旁","administration":"縣市政府","latitude":"24.4420942","longitude":"118.4136529","grade":"特優級","type2":"交通","type":"女廁所","exec":null,"diaper":null},{"country":"09020","city":"09020030","village":"山外里","number":"W030000049","name":"山外車站男廁","address":"金門縣金湖鎮山外里黃海路90之1號旁","administration":"縣市政府","latitude":"24.4420942","longitude":"118.4136529","grade":"特優級","type2":"交通","type":"男廁所","exec":null,"diaper":null},{"country":"09020","city":"09020050","village":"林湖村","number":"W050000022","name":"烈嶼鄉文化館無障礙廁所","address":"金門縣烈嶼鄉林湖村西路1之1號","administration":"縣市政府","latitude":"24.4311633","longitude":"118.2448416","grade":"特優級","type2":"文化育樂活動場所","type":"無障礙廁所","exec":null,"diaper":null},{"country":"09020","city":"09020050","village":"林湖村","number":"W050000019","name":"烈嶼車站女廁","address":"金門縣烈嶼鄉林湖村九井路","administration":"縣市政府","latitude":"24.42686622","longitude":"118.25711","grade":"特優級","type2":"交通","type":"女廁所","exec":null,"diaper":null},{"country":"09020","city":"09020030","village":"正義里","number":"W030000076","name":"環保公園低碳教育館男廁","address":"金門縣金湖鎮正義里環保公園低碳教育館","administration":"縣市政府","latitude":"24.43766543","longitude":"118.3696276","grade":"特優級","type2":"文化育樂活動場所","type":"男廁所","exec":null,"diaper":null},{"country":"09020","city":"09020030","village":"正義里","number":"W030000075","name":"金門縣環境保護局無障礙廁所","address":"金門縣金湖鎮正義里尚義","administration":"縣市政府","latitude":"24.44031379","longitude":"118.3695794","grade":"特優級","type2":"民眾洽公場所","type":"無障礙廁所","exec":null,"diaper":null},{"country":"09020","city":"09020050","village":"林湖村","number":"W050000023","name":"東林海濱公園男廁","address":"金門縣烈嶼鄉林湖村南環道","administration":"縣市政府","latitude":"24.42494864","longitude":"118.2509515","grade":"特優級","type2":"公園","type":"男廁所","exec":null,"diaper":null},{"country":"09020","city":"09020050","village":"西口村","number":"W050000017","name":"湖井頭戰史館女廁","address":"金門縣烈嶼鄉西口村湖井頭","administration":"縣市政府","latitude":"24.44660195","longitude":"118.231651","grade":"特優級","type2":"觀光地區及風景區","type":"女廁所","exec":null,"diaper":null},{"country":"09020","city":"09020050","village":"林湖村","number":"W050000021","name":"烈嶼鄉文化館女廁","address":"金門縣烈嶼鄉林湖村西路","administration":"縣市政府","latitude":"24.4311633","longitude":"118.2448416","grade":"特優級","type2":"觀光地區及風景區","type":"女廁所","exec":null,"diaper":null},{"country":"09020","city":"09020050","village":"林湖村","number":"W050000020","name":"烈嶼鄉文化館男廁","address":"金門縣烈嶼鄉林湖村西路","administration":"縣市政府","latitude":"24.4311633","longitude":"118.2448416","grade":"特優級","type2":"觀光地區及風景區","type":"男廁所","exec":null,"diaper":null},{"country":"09020","city":"09020030","village":"正義里","number":"W030000074","name":"金門縣環境保護局女廁","address":"金門縣金湖鎮正義里尚義","administration":"縣市政府","latitude":"24.44031379","longitude":"118.3695794","grade":"特優級","type2":"民眾洽公場所","type":"女廁所","exec":null,"diaper":null},{"country":"09020","city":"09020030","village":"正義里","number":"W030000073","name":"金門航空站候機室3號女廁","address":"金門縣金湖鎮正義里尚義機場","administration":"交通部民用航空局","latitude":"24.43541676","longitude":"118.3679274","grade":"特優級","type2":"交通","type":"女廁所","exec":null,"diaper":null},{"country":"09020","city":"09020030","village":"正義里","number":"W030000072","name":"金門航空站候機室3號男廁","address":"金門縣金湖鎮正義里尚義機場","administration":"交通部民用航空局","latitude":"24.43541676","longitude":"118.3679274","grade":"特優級","type2":"交通","type":"男廁所","exec":null,"diaper":null},{"country":"09020","city":"09020030","village":"正義里","number":"W030000071","name":"金門航空站入境處3號無障礙廁所","address":"金門縣金湖鎮正義里尚義機場","administration":"交通部民用航空局","latitude":"24.43541676","longitude":"118.3679274","grade":"特優級","type2":"交通","type":"無障礙廁所","exec":null,"diaper":null},{"country":"09020","city":"09020030","village":"正義里","number":"W030000070","name":"金門航空站入境處3號女廁","address":"金門縣金湖鎮正義里尚義機場","administration":"交通部民用航空局","latitude":"24.43541676","longitude":"118.3679274","grade":"特優級","type2":"交通","type":"女廁所","exec":null,"diaper":null},{"country":"09020","city":"09020030","village":"正義里","number":"W030000069","name":"金門航空站入境處3號男廁","address":"金門縣金湖鎮正義里尚義機場","administration":"交通部","latitude":"24.43541676","longitude":"118.3679274","grade":"特優級","type2":"交通","type":"男廁所","exec":null,"diaper":null},{"country":"09020","city":"09020030","village":"山外里","number":"W030000055","name":"榕園女廁","address":"金門縣金湖鎮山外里安民1之7號","administration":"縣市政府","latitude":"24.44367799","longitude":"118.4301271","grade":"特優級","type2":"觀光地區及風景區","type":"女廁所","exec":null,"diaper":null},{"country":"09020","city":"09020030","village":"山外里","number":"W030000054","name":"太武山2號無障礙廁所","address":"金門縣金湖鎮山外里太武山上","administration":"內政部國家公園署","latitude":"24.46270235","longitude":"118.4171796","grade":"特優級","type2":"觀光地區及風景區","type":"無障礙廁所","exec":null,"diaper":null},{"country":"09020","city":"09020030","village":"新湖里","number":"W030000094","name":"金門陶瓷廠無障礙廁所","address":"金門縣金湖鎮新湖里漁村","administration":"縣市政府","latitude":"24.43536602","longitude":"118.4065972","grade":"特優級","type2":"觀光地區及風景區","type":"無障礙廁所","exec":null,"diaper":null},{"country":"09020","city":"09020020","village":"西園里","number":"W020000029","name":"文化園區C棟博物館男廁","address":"金門縣金沙鎮西園里文化路","administration":"縣市政府","latitude":"24.49931484","longitude":"118.4035868","grade":"特優級","type2":"文化育樂活動場所","type":"男廁所","exec":null,"diaper":null},{"country":"09020","city":"09020020","village":"西園里","number":"W020000028","name":"文化園區A棟2F無障礙廁所","address":"金門縣金沙鎮西園里文化路","administration":"縣市政府","latitude":"24.49931484","longitude":"118.4035868","grade":"特優級","type2":"文化育樂活動場所","type":"無障礙廁所","exec":null,"diaper":null},{"country":"09020","city":"09020020","village":"西園里","number":"W020000027","name":"文化園區A棟2F女廁","address":"金門縣金沙鎮西園里文化路","administration":"縣市政府","latitude":"24.49931484","longitude":"118.4035868","grade":"特優級","type2":"文化育樂活動場所","type":"女廁所","exec":null,"diaper":null},{"country":"09020","city":"09020020","village":"西園里","number":"W020000026","name":"文化園區A棟2F男廁","address":"金門縣金沙鎮西園里文化路","administration":"縣市政府","latitude":"24.49931484","longitude":"118.4035868","grade":"特優級","type2":"文化育樂活動場所","type":"男廁所","exec":null,"diaper":null},{"country":"09020","city":"09020020","village":"西園里","number":"W020000025","name":"文化園區A棟1F無障礙廁所","address":"金門縣金沙鎮西園里文化路","administration":"縣市政府","latitude":"24.49931484","longitude":"118.4035868","grade":"特優級","type2":"文化育樂活動場所","type":"無障礙廁所","exec":null,"diaper":null},{"country":"09020","city":"09020020","village":"西園里","number":"W020000024","name":"文化園區A棟1F女廁","address":"金門縣金沙鎮西園里文化路","administration":"縣市政府","latitude":"24.49931484","longitude":"118.4035868","grade":"特優級","type2":"文化育樂活動場所","type":"女廁所","exec":null,"diaper":null},{"country":"09020","city":"09020020","village":"大洋里","number":"W020000021","name":"森林公園無障礙廁所","address":"金門縣金沙鎮大洋里林務所停車場","administration":"縣市政府","latitude":"24.45885521","longitude":"118.4424607","grade":"特優級","type2":"公園","type":"無障礙廁所","exec":null,"diaper":null},{"country":"09020","city":"09020020","village":"大洋里","number":"W020000020","name":"森林公園女廁","address":"金門縣金沙鎮大洋里林務所停車場","administration":"縣市政府","latitude":"24.45885521","longitude":"118.4424607","grade":"特優級","type2":"公園","type":"女廁所","exec":null,"diaper":null},{"country":"09020","city":"09020030","village":"新市里","number":"W030000006","name":"新市里菜市場男廁","address":"金門縣金湖鎮新市里新市里菜市場停車場旁","administration":"縣市政府","latitude":"24.44171614","longitude":"118.412988","grade":"特優級","type2":"商業營業場所","type":"男廁所","exec":null,"diaper":null},{"country":"09020","city":"09020050","village":"林湖村","number":"W050000027","name":"烈嶼鄉公所1F男廁","address":"金門縣烈嶼鄉林湖村西路","administration":"縣市政府","latitude":"24.42947547","longitude":"118.2443952","grade":"特優級","type2":"民眾洽公場所","type":"男廁所","exec":null,"diaper":null},{"country":"09020","city":"09020030","village":"正義里","number":"W030000068","name":"金門航空站入境處2號女廁","address":"金門縣金湖鎮正義里尚義機場","administration":"交通部民用航空局","latitude":"24.43541676","longitude":"118.3679274","grade":"特優級","type2":"交通","type":"女廁所","exec":null,"diaper":null},{"country":"09020","city":"09020030","village":"正義里","number":"W030000067","name":"金門航空站入境處2號男廁","address":"金門縣金湖鎮正義里尚義機場","administration":"交通部民用航空局","latitude":"24.43541676","longitude":"118.3679274","grade":"特優級","type2":"交通","type":"男廁所","exec":null,"diaper":null},{"country":"09020","city":"09020030","village":"正義里","number":"W030000066","name":"金門航空站入境處1號無障礙廁所","address":"金門縣金湖鎮正義里尚義機場","administration":"交通部民用航空局","latitude":"24.43541676","longitude":"118.3679274","grade":"特優級","type2":"交通","type":"無障礙廁所","exec":null,"diaper":null},{"country":"09020","city":"09020030","village":"正義里","number":"W030000065","name":"金門航空站入境處1號女廁","address":"金門縣金湖鎮正義里尚義機場","administration":"交通部民用航空局","latitude":"24.43541676","longitude":"118.3679274","grade":"特優級","type2":"交通","type":"女廁所","exec":null,"diaper":null},{"country":"09020","city":"09020030","village":"瓊林里","number":"W030000032","name":"特約茶室展示館女廁","address":"金門縣金湖鎮瓊林里小徑","administration":"內政部國家公園署","latitude":"24.44848155","longitude":"118.3849279","grade":"特優級","type2":"觀光地區及風景區","type":"男廁所","exec":null,"diaper":null},{"country":"09020","city":"09020020","village":"汶沙里","number":"W020000058","name":"沙美加油站無障礙廁所","address":"金門縣金沙鎮汶沙里環島北路四段569號","administration":"旺達鴻股份有限公司","latitude":"24.49056653","longitude":"118.4101892","grade":"特優級","type2":"商業營業場所","type":"無障礙廁所","exec":null,"diaper":null},{"country":"09020","city":"09020020","village":"汶沙里","number":"W020000057","name":"沙美加油站女廁","address":"金門縣金沙鎮汶沙里環島北路四段569號","administration":"旺達鴻股份有限公司","latitude":"24.49056653","longitude":"118.4101892","grade":"特優級","type2":"商業營業場所","type":"女廁所","exec":null,"diaper":null},{"country":"09020","city":"09020020","village":"官嶼里","number":"W020000056","name":"馬山觀測站女廁","address":"金門縣金沙鎮官嶼里馬山觀測站","administration":"內政部國家公園署","latitude":"24.52777592","longitude":"118.4088806","grade":"特優級","type2":"觀光地區及風景區","type":"女廁所","exec":null,"diaper":null},{"country":"09020","city":"09020020","village":"浦山里","number":"W020000047","name":"呂厝村落周邊無障礙廁所","address":"金門縣金沙鎮浦山里呂厝鶯山廟旁","administration":"縣市政府","latitude":"24.4854943","longitude":"118.3888434","grade":"特優級","type2":"觀光地區及風景區","type":"無障礙廁所","exec":null,"diaper":null},{"country":"09020","city":"09020020","village":"浦山里","number":"W020000046","name":"呂厝村落周邊女廁","address":"金門縣金沙鎮浦山里呂厝鶯山廟旁","administration":"縣市政府","latitude":"24.4854943","longitude":"118.3888434","grade":"特優級","type2":"觀光地區及風景區","type":"女廁所","exec":null,"diaper":null},{"country":"09020","city":"09020020","village":"浦山里","number":"W020000045","name":"呂厝村落周邊男廁","address":"金門縣金沙鎮浦山里呂厝鶯山廟旁","administration":"縣市政府","latitude":"24.4854943","longitude":"118.3888434","grade":"特優級","type2":"觀光地區及風景區","type":"男廁所","exec":null,"diaper":null},{"country":"09020","city":"09020030","village":"正義里","number":"W030000018","name":"成功海灘男廁","address":"金門縣金湖鎮正義里成功海灘","administration":"縣市政府","latitude":"24.43590492","longitude":"118.3870089","grade":"特優級","type2":"公園","type":"男廁所","exec":null,"diaper":null},{"country":"09020","city":"09020030","village":"新湖里","number":"W030000027","name":"82據點男廁","address":"金門縣金湖鎮新湖里82據點","administration":"縣市政府","latitude":"24.42491923","longitude":"118.42757","grade":"特優級","type2":"觀光地區及風景區","type":"男廁所","exec":null,"diaper":null},{"country":"09020","city":"09020010","village":"金水里","number":"W010000039","name":"水頭商港1號無障礙廁所","address":"金門縣金城鎮金水里西海路一段","administration":"縣市政府","latitude":"24.415424","longitude":"118.287007","grade":"特優級","type2":"交通","type":"無障礙廁所","exec":null,"diaper":null},{"country":"09020","city":"09020010","village":"金水里","number":"W010000038","name":"水頭商港1號女廁","address":"金門縣金城鎮金水里西海路一段","administration":"縣市政府","latitude":"24.41529509","longitude":"118.2866266","grade":"特優級","type2":"交通","type":"女廁所","exec":null,"diaper":null},{"country":"09020","city":"09020010","village":"金水里","number":"W010000037","name":"水頭商港1號男廁","address":"金門縣金城鎮金水里西海路一段","administration":"縣市政府","latitude":"24.41529509","longitude":"118.2866266","grade":"特優級","type2":"交通","type":"男廁所","exec":null,"diaper":null},{"country":"09020","city":"09020010","village":"金水里","number":"W010000065","name":"茅山塔女廁","address":"金門縣金城鎮金水里茅山塔停車場","administration":"縣市政府","latitude":"24.40948981","longitude":"118.298069","grade":"特優級","type2":"觀光地區及風景區","type":"女廁所","exec":null,"diaper":null},{"country":"09020","city":"09020010","village":"賢庵里","number":"W010000067","name":"牧馬侯祠男廁","address":"金門縣金城鎮賢庵里牧馬侯祠對面","administration":"縣市政府","latitude":"24.42022348","longitude":"118.3224461","grade":"特優級","type2":"宗教禮儀場所","type":"男廁所","exec":null,"diaper":null},{"country":"09020","city":"09020020","village":"汶沙里","number":"W020000060","name":"金沙清潔隊部性別友善廁所","address":"金門縣金沙鎮汶沙里英坑60之1號","administration":"縣市政府","latitude":"24.49948985","longitude":"118.4206168","grade":"特優級","type2":"民眾洽公場所","type":"性別友善廁所","exec":null,"diaper":null},{"country":"09020","city":"09020020","village":"汶沙里","number":"W020000059","name":"金沙清潔隊部親子廁","address":"金門縣金沙鎮汶沙里英坑60之1號","administration":"縣市政府","latitude":"24.49948985","longitude":"118.4206168","grade":"特優級","type2":"民眾洽公場所","type":"親子廁所","exec":null,"diaper":null},{"country":"09020","city":"09020010","village":"南門里","number":"W010000073","name":"金門縣立體育場親子廁所","address":"金門縣金城鎮南門里民族路261號","administration":"縣市政府","latitude":"24.42994042","longitude":"118.3124865","grade":"特優級","type2":"文化育樂活動場所","type":"親子廁所","exec":null,"diaper":null},{"country":"09020","city":"09020030","village":"新市里","number":"W030000107","name":"金湖鎮立圖書館3F無障礙廁所","address":"金門縣金湖鎮新市里林森路6-2號","administration":"縣市政府","latitude":"24.44204055","longitude":"118.4166908","grade":"特優級","type2":"文化育樂活動場所","type":"無障礙廁所","exec":null,"diaper":null},{"country":"09020","city":"09020030","village":"新市里","number":"W030000106","name":"金湖鎮立圖書館3F女廁","address":"金門縣金湖鎮新市里林森路6-2號","administration":"縣市政府","latitude":"24.44204055","longitude":"118.4166908","grade":"特優級","type2":"文化育樂活動場所","type":"女廁所","exec":null,"diaper":null},{"country":"09020","city":"09020030","village":"新市里","number":"W030000105","name":"金湖鎮立圖書館3F男廁","address":"金門縣金湖鎮新市里林森路6-2號","administration":"縣市政府","latitude":"24.44204055","longitude":"118.4166908","grade":"特優級","type2":"文化育樂活動場所","type":"男廁所","exec":null,"diaper":null},{"country":"09020","city":"09020030","village":"新市里","number":"W030000104","name":"金湖鎮立圖書館2F無障礙廁所","address":"金門縣金湖鎮新市里林森路6-2號","administration":"縣市政府","latitude":"24.44204055","longitude":"118.4166908","grade":"特優級","type2":"文化育樂活動場所","type":"無障礙廁所","exec":null,"diaper":null},{"country":"09020","city":"09020030","village":"新市里","number":"W030000103","name":"金湖鎮立圖書館2F女廁","address":"金門縣金湖鎮新市里林森路6-2號","administration":"縣市政府","latitude":"24.44204055","longitude":"118.4166908","grade":"特優級","type2":"文化育樂活動場所","type":"女廁所","exec":null,"diaper":null},{"country":"09020","city":"09020050","village":"上林村","number":"W050000040","name":"烈嶼鄉圖書館1F男廁","address":"金門縣烈嶼鄉上林村后井40號","administration":"縣市政府","latitude":"24.4289141","longitude":"118.2427387","grade":"特優級","type2":"文化育樂活動場所","type":"男廁所","exec":null,"diaper":null},{"country":"09020","city":"09020050","village":"林湖村","number":"W050000039","name":"東林海濱公園無障礙廁所","address":"金門縣烈嶼鄉林湖村南環道","administration":"縣市政府","latitude":"24.42494864","longitude":"118.2509515","grade":"特優級","type2":"公園","type":"無障礙廁所","exec":null,"diaper":null},{"country":"09020","city":"09020030","village":"料羅里","number":"W030000081","name":"料羅碼頭1號無障礙廁所","address":"金門縣金湖鎮料羅里料羅碼頭","administration":"縣市政府","latitude":"24.40796102","longitude":"118.4276793","grade":"特優級","type2":"交通","type":"無障礙廁所","exec":null,"diaper":null},{"country":"09020","city":"09020030","village":"料羅里","number":"W030000080","name":"料羅碼頭1號女廁","address":"金門縣金湖鎮料羅里料羅碼頭","administration":"縣市政府","latitude":"24.40796102","longitude":"118.4276793","grade":"特優級","type2":"交通","type":"女廁所","exec":null,"diaper":null},{"country":"09020","city":"09020050","village":"林湖村","number":"W050000026","name":"九宮碼頭2號無障礙廁所","address":"金門縣烈嶼鄉林湖村九宮碼頭","administration":"縣市政府","latitude":"24.42546095","longitude":"118.2631154","grade":"特優級","type2":"交通","type":"無障礙廁所","exec":null,"diaper":null},{"country":"09020","city":"09020050","village":"林湖村","number":"W050000025","name":"九宮碼頭2號女廁","address":"金門縣烈嶼鄉林湖村九宮碼頭","administration":"縣市政府","latitude":"24.42546095","longitude":"118.2631154","grade":"特優級","type2":"交通","type":"女廁所","exec":null,"diaper":null},{"country":"09020","city":"09020050","village":"林湖村","number":"W050000024","name":"九宮碼頭2號男廁","address":"金門縣烈嶼鄉林湖村九宮碼頭","administration":"縣市政府","latitude":"24.42546095","longitude":"118.2631154","grade":"特優級","type2":"交通","type":"男廁所","exec":null,"diaper":null},{"country":"09020","city":"09020040","village":"榜林村","number":"W040000015","name":"金酒公司行政大樓男廁","address":"金門縣金寧鄉榜林村桃園路","administration":"縣市政府","latitude":"24.43228986","longitude":"118.3431711","grade":"特優級","type2":"商業營業場所","type":"男廁所","exec":null,"diaper":null},{"country":"09020","city":"09020040","village":"榜林村","number":"W040000015","name":"金酒公司行政大樓男廁","address":"金門縣金寧鄉榜林村桃園路","administration":"縣市政府","latitude":"24.43228986","longitude":"118.3431711","grade":"特優級","type2":"商業營業場所","type":"男廁所","exec":null,"diaper":null},{"country":"09020","city":"09020040","village":"榜林村","number":"W040000013","name":"金民加油站男廁","address":"金門縣金寧鄉榜林村伯玉路二段","administration":"金民股份有限公司","latitude":"24.439162","longitude":"118.3342518","grade":"特優級","type2":"商業營業場所","type":"男廁所","exec":null,"diaper":null},{"country":"09020","city":"09020040","village":"榜林村","number":"W040000014","name":"后湖濱海公園男廁","address":"金門縣金寧鄉榜林村東湖路后湖","administration":"縣市政府","latitude":"24.41651456","longitude":"118.3444954","grade":"特優級","type2":"公園","type":"男廁所","exec":null,"diaper":null},{"country":"09020","city":"09020040","village":"榜林村","number":"W040000012","name":"金門加油站男廁","address":"金門縣金寧鄉榜林村伯玉路一段","administration":"安佳信股份有限公司","latitude":"24.43598093","longitude":"118.327153","grade":"特優級","type2":"商業營業場所","type":"男廁所","exec":null,"diaper":null},{"country":"09020","city":"09020040","village":"古寧村","number":"W040000003","name":"古寧頭戰史館男廁","address":"金門縣金寧鄉古寧村北山","administration":"內政部國家公園署","latitude":"24.4832303","longitude":"118.3209261","grade":"特優級","type2":"觀光地區及風景區","type":"男廁所","exec":null,"diaper":null},{"country":"09020","city":"09020040","village":"古寧村","number":"W040000004","name":"古寧頭戰史館女廁","address":"金門縣金寧鄉古寧村北山","administration":"內政部國家公園署","latitude":"24.4832303","longitude":"118.3209261","grade":"特優級","type2":"觀光地區及風景區","type":"女廁所","exec":null,"diaper":null},{"country":"09020","city":"09020030","village":"瓊林里","number":"W030000035","name":"社福館1F女廁","address":"金門縣金湖鎮瓊林里瓊徑路","administration":"縣市政府","latitude":"24.45252838","longitude":"118.3811618","grade":"特優級","type2":"社福機構、集會場所","type":"女廁所","exec":null,"diaper":null},{"country":"09020","city":"09020040","village":"盤山村","number":"W040000002","name":"蔣經國先生紀念館後側男廁","address":"金門縣金寧鄉盤山村桃園路","administration":"內政部國家公園署","latitude":"24.43700745","longitude":"118.3536868","grade":"特優級","type2":"觀光地區及風景區","type":"男廁所","exec":null,"diaper":null},{"country":"09020","city":"09020030","village":"瓊林里","number":"W030000036","name":"社福館1F無障礙廁所","address":"金門縣金湖鎮瓊林里瓊徑路","administration":"縣市政府","latitude":"24.45252838","longitude":"118.3811618","grade":"特優級","type2":"社福機構、集會場所","type":"無障礙廁所","exec":null,"diaper":null},{"country":"09020","city":"09020030","village":"瓊林里","number":"W030000037","name":"社福館演藝廳旁男廁","address":"金門縣金湖鎮瓊林里瓊徑路35號","administration":"縣市政府","latitude":"24.45252838","longitude":"118.3811618","grade":"特優級","type2":"社福機構、集會場所","type":"男廁所","exec":null,"diaper":null},{"country":"09020","city":"09020030","village":"正義里","number":"W030000024","name":"金門航空站大廳1號無障礙廁所","address":"金門縣金湖鎮正義里尚義機場","administration":"交通部民用航空局","latitude":"24.43541676","longitude":"118.3679274","grade":"特優級","type2":"交通","type":"無障礙廁所","exec":null,"diaper":null},{"country":"09020","city":"09020030","village":"正義里","number":"W030000023","name":"金門航空站大廳1號女廁","address":"金門縣金湖鎮正義里尚義機場","administration":"交通部","latitude":"24.43541676","longitude":"118.3679274","grade":"特優級","type2":"交通","type":"女廁所","exec":null,"diaper":null},{"country":"09020","city":"09020030","village":"瓊林里","number":"W030000113","name":"蘭湖公園無障礙廁所","address":"金門縣金湖鎮瓊林里蘭湖","administration":"縣市政府","latitude":"24.45030712","longitude":"118.3830809","grade":"特優級","type2":"觀光地區及風景區","type":"無障礙廁所","exec":null,"diaper":null},{"country":"09020","city":"09020030","village":"瓊林里","number":"W030000112","name":"蘭湖公園女廁","address":"金門縣金湖鎮瓊林里蘭湖","administration":"縣市政府","latitude":"24.45030712","longitude":"118.3830809","grade":"特優級","type2":"觀光地區及風景區","type":"女廁所","exec":null,"diaper":null},{"country":"09020","city":"09020030","village":"瓊林里","number":"W030000111","name":"蘭湖公園男廁","address":"金門縣金湖鎮瓊林里蘭湖","administration":"縣市政府","latitude":"24.45030712","longitude":"118.3830809","grade":"特優級","type2":"觀光地區及風景區","type":"男廁所","exec":null,"diaper":null},{"country":"09020","city":"09020040","village":"古寧村","number":"W040000032","name":"北山海堤公廁","address":"金門縣金寧鄉古寧村北山海堤","administration":"縣市政府","latitude":"24.48526627","longitude":"118.3045097","grade":"特優級","type2":"觀光地區及風景區","type":"混合廁所","exec":null,"diaper":null},{"country":"09020","city":"09020030","village":"新湖里","number":"W030000014","name":"金門陶瓷廠男廁","address":"金門縣金湖鎮新湖里漁村","administration":"縣市政府","latitude":"24.43536602","longitude":"118.4065972","grade":"特優級","type2":"觀光地區及風景區","type":"男廁所","exec":null,"diaper":null},{"country":"09020","city":"09020030","village":"新市里","number":"W030000008","name":"衛福部金門醫院女廁","address":"金門縣金湖鎮新市里復興路","administration":"衛生福利部","latitude":"24.44161491","longitude":"118.4186459","grade":"特優級","type2":"社福機構、集會場所","type":"女廁所","exec":null,"diaper":null},{"country":"09020","city":"09020030","village":"正義里","number":"W030000022","name":"金門航空站大廳1號男廁","address":"金門縣金湖鎮正義里尚義機場","administration":"交通部民用航空局","latitude":"24.43541676","longitude":"118.3679274","grade":"特優級","type2":"交通","type":"男廁所","exec":null,"diaper":null},{"country":"09020","city":"09020010","village":"東門里","number":"W010000078","name":"浯江溪停車場3號女廁","address":"金門縣金城鎮東門里北堤路停車場","administration":"縣市政府","latitude":"24.42957066","longitude":"118.3212155","grade":"特優級","type2":"交通","type":"女廁所","exec":null,"diaper":null},{"country":"09020","city":"09020010","village":"東門里","number":"W010000077","name":"浯江溪停車場2號女廁","address":"金門縣金城鎮東門里北堤路停車場","administration":"縣市政府","latitude":"24.42940294","longitude":"118.3182753","grade":"特優級","type2":"交通","type":"女廁所","exec":null,"diaper":null},{"country":"09020","city":"09020010","village":"南門里","number":"W010000076","name":"浯江溪停車場1號女廁","address":"金門縣金城鎮南門里北堤路停車場","administration":"縣市政府","latitude":"24.42899818","longitude":"118.3157274","grade":"特優級","type2":"交通","type":"女廁所","exec":null,"diaper":null},{"country":"09020","city":"09020030","village":"新市里","number":"W030000004","name":"中正公園老人休閒中心男廁","address":"金門縣金湖鎮新市里太湖路三段","administration":"縣市政府","latitude":"24.43755166","longitude":"118.4237726","grade":"特優級","type2":"社福機構、集會場所","type":"男廁所","exec":null,"diaper":null},{"country":"09020","city":"09020030","village":"新市里","number":"W030000005","name":"中正公園老人休閒中心女廁","address":"金門縣金湖鎮新市里太湖路三段","administration":"縣市政府","latitude":"24.43755166","longitude":"118.4237726","grade":"特優級","type2":"社福機構、集會場所","type":"女廁所","exec":null,"diaper":null},{"country":"09020","city":"09020030","village":"料羅里","number":"W030000029","name":"料羅碼頭2號男廁","address":"金門縣金湖鎮料羅里料羅碼頭","administration":"縣市政府","latitude":"24.40806574","longitude":"118.430054","grade":"特優級","type2":"交通","type":"男廁所","exec":null,"diaper":null},{"country":"09020","city":"09020030","village":"正義里","number":"W030000019","name":"金門航空站特產中心旁男廁","address":"金門縣金湖鎮正義里尚義機場","administration":"交通部","latitude":"24.43522385","longitude":"118.3673601","grade":"特優級","type2":"交通","type":"男廁所","exec":null,"diaper":null},{"country":"09020","city":"09020030","village":"正義里","number":"W030000020","name":"金門航空站特產中心旁女廁","address":"金門縣金湖鎮正義里尚義機場","administration":"交通部","latitude":"24.43522385","longitude":"118.3673601","grade":"特優級","type2":"交通","type":"女廁所","exec":null,"diaper":null},{"country":"09020","city":"09020030","village":"山外里","number":"W030000012","name":"榕園男廁","address":"金門縣金湖鎮山外里安民","administration":"縣市政府","latitude":"24.44367799","longitude":"118.4301271","grade":"特優級","type2":"觀光地區及風景區","type":"男廁所","exec":null,"diaper":null},{"country":"09020","city":"09020010","village":"南門里","number":"W010000022","name":"浯江溪停車場1號男廁","address":"金門縣金城鎮南門里北堤路停車場","administration":"縣市政府","latitude":"24.42899818","longitude":"118.3157274","grade":"特優級","type2":"交通","type":"男廁所","exec":null,"diaper":null},{"country":"09020","city":"09020010","village":"南門里","number":"W010000019","name":"體育館-民族路側女廁","address":"金門縣金城鎮南門里民族路","administration":"縣市政府","latitude":"24.42998984","longitude":"118.3143463","grade":"特優級","type2":"文化育樂活動場所","type":"女廁所","exec":null,"diaper":null},{"country":"09020","city":"09020010","village":"南門里","number":"W010000018","name":"體育館-民族路側男廁","address":"金門縣金城鎮南門里民族路","administration":"縣市政府","latitude":"24.42998984","longitude":"118.3143463","grade":"特優級","type2":"文化育樂活動場所","type":"男廁所","exec":null,"diaper":null},{"country":"09020","city":"09020010","village":"東門里","number":"W010000005","name":"浯江溪停車場2號男廁","address":"金門縣金城鎮東門里浯江北堤路旁","administration":"縣市政府","latitude":"24.42937497","longitude":"118.3182746","grade":"特優級","type2":"民眾洽公場所","type":"男廁所","exec":null,"diaper":null},{"country":"09020","city":"09020010","village":"東門里","number":"W010000006","name":"浯江溪停車場3號男廁","address":"金門縣金城鎮東門里北堤路停車場","administration":"縣市政府","latitude":"24.42957066","longitude":"118.3212155","grade":"特優級","type2":"交通","type":"男廁所","exec":null,"diaper":null},{"country":"09020","city":"09020010","village":"西門里","number":"W010000008","name":"統精加油站男廁","address":"金門縣金城鎮西門里環島北路一段","administration":"統精股份有限公司","latitude":"24.44337403","longitude":"118.3258793","grade":"特優級","type2":"商業營業場所","type":"男廁所","exec":null,"diaper":null},{"country":"09020","city":"09020010","village":"西門里","number":"W010000014","name":"文化中心女廁","address":"金門縣金城鎮西門里環島北路一段","administration":"縣市政府","latitude":"24.44085028","longitude":"118.323409","grade":"特優級","type2":"文化育樂活動場所","type":"女廁所","exec":null,"diaper":null},{"country":"09020","city":"09020010","village":"古城里","number":"W010000030","name":"古崗樓女廁","address":"金門縣金城鎮古城里珠水路旁","administration":"國家公園署","latitude":"24.39581014","longitude":"118.3152648","grade":"特優級","type2":"觀光地區及風景區","type":"女廁所","exec":null,"diaper":null},{"country":"09020","city":"09020010","village":"北門里","number":"W010000024","name":"金城車站男廁","address":"金門縣金城鎮北門里民生路7號","administration":"縣市政府","latitude":"24.43328613","longitude":"118.3199992","grade":"特優級","type2":"交通","type":"男廁所","exec":null,"diaper":null},{"country":"09020","city":"09020030","village":"瓊林里","number":"W030000119","name":"特約茶室展示館無障礙廁所","address":"金門縣金湖鎮瓊林里小徑126號","administration":"內政部國家公園署","latitude":"24.44848155","longitude":"118.3849279","grade":"特優級","type2":"觀光地區及風景區","type":"無障礙廁所","exec":null,"diaper":null},{"country":"09020","city":"09020030","village":"正義里","number":"W030000118","name":"陳景蘭洋樓女廁","address":"金門縣金湖鎮正義里成功村1號","administration":"縣市政府","latitude":"24.43736657","longitude":"118.3900474","grade":"特優級","type2":"觀光地區及風景區","type":"女廁所","exec":null,"diaper":null},{"country":"09020","city":"09020030","village":"山外里","number":"W030000117","name":"迎賓館無障礙廁所","address":"金門縣金湖鎮山外里山外72之1號","administration":"內政部國家公園署","latitude":"24.44788448","longitude":"118.4179418","grade":"特優級","type2":"觀光地區及風景區","type":"無障礙廁所","exec":null,"diaper":null},{"country":"09020","city":"09020030","village":"山外里","number":"W030000116","name":"迎賓館女廁","address":"金門縣金湖鎮山外里山外72之1號","administration":"內政部國家公園署","latitude":"24.44788448","longitude":"118.4179418","grade":"特優級","type2":"觀光地區及風景區","type":"女廁所","exec":null,"diaper":null},{"country":"09020","city":"09020010","village":"金水里","number":"W010000106","name":"水頭商港5號無障礙廁所","address":"金門縣金城鎮金水里西海路一段5號","administration":"縣市政府","latitude":"24.41529509","longitude":"118.2866266","grade":"特優級","type2":"交通","type":"無障礙廁所","exec":null,"diaper":null},{"country":"09020","city":"09020010","village":"金水里","number":"W010000105","name":"水頭商港5號女廁","address":"金門縣金城鎮金水里西海路一段5號","administration":"縣市政府","latitude":"24.41529509","longitude":"118.2866266","grade":"特優級","type2":"交通","type":"女廁所","exec":null,"diaper":null},{"country":"09020","city":"09020010","village":"金水里","number":"W010000104","name":"水頭商港5號男廁","address":"金門縣金城鎮金水里西海路一段5號","administration":"縣市政府","latitude":"24.41529509","longitude":"118.2866266","grade":"特優級","type2":"交通","type":"男廁所","exec":null,"diaper":null},{"country":"09020","city":"09020010","village":"金水里","number":"W010000103","name":"水頭商港4號無障礙廁所","address":"金門縣金城鎮金水里西海路一段5號","administration":"縣市政府","latitude":"24.41529509","longitude":"118.2866266","grade":"特優級","type2":"交通","type":"無障礙廁所","exec":null,"diaper":null},{"country":"09020","city":"09020010","village":"金水里","number":"W010000102","name":"水頭商港4號女廁","address":"金門縣金城鎮金水里西海路一段5號","administration":"縣市政府","latitude":"24.41529509","longitude":"118.2866266","grade":"特優級","type2":"交通","type":"女廁所","exec":null,"diaper":null},{"country":"09020","city":"09020010","village":"金水里","number":"W010000101","name":"水頭商港4號男廁","address":"金門縣金城鎮金水里西海路一段5號","administration":"縣市政府","latitude":"24.41529509","longitude":"118.2866266","grade":"特優級","type2":"交通","type":"男廁所","exec":null,"diaper":null},{"country":"09020","city":"09020010","village":"金水里","number":"W010000100","name":"水頭商港3號無障礙廁所","address":"金門縣金城鎮金水里西海路一段5號","administration":"縣市政府","latitude":"24.41529509","longitude":"118.2866266","grade":"特優級","type2":"交通","type":"無障礙廁所","exec":null,"diaper":null},{"country":"09020","city":"09020010","village":"金水里","number":"W010000099","name":"水頭商港3號女廁","address":"金門縣金城鎮金水里西海路一段5號","administration":"縣市政府","latitude":"24.41529509","longitude":"118.2866266","grade":"特優級","type2":"交通","type":"女廁所","exec":null,"diaper":null},{"country":"09020","city":"09020010","village":"金水里","number":"W010000096","name":"水頭商港2號女廁","address":"金門縣金城鎮金水里西海路一段5號","administration":"縣市政府","latitude":"24.41529509","longitude":"118.2866266","grade":"特優級","type2":"交通","type":"女廁所","exec":null,"diaper":null},{"country":"09020","city":"09020010","village":"南門里","number":"W010000093","name":"體育館-民族路側無障礙廁所","address":"金門縣金城鎮南門里民族路","administration":"縣市政府","latitude":"24.42998984","longitude":"118.3143463","grade":"特優級","type2":"文化育樂活動場所","type":"無障礙廁所","exec":null,"diaper":null},{"country":"09020","city":"09020010","village":"西門里","number":"W010000092","name":"統精加油站女廁","address":"金門縣金城鎮西門里環島北路一段138號","administration":"統精股份有限公司","latitude":"24.44337403","longitude":"118.3258793","grade":"特優級","type2":"商業營業場所","type":"女廁所","exec":null,"diaper":null},{"country":"09020","city":"09020010","village":"金水里","number":"W010000091","name":"風獅爺文物坊女廁","address":"金門縣金城鎮金水里前水頭42號","administration":"內政部國家公園署","latitude":"24.40950578","longitude":"118.2986691","grade":"特優級","type2":"觀光地區及風景區","type":"女廁所","exec":null,"diaper":null},{"country":"09020","city":"09020010","village":"南門里","number":"W010000072","name":"慢速壘球場無障礙廁所","address":"金門縣金城鎮南門里慢速壘球場旁","administration":"縣市政府","latitude":"24.43123584","longitude":"118.3108064","grade":"特優級","type2":"文化育樂活動場所","type":"無障礙廁所","exec":null,"diaper":null},{"country":"09020","city":"09020010","village":"南門里","number":"W010000071","name":"慢速壘球場女廁","address":"金門縣金城鎮南門里慢速壘球場旁","administration":"縣市政府","latitude":"24.43123584","longitude":"118.3108064","grade":"特優級","type2":"文化育樂活動場所","type":"女廁所","exec":null,"diaper":null},{"country":"09020","city":"09020010","village":"南門里","number":"W010000070","name":"慢速壘球場男廁","address":"金門縣金城鎮南門里慢速壘球場旁","administration":"縣市政府","latitude":"24.43123584","longitude":"118.3108064","grade":"特優級","type2":"文化育樂活動場所","type":"男廁所","exec":null,"diaper":null},{"country":"09020","city":"09020010","village":"金水里","number":"W010000095","name":"水頭商港2號男廁","address":"金門縣金城鎮金水里西海路一段5號","administration":"縣市政府","latitude":"24.41529509","longitude":"118.2866266","grade":"特優級","type2":"交通","type":"男廁所","exec":null,"diaper":null},{"country":"09020","city":"09020010","village":"南門里","number":"W010000094","name":"體育場司令台下方女廁","address":"金門縣金城鎮南門里民族路261號","administration":"縣市政府","latitude":"24.43328613","longitude":"118.3124059","grade":"特優級","type2":"文化育樂活動場所","type":"女廁所","exec":null,"diaper":null},{"country":"09020","city":"09020050","village":"黃埔村","number":"W050000037","name":"勇士堡女廁","address":"金門縣烈嶼鄉黃埔村黃厝勇士堡","administration":"縣市政府","latitude":"24.44736695","longitude":"118.2520994","grade":"特優級","type2":"觀光地區及風景區","type":"女廁所","exec":null,"diaper":null},{"country":"09020","city":"09020050","village":"黃埔村","number":"W050000036","name":"勇士堡男廁","address":"金門縣烈嶼鄉黃埔村黃厝勇士堡","administration":"縣市政府","latitude":"24.44736695","longitude":"118.2520994","grade":"特優級","type2":"觀光地區及風景區","type":"男廁所","exec":null,"diaper":null},{"country":"09020","city":"09020030","village":"正義里","number":"W030000061","name":"金門航空站大廳2號男廁","address":"金門縣金湖鎮正義里尚義機場","administration":"交通部民用航空局","latitude":"24.43541676","longitude":"118.3679274","grade":"特優級","type2":"交通","type":"男廁所","exec":null,"diaper":null},{"country":"09020","city":"09020030","village":"山外里","number":"W030000053","name":"太武山2號女廁","address":"金門縣金湖鎮山外里太武山上","administration":"內政部國家公園署","latitude":"24.46270235","longitude":"118.4171796","grade":"特優級","type2":"觀光地區及風景區","type":"女廁所","exec":null,"diaper":null},{"country":"09020","city":"09020040","village":"后盤村","number":"W040000028","name":"國家公園大門左側女廁","address":"金門縣金寧鄉后盤村伯玉路二段","administration":"內政部國家公園署","latitude":"24.44388635","longitude":"118.3533229","grade":"特優級","type2":"觀光地區及風景區","type":"女廁所","exec":null,"diaper":null},{"country":"09020","city":"09020040","village":"盤山村","number":"W040000027","name":"蔣經國先生紀念館後側女廁","address":"金門縣金寧鄉盤山村桃園路196號","administration":"內政部國家公園署","latitude":"24.43700745","longitude":"118.3536868","grade":"特優級","type2":"觀光地區及風景區","type":"女廁所","exec":null,"diaper":null},{"country":"09020","city":"09020010","village":"西門里","number":"W010000063","name":"金門縣政府3號女廁","address":"金門縣金城鎮西門里民生路60號","administration":"縣市政府","latitude":"24.4371691","longitude":"118.3191152","grade":"特優級","type2":"民眾洽公場所","type":"女廁所","exec":null,"diaper":null},{"country":"09020","city":"09020010","village":"西門里","number":"W010000062","name":"金門縣政府3號男廁","address":"金門縣金城鎮西門里民生路60號","administration":"縣市政府","latitude":"24.4371691","longitude":"118.3191152","grade":"特優級","type2":"民眾洽公場所","type":"男廁所","exec":null,"diaper":null},{"country":"09020","city":"09020010","village":"西門里","number":"W010000061","name":"金門縣政府2號女廁","address":"金門縣金城鎮西門里民生路60號","administration":"縣市政府","latitude":"24.43724594","longitude":"118.3196238","grade":"特優級","type2":"民眾洽公場所","type":"女廁所","exec":null,"diaper":null},{"country":"09020","city":"09020010","village":"西門里","number":"W010000060","name":"金門縣政府2號男廁","address":"金門縣金城鎮西門里民生路60號","administration":"縣市政府","latitude":"24.43724594","longitude":"118.3196238","grade":"特優級","type2":"民眾洽公場所","type":"男廁所","exec":null,"diaper":null},{"country":"09020","city":"09020010","village":"西門里","number":"W010000059","name":"金門縣政府1號女廁","address":"金門縣金城鎮西門里民生路60號","administration":"縣市政府","latitude":"24.43724594","longitude":"118.3196238","grade":"特優級","type2":"民眾洽公場所","type":"女廁所","exec":null,"diaper":null},{"country":"09020","city":"09020010","village":"西門里","number":"W010000058","name":"金門縣政府1號男廁","address":"金門縣金城鎮西門里民生路60號","administration":"縣市政府","latitude":"24.43708405","longitude":"118.3196844","grade":"特優級","type2":"民眾洽公場所","type":"男廁所","exec":null,"diaper":null},{"country":"09020","city":"09020040","village":"榜林村","number":"W040000030","name":"后湖濱海公園女廁","address":"金門縣金寧鄉榜林村東湖路后湖","administration":"縣市政府","latitude":"24.41651456","longitude":"118.3444954","grade":"特優級","type2":"公園","type":"女廁所","exec":null,"diaper":null},{"country":"09020","city":"09020040","village":"盤山村","number":"W040000031","name":"金寧鄉公所女廁","address":"金門縣金寧鄉盤山村仁愛新村1號","administration":"縣市政府","latitude":"24.45087347","longitude":"118.3347443","grade":"特優級","type2":"民眾洽公場所","type":"女廁所","exec":null,"diaper":null},{"country":"09020","city":"09020020","village":"汶沙里","number":"W020000018","name":"汶沙里菜市場女廁","address":"金門縣金沙鎮汶沙里汶沙里菜市場旁","administration":"縣市政府","latitude":"24.48987439","longitude":"118.4142937","grade":"特優級","type2":"商業營業場所","type":"女廁所","exec":null,"diaper":null},{"country":"09020","city":"09020020","village":"汶沙里","number":"W020000019","name":"金沙鎮公所3F女廁","address":"金門縣金沙鎮汶沙里環島東路一段","administration":"縣市政府","latitude":"24.48904489","longitude":"118.4132302","grade":"特優級","type2":"民眾洽公場所","type":"女廁所","exec":null,"diaper":null},{"country":"09020","city":"09020010","village":"北門里","number":"W010000057","name":"金城鎮公所無障礙廁所","address":"金門縣金城鎮北門里民生路2號","administration":"縣市政府","latitude":"24.43275911","longitude":"118.32082","grade":"特優級","type2":"民眾洽公場所","type":"無障礙廁所","exec":null,"diaper":null},{"country":"09020","city":"09020010","village":"北門里","number":"W010000056","name":"金城鎮公所女廁","address":"金門縣金城鎮北門里民生路2號","administration":"縣市政府","latitude":"24.43275911","longitude":"118.32082","grade":"特優級","type2":"民眾洽公場所","type":"女廁所","exec":null,"diaper":null},{"country":"09020","city":"09020010","village":"賢庵里","number":"W010000069","name":"牧馬侯祠無障礙廁所","address":"金門縣金城鎮賢庵里牧馬侯祠對面","administration":"縣市政府","latitude":"24.42022348","longitude":"118.3224461","grade":"特優級","type2":"宗教禮儀場所","type":"無障礙廁所","exec":null,"diaper":null},{"country":"09020","city":"09020010","village":"賢庵里","number":"W010000068","name":"牧馬侯祠女廁","address":"金門縣金城鎮賢庵里牧馬侯祠對面","administration":"縣市政府","latitude":"24.42022348","longitude":"118.3224461","grade":"特優級","type2":"宗教禮儀場所","type":"女廁所","exec":null,"diaper":null},{"country":"09020","city":"09020010","village":"南門里","number":"W010000048","name":"雄獅堡無障礙廁所","address":"金門縣金城鎮南門里民權路30巷旁","administration":"縣市政府","latitude":"24.4315112","longitude":"118.3101098","grade":"特優級","type2":"觀光地區及風景區","type":"無障礙廁所","exec":null,"diaper":null},{"country":"09020","city":"09020010","village":"南門里","number":"W010000046","name":"雄獅堡男廁","address":"金門縣金城鎮南門里民權路30巷旁","administration":"縣市政府","latitude":"24.4315112","longitude":"118.3101098","grade":"特優級","type2":"觀光地區及風景區","type":"男廁所","exec":null,"diaper":null},{"country":"09020","city":"09020030","village":"正義里","number":"W030000015","name":"陳景蘭洋樓男廁","address":"金門縣金湖鎮正義里陳景蘭洋樓","administration":"縣市政府","latitude":"24.43736657","longitude":"118.3900474","grade":"特優級","type2":"觀光地區及風景區","type":"男廁所","exec":null,"diaper":null},{"country":"09020","city":"09020030","village":"新湖里","number":"W030000088","name":"市港重劃區公園女廁","address":"金門縣金湖鎮新湖里市港五路","administration":"縣市政府","latitude":"24.4395391","longitude":"118.4116662","grade":"特優級","type2":"公園","type":"女廁所","exec":null,"diaper":null},{"country":"09020","city":"09020030","village":"新湖里","number":"W030000087","name":"市港重劃區公園男廁","address":"金門縣金湖鎮新湖里市港五路","administration":"縣市政府","latitude":"24.4394873","longitude":"118.4116301","grade":"特優級","type2":"公園","type":"男廁所","exec":null,"diaper":null},{"country":"09020","city":"09020030","village":"正義里","number":"W030000060","name":"成功海灘無障礙廁所","address":"金門縣金湖鎮正義里成功海灘","administration":"縣市政府","latitude":"24.43595867","longitude":"118.3868805","grade":"特優級","type2":"公園","type":"無障礙廁所","exec":null,"diaper":null},{"country":"09020","city":"09020030","village":"正義里","number":"W030000059","name":"成功海灘女廁","address":"金門縣金湖鎮正義里成功海灘","administration":"縣市政府","latitude":"24.43595867","longitude":"118.3868805","grade":"特優級","type2":"公園","type":"女廁所","exec":null,"diaper":null},{"country":"09020","city":"09020030","village":"瓊林里","number":"W030000083","name":"社福館演藝廳旁無障礙廁所","address":"金門縣金湖鎮瓊林里瓊徑路","administration":"縣市政府","latitude":"24.45252838","longitude":"118.3811618","grade":"特優級","type2":"社福機構、集會場所","type":"無障礙廁所","exec":null,"diaper":null},{"country":"09020","city":"09020030","village":"瓊林里","number":"W030000082","name":"社福館演藝廳旁女廁","address":"金門縣金湖鎮瓊林里瓊徑路","administration":"縣市政府","latitude":"24.45252838","longitude":"118.3811618","grade":"特優級","type2":"社福機構、集會場所","type":"女廁所","exec":null,"diaper":null},{"country":"09020","city":"09020030","village":"正義里","number":"W030000064","name":"金門航空站入境處1號男廁","address":"金門縣金湖鎮正義里尚義機場","administration":"交通部民用航空局","latitude":"24.43541676","longitude":"118.3679274","grade":"特優級","type2":"交通","type":"男廁所","exec":null,"diaper":null},{"country":"09020","city":"09020030","village":"料羅里","number":"W030000028","name":"料羅碼頭1號男廁","address":"金門縣金湖鎮料羅里料羅碼頭","administration":"縣市政府","latitude":"24.40796102","longitude":"118.4276793","grade":"特優級","type2":"交通","type":"男廁所","exec":null,"diaper":null},{"country":"09020","city":"09020030","village":"溪湖里","number":"W030000041","name":"休閒農場女廁","address":"金門縣金湖鎮溪湖里后壟","administration":"縣市政府","latitude":"24.44666613","longitude":"118.4471494","grade":"特優級","type2":"觀光地區及風景區","type":"女廁所","exec":null,"diaper":null},{"country":"09020","city":"09020030","village":"正義里","number":"W030000077","name":"環保公園低碳教育館女廁","address":"金門縣金湖鎮正義里環保公園低碳教育館","administration":"縣市政府","latitude":"24.43766543","longitude":"118.3696276","grade":"特優級","type2":"文化育樂活動場所","type":"女廁所","exec":null,"diaper":null},{"country":"09020","city":"09020030","village":"瓊林里","number":"W030000086","name":"社福館B1無障礙廁所","address":"金門縣金湖鎮瓊林里瓊徑路35號","administration":"縣市政府","latitude":"24.45252838","longitude":"118.3811618","grade":"特優級","type2":"社福機構、集會場所","type":"無障礙廁所","exec":null,"diaper":null},{"country":"09020","city":"09020030","village":"瓊林里","number":"W030000085","name":"社福館B1女廁","address":"金門縣金湖鎮瓊林里瓊徑路35號","administration":"縣市政府","latitude":"24.45276996","longitude":"118.3810152","grade":"特優級","type2":"社福機構、集會場所","type":"女廁所","exec":null,"diaper":null},{"country":"09020","city":"09020030","village":"瓊林里","number":"W030000084","name":"社福館B1男廁","address":"金門縣金湖鎮瓊林里瓊徑路35號","administration":"縣市政府","latitude":"24.45252838","longitude":"118.3811618","grade":"特優級","type2":"社福機構、集會場所","type":"男廁所","exec":null,"diaper":null},{"country":"09020","city":"09020040","village":"古寧村","number":"W040000026","name":"李光前將軍廟無障礙廁所","address":"金門縣金寧鄉古寧村西浦頭","administration":"縣市政府","latitude":"24.46848019","longitude":"118.3168401","grade":"特優級","type2":"宗教禮儀場所","type":"無障礙廁所","exec":null,"diaper":null},{"country":"09020","city":"09020040","village":"古寧村","number":"W040000025","name":"李光前將軍廟女廁","address":"金門縣金寧鄉古寧村西浦頭","administration":"縣市政府","latitude":"24.46848019","longitude":"118.3168401","grade":"特優級","type2":"宗教禮儀場所","type":"女廁所","exec":null,"diaper":null},{"country":"09020","city":"09020020","village":"西園里","number":"W020000023","name":"文化園區A棟1F男廁","address":"金門縣金沙鎮西園里文化路","administration":"縣市政府","latitude":"24.49931484","longitude":"118.4035868","grade":"特優級","type2":"文化育樂活動場所","type":"男廁所","exec":null,"diaper":null},{"country":"09020","city":"09020050","village":"林湖村","number":"W050000031","name":"烈嶼鄉公所2F女廁","address":"金門縣烈嶼鄉林湖村西路","administration":"縣市政府","latitude":"24.42947547","longitude":"118.2443952","grade":"特優級","type2":"民眾洽公場所","type":"女廁所","exec":null,"diaper":null},{"country":"09020","city":"09020050","village":"林湖村","number":"W050000030","name":"烈嶼鄉公所2F男廁","address":"金門縣烈嶼鄉林湖村西路","administration":"縣市政府","latitude":"24.42947547","longitude":"118.2443952","grade":"特優級","type2":"民眾洽公場所","type":"男廁所","exec":null,"diaper":null},{"country":"09020","city":"09020050","village":"林湖村","number":"W050000029","name":"烈嶼鄉公所1F無障礙廁所","address":"金門縣烈嶼鄉林湖村西路","administration":"縣市政府","latitude":"24.42947547","longitude":"118.2443952","grade":"特優級","type2":"民眾洽公場所","type":"無障礙廁所","exec":null,"diaper":null},{"country":"09020","city":"09020050","village":"林湖村","number":"W050000028","name":"烈嶼鄉公所1F女廁","address":"金門縣烈嶼鄉林湖村西路","administration":"縣市政府","latitude":"24.42947547","longitude":"118.2443952","grade":"特優級","type2":"民眾洽公場所","type":"女廁所","exec":null,"diaper":null},{"country":"09020","city":"09020020","village":"三山里","number":"W020000008","name":"民俗文化村女廁","address":"金門縣金沙鎮三山里山后民俗文化村","administration":"內政部國家公園署","latitude":"24.50429061","longitude":"118.441019","grade":"特優級","type2":"觀光地區及風景區","type":"女廁所","exec":null,"diaper":null},{"country":"09020","city":"09020020","village":"三山里","number":"W020000010","name":"楓香林男廁","address":"金門縣金沙鎮三山里陽沙路旁楓香林","administration":"內政部國家公園署","latitude":"24.49292225","longitude":"118.4447811","grade":"特優級","type2":"觀光地區及風景區","type":"男廁所","exec":null,"diaper":null},{"country":"09020","city":"09020010","village":"南門里","number":"W010000023","name":"體育場司令台下方性別友善廁所","address":"金門縣金城鎮南門里民族路","administration":"縣市政府","latitude":"24.42987842","longitude":"118.3124059","grade":"特優級","type2":"文化育樂活動場所","type":"性別友善廁所","exec":null,"diaper":null},{"country":"09020","city":"09020030","village":"料羅里","number":"W030000093","name":"料羅碼頭2號女廁","address":"金門縣金湖鎮料羅里料羅碼頭","administration":"縣市政府","latitude":"24.40806574","longitude":"118.430054","grade":"特優級","type2":"交通","type":"女廁所","exec":null,"diaper":null},{"country":"09020","city":"09020030","village":"溪湖里","number":"W030000092","name":"復國墩漁港無障礙廁所","address":"金門縣金湖鎮溪湖里復國墩漁港","administration":"縣市政府","latitude":"24.44656145","longitude":"118.4728673","grade":"特優級","type2":"交通","type":"無障礙廁所","exec":null,"diaper":null},{"country":"09020","city":"09020030","village":"溪湖里","number":"W030000091","name":"復國墩漁港女廁","address":"金門縣金湖鎮溪湖里復國墩漁港","administration":"縣市政府","latitude":"24.44656145","longitude":"118.4728673","grade":"特優級","type2":"交通","type":"女廁所","exec":null,"diaper":null},{"country":"09020","city":"09020030","village":"溪湖里","number":"W030000090","name":"復國墩漁港男廁","address":"金門縣金湖鎮溪湖里復國墩漁港","administration":"縣市政府","latitude":"24.44656145","longitude":"118.4728673","grade":"特優級","type2":"交通","type":"男廁所","exec":null,"diaper":null},{"country":"09020","city":"09020020","village":"西園里","number":"W020000031","name":"文化園區C棟博物館無障礙廁所","address":"金門縣金沙鎮西園里文化路","administration":"縣市政府","latitude":"24.49931484","longitude":"118.4035868","grade":"特優級","type2":"文化育樂活動場所","type":"無障礙廁所","exec":null,"diaper":null},{"country":"09020","city":"09020020","village":"西園里","number":"W020000030","name":"文化園區C棟博物館女廁","address":"金門縣金沙鎮西園里文化路","administration":"縣市政府","latitude":"24.49931484","longitude":"118.4035868","grade":"特優級","type2":"文化育樂活動場所","type":"女廁所","exec":null,"diaper":null},{"country":"09020","city":"09020010","village":"賢庵里","number":"W010000043","name":"延平郡王祠女廁","address":"金門縣金城鎮賢庵里夏墅西北方","administration":"縣市政府","latitude":"24.42442456","longitude":"118.3049784","grade":"特優級","type2":"宗教禮儀場所","type":"女廁所","exec":null,"diaper":null},{"country":"09020","city":"09020030","village":"山外里","number":"W030000013","name":"迎賓館男廁","address":"金門縣金湖鎮山外里山外","administration":"內政部國家公園署","latitude":"24.44788448","longitude":"118.4179418","grade":"特優級","type2":"觀光地區及風景區","type":"男廁所","exec":null,"diaper":null},{"country":"09020","city":"09020030","village":"正義里","number":"W030000021","name":"金門航空站特產中心旁無障礙廁所","address":"金門縣金湖鎮正義里尚義機場","administration":"交通部民用航空局","latitude":"24.43522385","longitude":"118.3673601","grade":"特優級","type2":"交通","type":"無障礙廁所","exec":null,"diaper":null},{"country":"09020","city":"09020020","village":"三山里","number":"W020000009","name":"民俗文化村無障礙廁所","address":"金門縣金沙鎮三山里山后民俗文化村","administration":"內政部國家公園署","latitude":"24.50429061","longitude":"118.441019","grade":"特優級","type2":"觀光地區及風景區","type":"無障礙廁所","exec":null,"diaper":null},{"country":"09020","city":"09020020","village":"汶沙里","number":"W020000002","name":"沙美加油站男廁","address":"金門縣金沙鎮汶沙里環島北路四段","administration":"旺達鴻股份有限公司","latitude":"24.49056653","longitude":"118.4101892","grade":"特優級","type2":"商業營業場所","type":"男廁所","exec":null,"diaper":null},{"country":"09020","city":"09020020","village":"西園里","number":"W020000041","name":"文化園區E棟女廁","address":"金門縣金沙鎮西園里文化路450巷52號","administration":"縣市政府","latitude":"24.49931484","longitude":"118.4035868","grade":"特優級","type2":"文化育樂活動場所","type":"女廁所","exec":null,"diaper":null},{"country":"09020","city":"09020020","village":"西園里","number":"W020000040","name":"文化園區E棟男廁","address":"金門縣金沙鎮西園里文化路450巷52號","administration":"縣市政府","latitude":"24.49931484","longitude":"24.49931484","grade":"特優級","type2":"文化育樂活動場所","type":"男廁所","exec":null,"diaper":null},{"country":"09020","city":"09020020","village":"西園里","number":"W020000039","name":"文化園區D棟無障礙廁所","address":"金門縣金沙鎮西園里文化路450巷52號","administration":"縣市政府","latitude":"24.49931484","longitude":"118.4035868","grade":"特優級","type2":"文化育樂活動場所","type":"無障礙廁所","exec":null,"diaper":null},{"country":"09020","city":"09020020","village":"西園里","number":"W020000038","name":"文化園區D棟女廁","address":"金門縣金沙鎮西園里文化路450巷52號","administration":"縣市政府","latitude":"24.49931484","longitude":"118.4035868","grade":"特優級","type2":"文化育樂活動場所","type":"女廁所","exec":null,"diaper":null},{"country":"09020","city":"09020020","village":"西園里","number":"W020000037","name":"文化園區D棟男廁","address":"金門縣金沙鎮西園里文化路450巷52號","administration":"縣市政府","latitude":"24.49931484","longitude":"118.4035868","grade":"特優級","type2":"文化育樂活動場所","type":"男廁所","exec":null,"diaper":null},{"country":"09020","city":"09020020","village":"西園里","number":"W020000036","name":"文化園區C棟B1女廁","address":"金門縣金沙鎮西園里文化路450巷52號","administration":"縣市政府","latitude":"24.49931484","longitude":"118.4035868","grade":"特優級","type2":"文化育樂活動場所","type":"女廁所","exec":null,"diaper":null},{"country":"09020","city":"09020010","village":"金水里","number":"W010000090","name":"風獅爺文物坊男廁","address":"金門縣金城鎮金水里前水頭42號","administration":"內政部國家公園署","latitude":"24.40950578","longitude":"118.2986691","grade":"特優級","type2":"觀光地區及風景區","type":"男廁所","exec":null,"diaper":null},{"country":"09020","city":"09020010","village":"古城里","number":"W010000089","name":"翟山坑道無障礙廁所","address":"金門縣金城鎮古城里翟山坑道入口處","administration":"內政部國家公園署","latitude":"24.39067026","longitude":"118.3206772","grade":"特優級","type2":"觀光地區及風景區","type":"無障礙廁所","exec":null,"diaper":null},{"country":"09020","city":"09020010","village":"古城里","number":"W010000088","name":"古崗樓無障礙廁所","address":"金門縣金城鎮古城里珠水路旁","administration":"內政部國家公園署","latitude":"24.40945023","longitude":"118.2903683","grade":"特優級","type2":"觀光地區及風景區","type":"無障礙廁所","exec":null,"diaper":null},{"country":"09020","city":"09020010","village":"北門里","number":"W010000087","name":"金城民防坑道入口處女廁","address":"金門縣金城鎮北門里民生路7號","administration":"縣市政府","latitude":"24.43307876","longitude":"118.3202101","grade":"特優級","type2":"觀光地區及風景區","type":"女廁所","exec":null,"diaper":null},{"country":"09020","city":"09020010","village":"北門里","number":"W010000086","name":"金城民防坑道入口處男廁","address":"金門縣金城鎮北門里民生路7號","administration":"縣市政府","latitude":"24.43307876","longitude":"118.3202101","grade":"特優級","type2":"觀光地區及風景區","type":"男廁所","exec":null,"diaper":null},{"country":"09020","city":"09020030","village":"山外里","number":"W030000125","name":"金湖鎮公有零售市場無障礙廁所","address":"金門縣金湖鎮山外里黃海路90之5號","administration":"縣市政府","latitude":"24.44171614","longitude":"118.412988","grade":"特優級","type2":"商業營業場所","type":"無障礙廁所","exec":null,"diaper":null},{"country":"09020","city":"09020030","village":"山外里","number":"W030000124","name":"金湖鎮公有零售市場女廁","address":"金門縣金湖鎮山外里黃海路90之5號","administration":"縣市政府","latitude":"24.44171614","longitude":"118.412988","grade":"特優級","type2":"商業營業場所","type":"女廁所","exec":null,"diaper":null},{"country":"09020","city":"09020030","village":"新市里","number":"W030000123","name":"中正公園女廁","address":"金門縣金湖鎮新市里太湖路三段","administration":"縣市政府","latitude":"24.4369451","longitude":"118.4256881","grade":"特優級","type2":"公園","type":"女廁所","exec":null,"diaper":null},{"country":"09020","city":"09020030","village":"新市里","number":"W030000122","name":"中正公園男廁","address":"金門縣金湖鎮新市里太湖路三段","administration":"縣市政府","latitude":"24.4369451","longitude":"118.4256881","grade":"特優級","type2":"公園","type":"男廁所","exec":null,"diaper":null},{"country":"09020","city":"09020030","village":"瓊林里","number":"W030000121","name":"瓊林坑道女廁","address":"金門縣金湖鎮瓊林里瓊林大風獅爺","administration":"縣市政府","latitude":"24.45653688","longitude":"118.3742926","grade":"特優級","type2":"觀光地區及風景區","type":"女廁所","exec":null,"diaper":null},{"country":"09020","city":"09020030","village":"瓊林里","number":"W030000120","name":"瓊林坑道男廁","address":"金門縣金湖鎮瓊林里瓊林大風獅爺","administration":"縣市政府","latitude":"24.45653688","longitude":"118.3742926","grade":"特優級","type2":"觀光地區及風景區","type":"男廁所","exec":null,"diaper":null},{"country":"09020","city":"09020010","village":"金水里","number":"W010000098","name":"水頭商港3號男廁","address":"金門縣金城鎮金水里西海路一段5號","administration":"縣市政府","latitude":"24.41529509","longitude":"118.2866266","grade":"特優級","type2":"交通","type":"男廁所","exec":null,"diaper":null},{"country":"09020","city":"09020010","village":"金水里","number":"W010000097","name":"水頭商港2號無障礙廁所","address":"金門縣金城鎮金水里西海路一段5號","administration":"縣市政府","latitude":"24.41529509","longitude":"118.2866266","grade":"特優級","type2":"交通","type":"無障礙廁所","exec":null,"diaper":null},{"country":"09020","city":"09020030","village":"新市里","number":"W030000048","name":"金湖鎮立圖書館1F男廁","address":"金門縣金湖鎮新市里林森路","administration":"縣市政府","latitude":"24.44204055","longitude":"118.4166908","grade":"特優級","type2":"文化育樂活動場所","type":"男廁所","exec":null,"diaper":null},{"country":"09020","city":"09020010","village":"北門里","number":"W010000028","name":"金城鎮公所男廁","address":"金門縣金城鎮北門里民生路","administration":"縣市政府","latitude":"24.43275911","longitude":"118.32082","grade":"特優級","type2":"民眾洽公場所","type":"男廁所","exec":null,"diaper":null},{"country":"09020","city":"09020010","village":"西門里","number":"W010000013","name":"文化中心男廁","address":"金門縣金城鎮西門里環島北路一段","administration":"縣市政府","latitude":"24.44068385","longitude":"118.3232554","grade":"特優級","type2":"文化育樂活動場所","type":"男廁所","exec":null,"diaper":null},{"country":"09020","city":"09020040","village":"盤山村","number":"W040000019","name":"金寧鄉公所男廁","address":"金門縣金寧鄉盤山村仁愛新村","administration":"縣市政府","latitude":"24.45087347","longitude":"118.3347443","grade":"特優級","type2":"民眾洽公場所","type":"男廁所","exec":null,"diaper":null},{"country":"09020","city":"09020020","village":"汶沙里","number":"W020000006","name":"金沙鎮公所3F男廁","address":"金門縣金沙鎮汶沙里環島東路一段","administration":"縣市政府","latitude":"24.48904489","longitude":"118.4132302","grade":"特優級","type2":"民眾洽公場所","type":"男廁所","exec":null,"diaper":null},{"country":"09020","city":"09020030","village":"正義里","number":"W030000025","name":"金門縣環境保護局男廁","address":"金門縣金湖鎮正義里尚義","administration":"縣市政府","latitude":"24.44031379","longitude":"118.3695794","grade":"特優級","type2":"民眾洽公場所","type":"男廁所","exec":null,"diaper":null},{"country":"09020","city":"09020030","village":"新湖里","number":"W030000038","name":"北基后園68號加油站公廁","address":"金門縣金湖鎮新湖里后園","administration":"北基國際股份有限公司","latitude":"24.43867301","longitude":"118.4051281","grade":"特優級","type2":"商業營業場所","type":"混合廁所","exec":null,"diaper":null},{"country":"09020","city":"09020030","village":"正義里","number":"W030000017","name":"環保公園1號女廁","address":"金門縣金湖鎮正義里環保公園","administration":"縣市政府","latitude":"24.43828065","longitude":"118.3688349","grade":"特優級","type2":"公園","type":"女廁所","exec":null,"diaper":null},{"country":"09020","city":"09020030","village":"正義里","number":"W030000016","name":"環保公園1號男廁","address":"金門縣金湖鎮正義里環保公園","administration":"縣市政府","latitude":"24.43828065","longitude":"118.3688349","grade":"特優級","type2":"公園","type":"男廁所","exec":null,"diaper":null},{"country":"09020","city":"09020010","village":"西門里","number":"W010000007","name":"金城民防坑道出口處男廁","address":"金門縣金城鎮西門里金門高中旁","administration":"縣市政府","latitude":"24.4370361","longitude":"118.3122324","grade":"特優級","type2":"觀光地區及風景區","type":"男廁所","exec":null,"diaper":null},{"country":"09020","city":"09020050","village":"林湖村","number":"W050000010","name":"八達樓子無障礙廁所","address":"金門縣烈嶼鄉林湖村九井路","administration":"縣市政府","latitude":"24.42997236","longitude":"118.2461115","grade":"特優級","type2":"觀光地區及風景區","type":"無障礙廁所","exec":null,"diaper":null},{"country":"09020","city":"09020050","village":"上林村","number":"W050000003","name":"衛福部金門醫院烈嶼分院男廁","address":"金門縣烈嶼鄉上林村后井","administration":"衛生福利部","latitude":"24.43099328","longitude":"118.2425126","grade":"特優級","type2":"社福機構、集會場所","type":"男廁所","exec":null,"diaper":null},{"country":"09020","city":"09020010","village":"北門里","number":"W010000026","name":"總兵署女廁","address":"金門縣金城鎮北門里浯江街","administration":"縣市政府","latitude":"24.43260458","longitude":"118.318839","grade":"特優級","type2":"觀光地區及風景區","type":"女廁所","exec":null,"diaper":null},{"country":"09020","city":"09020040","village":"古寧村","number":"W040000008","name":"李光前將軍廟男廁","address":"金門縣金寧鄉古寧村西浦頭","administration":"縣市政府","latitude":"24.46848019","longitude":"118.3168401","grade":"特優級","type2":"宗教禮儀場所","type":"男廁所","exec":null,"diaper":null},{"country":"09020","city":"09020010","village":"北門里","number":"W010000025","name":"總兵署男廁","address":"金門縣金城鎮北門里浯江街","administration":"縣市政府","latitude":"24.43260458","longitude":"118.318839","grade":"特優級","type2":"觀光地區及風景區","type":"男廁所","exec":null,"diaper":null},{"country":"09020","city":"09020010","village":"古城里","number":"W010000029","name":"古崗樓男廁","address":"金門縣金城鎮古城里珠水路旁","administration":"內政部國家公園署","latitude":"24.39581014","longitude":"118.3152648","grade":"特優級","type2":"觀光地區及風景區","type":"男廁所","exec":null,"diaper":null},{"country":"09020","city":"09020050","village":"林湖村","number":"W050000009","name":"八達樓子女廁","address":"金門縣烈嶼鄉林湖村九井路","administration":"縣市政府","latitude":"24.42997236","longitude":"118.2461115","grade":"特優級","type2":"觀光地區及風景區","type":"女廁所","exec":null,"diaper":null},{"country":"09020","city":"09020050","village":"林湖村","number":"W050000008","name":"八達樓子男廁","address":"金門縣烈嶼鄉林湖村九井路","administration":"縣市政府","latitude":"24.42997236","longitude":"118.2461115","grade":"特優級","type2":"觀光地區及風景區","type":"男廁所","exec":null,"diaper":null},{"country":"09020","city":"09020050","village":"林湖村","number":"W050000011","name":"東林海濱公園女廁","address":"金門縣烈嶼鄉林湖村南環道","administration":"縣市政府","latitude":"24.42494864","longitude":"118.2509515","grade":"特優級","type2":"公園","type":"女廁所","exec":null,"diaper":null},{"country":"09020","city":"09020050","village":"西口村","number":"W050000006","name":"湖井頭戰史館男廁","address":"金門縣烈嶼鄉西口村湖井頭","administration":"縣市政府","latitude":"24.44660195","longitude":"118.231651","grade":"特優級","type2":"觀光地區及風景區","type":"男廁所","exec":null,"diaper":null},{"country":"09020","city":"09020050","village":"上林村","number":"W050000002","name":"上林將軍廟男廁","address":"金門縣烈嶼鄉上林村上林","administration":"內政部國家公園署","latitude":"24.42854724","longitude":"118.2284576","grade":"特優級","type2":"宗教禮儀場所","type":"男廁所","exec":null,"diaper":null},{"country":"09020","city":"09020040","village":"榜林村","number":"W040000016","name":"金酒公司行政大樓女廁","address":"金門縣金寧鄉榜林村桃園路","administration":"縣市政府","latitude":"24.43228986","longitude":"118.3431711","grade":"特優級","type2":"商業營業場所","type":"女廁所","exec":null,"diaper":null},{"country":"09020","city":"09020030","village":"瓊林里","number":"W030000034","name":"社福館1F男廁","address":"金門縣金湖鎮瓊林里瓊徑路","administration":"縣市政府","latitude":"24.45252838","longitude":"118.3811618","grade":"特優級","type2":"社福機構、集會場所","type":"男廁所","exec":null,"diaper":null},{"country":"09020","city":"09020040","village":"盤山村","number":"W040000011","name":"乳山遊客中心男廁","address":"金門縣金寧鄉盤山村桃園路","administration":"內政部國家公園署","latitude":"24.43674428","longitude":"118.3533848","grade":"特優級","type2":"觀光地區及風景區","type":"男廁所","exec":null,"diaper":null},{"country":"09020","city":"09020040","village":"后盤村","number":"W040000001","name":"國家公園大門左側男廁","address":"金門縣金寧鄉后盤村伯玉路二段","administration":"內政部國公園署","latitude":"24.44388635","longitude":"118.3533229","grade":"特優級","type2":"觀光地區及風景區","type":"男廁所","exec":null,"diaper":null},{"country":"09020","city":"09020030","village":"瓊林里","number":"W030000031","name":"特約茶室展示館男廁","address":"金門縣金湖鎮瓊林里小徑","administration":"內政部國家公園署","latitude":"24.44848155","longitude":"118.3849279","grade":"特優級","type2":"觀光地區及風景區","type":"男廁所","exec":null,"diaper":null},{"country":"09020","city":"09020030","village":"新湖里","number":"W030000039","name":"金門陶瓷廠女廁","address":"金門縣金湖鎮新湖里漁村","administration":"縣市政府","latitude":"24.43536602","longitude":"118.4065972","grade":"特優級","type2":"觀光地區及風景區","type":"女廁所","exec":null,"diaper":null},{"country":"09020","city":"09020030","village":"新市里","number":"W030000007","name":"衛福部金門醫院男廁","address":"金門縣金湖鎮新市里復興路","administration":"衛生福利部","latitude":"24.44161491","longitude":"118.4186459","grade":"特優級","type2":"社福機構、集會場所","type":"男廁所","exec":null,"diaper":null},{"country":"09020","city":"09020030","village":"山外里","number":"W030000003","name":"太武山1號女廁","address":"金門縣金湖鎮山外里太武山","administration":"國家公園署","latitude":"24.45612863","longitude":"118.4026125","grade":"特優級","type2":"觀光地區及風景區","type":"女廁所","exec":null,"diaper":null},{"country":"09020","city":"09020030","village":"山外里","number":"W030000002","name":"太武山1號男廁","address":"金門縣金湖鎮山外里太武山","administration":"國家公園署","latitude":"24.45612863","longitude":"118.4026125","grade":"特優級","type2":"觀光地區及風景區","type":"男廁所","exec":null,"diaper":null},{"country":"09020","city":"09020010","village":"南門里","number":"W010000021","name":"體育館-北堤路側女廁","address":"金門縣金城鎮南門里民族路","administration":"縣市政府","latitude":"24.42969943","longitude":"118.3144643","grade":"特優級","type2":"文化育樂活動場所","type":"女廁所","exec":null,"diaper":null},{"country":"09020","city":"09020010","village":"南門里","number":"W010000020","name":"體育館-北堤路側男廁","address":"金門縣金城鎮南門里民族路","administration":"縣市政府","latitude":"24.42969943","longitude":"118.3144643","grade":"特優級","type2":"文化育樂活動場所","type":"男廁所","exec":null,"diaper":null},{"country":"09020","city":"09020010","village":"金水里","number":"W010000034","name":"水頭商港旅客服務中心男廁","address":"金門縣金城鎮金水里西海路一段","administration":"縣市政府","latitude":"24.41529509","longitude":"118.2866266","grade":"特優級","type2":"交通","type":"男廁所","exec":null,"diaper":null},{"country":"09020","city":"09020010","village":"金水里","number":"W010000032","name":"金水國小男廁","address":"金門縣金城鎮金水里前水頭","administration":"國家公園署","latitude":"24.40948981","longitude":"118.298069","grade":"特優級","type2":"觀光地區及風景區","type":"男廁所","exec":null,"diaper":null},{"country":"09020","city":"09020010","village":"金水里","number":"W010000031","name":"茅山塔男廁","address":"金門縣金城鎮金水里茅山塔停車場","administration":"縣市政府","latitude":"24.40945023","longitude":"118.2903683","grade":"特優級","type2":"觀光地區及風景區","type":"男廁所","exec":null,"diaper":null},{"country":"09020","city":"09020010","village":"金水里","number":"W010000036","name":"水頭商港旅客服務中心無障礙廁所","address":"金門縣金城鎮金水里西海路一段","administration":"縣市政府","latitude":"24.41529509","longitude":"118.2866266","grade":"特優級","type2":"交通","type":"無障礙廁所","exec":null,"diaper":null},{"country":"09020","city":"09020010","village":"金水里","number":"W010000033","name":"金水國小女廁","address":"金門縣金城鎮金水里前水頭","administration":"國家公園署","latitude":"24.41529509","longitude":"118.2866266","grade":"特優級","type2":"觀光地區及風景區","type":"女廁所","exec":null,"diaper":null},{"country":"09020","city":"09020010","village":"金水里","number":"W010000035","name":"水頭商港旅客服務中心女廁","address":"金門縣金城鎮金水里西海路一段","administration":"縣市政府","latitude":"24.41529509","longitude":"118.2866266","grade":"特優級","type2":"交通","type":"女廁所","exec":null,"diaper":null},{"country":"09020","city":"09020020","village":"官嶼里","number":"W020000013","name":"馬山觀測站男廁","address":"金門縣金沙鎮官嶼里馬山觀測站","administration":"國家公園署","latitude":"24.52777592","longitude":"118.4088806","grade":"特優級","type2":"觀光地區及風景區","type":"男廁所","exec":null,"diaper":null},{"country":"09020","city":"09020020","village":"汶沙里","number":"W020000003","name":"汶沙里菜市場男廁","address":"金門縣金沙鎮汶沙里汶沙里菜市場旁","administration":"縣市政府","latitude":"24.48987439","longitude":"118.4142937","grade":"特優級","type2":"商業營業場所","type":"男廁所","exec":null,"diaper":null},{"country":"09020","city":"09020020","village":"大洋里","number":"W020000012","name":"森林公園男廁","address":"金門縣金沙鎮大洋里林務所停車場","administration":"縣市政府","latitude":"24.45885521","longitude":"118.4424607","grade":"特優級","type2":"公園","type":"男廁所","exec":null,"diaper":null},{"country":"09020","city":"09020020","village":"汶沙里","number":"W020000001","name":"沙美車站男廁","address":"金門縣金沙鎮汶沙里環島東路一段","administration":"縣市政府","latitude":"24.48903257","longitude":"118.4133272","grade":"特優級","type2":"交通","type":"男廁所","exec":null,"diaper":null},{"country":"09020","city":"09020020","village":"三山里","number":"W020000007","name":"民俗文化村男廁","address":"金門縣金沙鎮三山里山后民俗文化村","administration":"內政部","latitude":"24.50429061","longitude":"118.441019","grade":"特優級","type2":"觀光地區及風景區","type":"男廁所","exec":null,"diaper":null},{"country":"09020","city":"09020030","village":"山外里","number":"W030000110","name":"榕園無障礙廁所","address":"金門縣金湖鎮山外里安民1之7號","administration":"縣市政府","latitude":"24.44367799","longitude":"118.4301271","grade":"特優級","type2":"觀光地區及風景區","type":"無障礙廁所","exec":null,"diaper":null},{"country":"09020","city":"09020030","village":"蓮庵里","number":"W030000109","name":"畜試所野放鹿園女廁","address":"金門縣金湖鎮蓮庵里惠民富康農莊17號","administration":"縣市政府","latitude":"24.43397289","longitude":"118.4385532","grade":"特優級","type2":"觀光地區及風景區","type":"女廁所","exec":null,"diaper":null},{"country":"09020","city":"09020030","village":"蓮庵里","number":"W030000108","name":"畜試所野放鹿園男廁","address":"金門縣金湖鎮蓮庵里惠民富康農莊17號","administration":"縣市政府","latitude":"24.43397289","longitude":"118.4385532","grade":"特優級","type2":"觀光地區及風景區","type":"男廁所","exec":null,"diaper":null},{"country":"09020","city":"09020050","village":"林湖村","number":"W050000035","name":"烈嶼鄉公所3F無障礙廁所","address":"金門縣烈嶼鄉林湖村西路60號","administration":"縣市政府","latitude":"24.42947547","longitude":"118.2443952","grade":"特優級","type2":"民眾洽公場所","type":"無障礙廁所","exec":null,"diaper":null},{"country":"09020","city":"09020050","village":"林湖村","number":"W050000034","name":"烈嶼鄉公所3F女廁","address":"金門縣烈嶼鄉林湖村西路60號","administration":"縣市政府","latitude":"24.42947547","longitude":"118.2443952","grade":"特優級","type2":"民眾洽公場所","type":"女廁所","exec":null,"diaper":null},{"country":"09020","city":"09020050","village":"林湖村","number":"W050000033","name":"烈嶼鄉公所3F男廁","address":"金門縣烈嶼鄉林湖村西路60號","administration":"縣市政府","latitude":"24.42947547","longitude":"118.2443952","grade":"特優級","type2":"民眾洽公場所","type":"男廁所","exec":null,"diaper":null}]