[{"grade":"特優級","country":"9007","city":"09007040","village":"樂華村","number":"Z040000022","name":"漁船碼頭公廁-無障礙廁","address":"連江縣東引鄉樂華村樂華村","administration":"縣市政府","latitude":"26.367003","longitude":"120.48679","type2":"觀光地區及風景區","type":"無障礙廁所","exec":null,"diaper":null},{"grade":"特優級","country":"9007","city":"09007040","village":"樂華村","number":"Z040000019","name":"漁船碼頭公廁-女廁","address":"連江縣東引鄉樂華村樂華村","administration":"縣市政府","latitude":"26.36566169","longitude":"120.4865886","type2":"觀光地區及風景區","type":"女廁所","exec":null,"diaper":null},{"grade":"特優級","country":"9007","city":"09007040","village":"樂華村","number":"Z040000017","name":"東湧燈塔公廁","address":"東引燈塔","administration":"交通部","latitude":"26.36709083","longitude":"120.5077779","type2":"民眾洽公場所","type":"混合廁所","exec":null,"diaper":null},{"grade":"特優級","country":"9007","city":"09007040","village":"樂華村","number":"Z040000015","name":"樂華村公廁","address":"東引樂華村","administration":"縣市政府","latitude":"26.36650446","longitude":"120.4871893","type2":"民眾洽公場所","type":"混合廁所","exec":null,"diaper":null},{"grade":"特優級","country":"9007","city":"09007040","village":"中柳村","number":"Z040000007","name":"中柳村公廁","address":"東引中柳村","administration":"縣市政府","latitude":"26.3678286","longitude":"120.4869506","type2":"民眾洽公場所","type":"混合廁所","exec":null,"diaper":null},{"grade":"特優級","country":"9007","city":"09007030","village":"大坪村","number":"Z030000027","name":"大坪村公廁-無障礙廁所","address":"","administration":"縣市政府","latitude":"25.96280028","longitude":"119.9753058","type2":"民眾洽公場所","type":"無障礙廁所","exec":null,"diaper":null},{"grade":"特優級","country":"9007","city":"09007030","village":"大坪村","number":"Z030000026","name":"大坪村公廁-女廁","address":"","administration":"縣市政府","latitude":"25.96288709","longitude":"119.9753165","type2":"民眾洽公場所","type":"女廁所","exec":null,"diaper":null},{"grade":"特優級","country":"9007","city":"09007030","village":"大坪村","number":"Z030000025","name":"大坪村公廁-男廁","address":"","administration":"縣市政府","latitude":"25.96117008","longitude":"119.970392","type2":"民眾洽公場所","type":"男廁所","exec":null,"diaper":null},{"grade":"特優級","country":"9007","city":"09007010","village":"福沃村","number":"Z010000026","name":"枕戈待旦園區公廁-女廁","address":"連江縣南竿鄉福沃村福沃村","administration":"縣市政府","latitude":"26.15541871","longitude":"119.9402547","type2":"觀光地區及風景區","type":"女廁所","exec":null,"diaper":null},{"grade":"特優級","country":"9007","city":"09007010","village":"福沃村","number":"Z010000025","name":"枕戈待旦園區公廁-男廁","address":"連江縣南竿鄉福沃村福沃村","administration":"縣市政府","latitude":"26.15553186","longitude":"119.9402359","type2":"觀光地區及風景區","type":"男廁所","exec":null,"diaper":null},{"grade":"特優級","country":"9007","city":"09007010","village":"福沃村","number":"Z010000041","name":"福澳港旅客檢疫處(落地簽)-無障礙廁所","address":"連江縣南竿鄉福澳村135-6號","administration":"縣市政府","latitude":"26.158761","longitude":"119.945427","type2":"","type":"無障礙廁所","exec":null,"diaper":null},{"grade":"特優級","country":"9007","city":"09007010","village":"福沃村","number":"Z010000040","name":"福澳港旅客檢疫處(落地簽)-女廁","address":"連江縣南竿鄉福澳村135-6號","administration":"縣市政府","latitude":"26.1604865","longitude":"119.9441721","type2":"","type":"女廁所","exec":null,"diaper":null},{"grade":"特優級","country":"9007","city":"09007010","village":"福沃村","number":"Z010000033","name":"福澳港台馬航線-男廁","address":"連江縣南竿鄉福澳村135-6號","administration":"縣市政府","latitude":"26.16029631","longitude":"119.9443263","type2":"","type":"男廁所","exec":null,"diaper":null},{"grade":"特優級","country":"9007","city":"09007010","village":"福沃村","number":"Z010000032","name":"福澳港旅運大樓-無障礙廁所","address":"連江縣南竿鄉福澳村135-6號","administration":"縣市政府","latitude":"26.16020242","longitude":"119.9443853","type2":"","type":"無障礙廁所","exec":null,"diaper":null},{"grade":"特優級","country":"9007","city":"09007010","village":"福沃村","number":"Z010000031","name":"福澳港旅運大樓-女廁","address":"連江縣南竿鄉福澳村135-6號","administration":"縣市政府","latitude":"26.16013261","longitude":"119.9443625","type2":"","type":"女廁所","exec":null,"diaper":null},{"grade":"特優級","country":"9007","city":"09007010","village":"福沃村","number":"Z010000030","name":"福澳港旅運大樓-男廁","address":"連江縣南竿鄉福澳村135-6號","administration":"縣市政府","latitude":"26.16015668","longitude":"119.9444255","type2":"","type":"男廁所","exec":null,"diaper":null},{"grade":"特優級","country":"9007","city":"09007010","village":"福沃村","number":"Z010000029","name":"福澳港旅客服務中心-無障礙廁所","address":"連江縣南竿鄉福澳村135-6號","administration":"縣市政府","latitude":"26.16014224","longitude":"119.9443209","type2":"","type":"無障礙廁所","exec":null,"diaper":null},{"grade":"特優級","country":"9007","city":"09007010","village":"福沃村","number":"Z010000028","name":"福澳港旅客服務中心-女廁","address":"連江縣南竿鄉福澳村135-6號","administration":"縣市政府","latitude":"26.16011094","longitude":"119.9441318","type2":"","type":"女廁所","exec":null,"diaper":null},{"grade":"特優級","country":"9007","city":"09007010","village":"福沃村","number":"Z010000027","name":"福澳港旅客服務中心-男廁","address":"連江縣南竿鄉福澳村135-6號","administration":"縣市政府","latitude":"26.16019279","longitude":"119.94416","type2":"","type":"男廁所","exec":null,"diaper":null},{"grade":"特優級","country":"9007","city":"09007030","village":"青帆村","number":"Z030000008","name":"西莒陳元帥廟公廁-女廁","address":"連江縣莒光鄉青帆村","administration":"其他","latitude":"25.97133433","longitude":"119.932361","type2":"宗教禮儀場所","type":"女廁所","exec":null,"diaper":null},{"grade":"特優級","country":"9007","city":"09007010","village":"復興村","number":"Z010000022","name":"南竿航空站內候機室無障礙廁所","address":"連江縣南竿鄉復興村220號","administration":"交通部","latitude":"26.15754697","longitude":"119.9555433","type2":"","type":"無障礙廁所","exec":null,"diaper":null},{"grade":"特優級","country":"9007","city":"09007010","village":"復興村","number":"Z010000021","name":"南竿航空站內候機室女廁","address":"連江縣南竿鄉復興村220號","administration":"交通部","latitude":"26.15737092","longitude":"119.9577856","type2":"","type":"女廁所","exec":null,"diaper":null},{"grade":"特優級","country":"9007","city":"09007010","village":"復興村","number":"Z010000020","name":"南竿航空站內候機室男廁","address":"連江縣南竿鄉復興村220號","administration":"交通部","latitude":"26.15755058","longitude":"119.9555889","type2":"","type":"混合廁所","exec":null,"diaper":null},{"grade":"特優級","country":"9007","city":"09007030","village":"大坪村","number":"Z030000024","name":"大浦公廁(聚落內)","address":"大坪村大浦聚落","administration":"縣市政府","latitude":"25.9552134","longitude":"119.9733263","type2":"民眾洽公場所","type":"混合廁所","exec":null,"diaper":null},{"grade":"特優級","country":"9007","city":"09007030","village":"大坪村","number":"Z030000022","name":"東莒大埔石刻","address":"大坪村大坪段620地號","administration":"交通部","latitude":"25.94975687","longitude":"119.9627423","type2":"觀光地區及風景區","type":"混合廁所","exec":null,"diaper":null},{"grade":"特優級","country":"9007","city":"09007040","village":"樂華村","number":"Z040000018","name":"漁船碼頭公廁-男廁","address":"連江縣東引鄉樂華村樂華村","administration":"縣市政府","latitude":"26.36566169","longitude":"120.4865886","type2":"觀光地區及風景區","type":"男廁所","exec":null,"diaper":null},{"grade":"特優級","country":"9007","city":"09007010","village":"津沙村","number":"Z010000058","name":"津沙村(海堤旁)公廁-女廁","address":"連江縣南竿鄉津沙村津沙村","administration":"縣市政府","latitude":"26.14567733","longitude":"119.9123678","type2":"民眾洽公場所","type":"女廁所","exec":null,"diaper":null},{"grade":"特優級","country":"9007","city":"09007010","village":"津沙村","number":"Z010000057","name":"津沙村(海堤旁)公廁-男廁","address":"津沙村(海堤旁)公廁","administration":"縣市政府","latitude":"26.14567131","longitude":"119.9123651","type2":"民眾洽公場所","type":"男廁所","exec":null,"diaper":null},{"grade":"特優級","country":"9007","city":"09007020","village":"塘岐村","number":"Z020000007","name":"惠民市場公廁-無障礙廁所","address":"連江縣北竿鄉塘岐村塘岐村","administration":"縣市政府","latitude":"26.22295634","longitude":"119.9976888","type2":"","type":"無障礙廁所","exec":null,"diaper":null},{"grade":"特優級","country":"9007","city":"09007010","village":"馬祖村","number":"Z010000063","name":"馬港天后宮下方入口處公廁-無障礙廁所","address":"連江縣南竿鄉馬祖村4-1號","administration":"馬祖境天后宮廟宇管理委員會","latitude":"26.15842811","longitude":"119.9183035","type2":"宗教禮儀場所","type":"無障礙廁所","exec":null,"diaper":null},{"grade":"特優級","country":"9007","city":"09007010","village":"馬祖村","number":"Z010000062","name":"馬港天后宮下方入口處公廁-女廁","address":"連江縣南竿鄉馬祖村4-1號","administration":"馬祖境天后宮廟宇管理委員會","latitude":"26.15844015","longitude":"119.9183303","type2":"宗教禮儀場所","type":"女廁所","exec":null,"diaper":null},{"grade":"特優級","country":"9007","city":"09007010","village":"馬祖村","number":"Z010000061","name":"馬港天后宮下方入口處公廁-男廁","address":"連江縣南竿鄉馬祖村4-1號","administration":"馬祖境天后宮廟宇管理委員會","latitude":"26.15844978","longitude":"119.9182579","type2":"宗教禮儀場所","type":"男廁所","exec":null,"diaper":null},{"grade":"特優級","country":"9007","city":"09007010","village":"珠螺村","number":"Z010000067","name":"珠螺村海濱公廁-無障礙廁所","address":"","administration":"縣市政府","latitude":"26.15834144","longitude":"119.9303198","type2":"民眾洽公場所","type":"無障礙廁所","exec":null,"diaper":null},{"grade":"特優級","country":"9007","city":"09007010","village":"珠螺村","number":"Z010000066","name":"珠螺村海濱公廁-女廁","address":"連江縣南竿鄉珠螺村珠螺村","administration":"縣市政府","latitude":"26.15834626","longitude":"119.9303252","type2":"民眾洽公場所","type":"女廁所","exec":null,"diaper":null},{"grade":"特優級","country":"9007","city":"09007010","village":"珠螺村","number":"Z010000065","name":"珠螺村海濱公廁-男廁","address":"連江縣南竿鄉珠螺村珠螺村","administration":"縣市政府","latitude":"26.15834385","longitude":"119.9303091","type2":"民眾洽公場所","type":"男廁所","exec":null,"diaper":null},{"grade":"特優級","country":"9007","city":"09007010","village":"清水村","number":"Z010000051","name":"清水沃公園公廁-無障礙廁所","address":"連江縣南竿鄉清水村127號","administration":"清水境白馬尊王廟宇管理委員會","latitude":"26.15414149","longitude":"119.9375832","type2":"文化育樂活動場所","type":"無障礙廁所","exec":null,"diaper":null},{"grade":"特優級","country":"9007","city":"09007010","village":"清水村","number":"Z010000050","name":"清水沃公園公廁-女廁","address":"連江縣南竿鄉清水村127號","administration":"清水境白馬尊王廟宇管理委員會","latitude":"26.15413668","longitude":"119.937543","type2":"文化育樂活動場所","type":"女廁所","exec":null,"diaper":null},{"grade":"特優級","country":"9007","city":"09007010","village":"清水村","number":"Z010000049","name":"清水沃公園公廁-男廁","address":"連江縣南竿鄉清水村127號","administration":"清水境白馬尊王廟宇管理委員會","latitude":"26.15413066","longitude":"119.937543","type2":"文化育樂活動場所","type":"男廁所","exec":null,"diaper":null},{"grade":"特優級","country":"9007","city":"09007010","village":"福沃村","number":"Z010000048","name":"福澳救生大隊旁公廁-無障礙廁所","address":"連江縣南竿鄉福沃村福沃村","administration":"縣市政府","latitude":"26.15751808","longitude":"119.940995","type2":"民眾洽公場所","type":"無障礙廁所","exec":null,"diaper":null},{"grade":"特優級","country":"9007","city":"09007010","village":"福沃村","number":"Z010000047","name":"福澳救生大隊旁公廁-女廁","address":"連江縣南竿鄉福沃村福沃村","administration":"縣市政府","latitude":"26.15750845","longitude":"119.9409789","type2":"民眾洽公場所","type":"女廁所","exec":null,"diaper":null},{"grade":"特優級","country":"9007","city":"09007010","village":"復興村","number":"Z010000071","name":"南竿航空站第二航廈公廁-無障礙廁間","address":"連江縣南竿鄉復興村復興村二○○號","administration":"交通部","latitude":"26.15810358","longitude":"119.9563694","type2":"","type":"無障礙廁所","exec":null,"diaper":null},{"grade":"特優級","country":"9007","city":"09007010","village":"復興村","number":"Z010000070","name":"南竿航空站第二航廈公廁-女廁","address":"連江縣南竿鄉復興村復興村二二○號","administration":"交通部","latitude":"26.15873531","longitude":"119.9556828","type2":"","type":"女廁所","exec":null,"diaper":null},{"grade":"特優級","country":"9007","city":"09007010","village":"復興村","number":"Z010000069","name":"南竿航空站第二航廈公廁-男廁","address":"連江縣南竿鄉復興村復興村二二○號","administration":"交通部","latitude":"26.15741022","longitude":"119.9553394","type2":"","type":"男廁所","exec":null,"diaper":null},{"grade":"特優級","country":"9007","city":"09007020","village":"塘岐村","number":"Z020000013","name":"北竿航空站航廈大廳無障礙廁所","address":"?連江縣北竿鄉21041塘岐村 261-2 號","administration":"交通部","latitude":"26.22338584","longitude":"119.9993639","type2":"","type":"無障礙廁所","exec":null,"diaper":null},{"grade":"特優級","country":"9007","city":"09007020","village":"塘岐村","number":"Z020000012","name":"北竿航空站航廈大廳女廁","address":"?連江縣北竿鄉21041塘岐村 261-2 號","administration":"交通部","latitude":"26.22342554","longitude":"119.9993263","type2":"","type":"女廁所","exec":null,"diaper":null},{"grade":"特優級","country":"9007","city":"09007020","village":"塘岐村","number":"Z020000011","name":"北竿航空站航廈大廳男廁","address":"?連江縣北竿鄉21041塘岐村 261-2 號","administration":"交通部","latitude":"26.22339065","longitude":"119.9994645","type2":"","type":"男廁所","exec":null,"diaper":null},{"grade":"特優級","country":"9007","city":"09007020","village":"塘岐村","number":"Z020000010","name":"北竿航空站航廈內候機室男廁","address":"?連江縣北竿鄉21041塘岐村 261-2 號","administration":"交通部","latitude":"26.22350968","longitude":"119.999496","type2":"","type":"男廁所","exec":null,"diaper":null},{"grade":"特優級","country":"9007","city":"09007020","village":"塘岐村","number":"Z020000009","name":"北竿航空站航廈內候機室女廁","address":"?連江縣北竿鄉21041塘岐村 261-2 號","administration":"交通部","latitude":"26.22350968","longitude":"119.999496","type2":"","type":"女廁所","exec":null,"diaper":null},{"grade":"特優級","country":"9007","city":"09007010","village":"復興村","number":"Z010000019","name":"南竿航空站外候機室南側廁所","address":"連江縣南竿鄉復興村220號","administration":"交通部","latitude":"26.15757104","longitude":"119.9553609","type2":"","type":"混合廁所","exec":null,"diaper":null},{"grade":"特優級","country":"9007","city":"09007010","village":"復興村","number":"Z010000018","name":"南竿航空站外候機室北側廁所-(到站出口旁及航警所旁)","address":"連江縣南竿鄉復興村220號","administration":"交通部","latitude":"26.15813199","longitude":"119.9556828","type2":"","type":"混合廁所","exec":null,"diaper":null},{"grade":"特優級","country":"9007","city":"09007030","village":"青帆村","number":"Z030000006","name":"莒光鄉公所二樓公廁-女廁","address":"連江縣莒光鄉青帆村青帆村七四之二號","administration":"縣市政府","latitude":"25.97179489","longitude":"119.9328625","type2":"","type":"女廁所","exec":null,"diaper":null},{"grade":"特優級","country":"9007","city":"09007030","village":"青帆村","number":"Z030000005","name":"莒光鄉公所二樓公廁-男廁","address":"連江縣莒光鄉青帆村青帆村七四之二號","administration":"縣市政府","latitude":"25.9716695","longitude":"119.9329215","type2":"","type":"男廁所","exec":null,"diaper":null},{"grade":"特優級","country":"9007","city":"09007030","village":"田沃村","number":"Z030000017","name":"田沃村公廁-無障礙廁所","address":"","administration":"縣市政府","latitude":"25.97588444","longitude":"119.941172","type2":"社福機構、集會場所","type":"無障礙廁所","exec":null,"diaper":null},{"grade":"特優級","country":"9007","city":"09007030","village":"田沃村","number":"Z030000016","name":"田沃村公廁-女廁","address":"","administration":"縣市政府","latitude":"25.97586997","longitude":"119.9411827","type2":"社福機構、集會場所","type":"女廁所","exec":null,"diaper":null},{"grade":"特優級","country":"9007","city":"09007030","village":"田沃村","number":"Z030000015","name":"田沃村公廁-男廁","address":"","administration":"縣市政府","latitude":"25.97589891","longitude":"119.9410218","type2":"社福機構、集會場所","type":"男廁所","exec":null,"diaper":null},{"grade":"特優級","country":"9007","city":"09007030","village":"青帆村","number":"Z030000011","name":"西莒青帆村公廁-女廁","address":"","administration":"縣市政府","latitude":"25.97199262","longitude":"119.9333024","type2":"民眾洽公場所","type":"女廁所","exec":null,"diaper":null},{"grade":"特優級","country":"9007","city":"09007030","village":"青帆村","number":"Z030000010","name":"西莒青帆村公廁-男廁","address":"","administration":"縣市政府","latitude":"25.97196369","longitude":"119.9323905","type2":"民眾洽公場所","type":"男廁所","exec":null,"diaper":null},{"grade":"特優級","country":"9007","city":"09007030","village":"青帆村","number":"Z030000007","name":"西莒陳元帥廟公廁-男廁","address":"連江縣莒光鄉青帆村","administration":"其他","latitude":"25.97147177","longitude":"119.9323261","type2":"宗教禮儀場所","type":"男廁所","exec":null,"diaper":null},{"grade":"特優級","country":"9007","city":"09007020","village":"塘岐村","number":"Z020000006","name":"惠民市場公廁-男廁","address":"連江縣北竿鄉塘岐村塘岐村","administration":"縣市政府","latitude":"26.22295273","longitude":"119.9976781","type2":"","type":"男廁所","exec":null,"diaper":null},{"grade":"特優級","country":"9007","city":"09007020","village":"塘岐村","number":"Z020000020","name":"塘岐村停車場公廁-女廁","address":"馬鼻灣濱海公園","administration":"縣市政府","latitude":"26.22317121","longitude":"119.9987537","type2":"民眾洽公場所","type":"女廁所","exec":null,"diaper":null},{"grade":"特優級","country":"9007","city":"09007020","village":"塘岐村","number":"Z020000019","name":"塘岐村停車場公廁-男廁","address":"馬鼻灣濱海公園","administration":"縣市政府","latitude":"26.22293829","longitude":"119.9982977","type2":"民眾洽公場所","type":"男廁所","exec":null,"diaper":null},{"grade":"特優級","country":"9007","city":"09007020","village":"芹壁村","number":"Z020000030","name":"芹壁村新公廁-無障礙廁所","address":"連江縣北竿鄉芹壁村芹壁村","administration":"縣市政府","latitude":"26.22430739","longitude":"119.9820274","type2":"觀光地區及風景區","type":"無障礙廁所","exec":null,"diaper":null},{"grade":"特優級","country":"9007","city":"09007020","village":"芹壁村","number":"Z020000029","name":"芹壁村新公廁-女廁","address":"連江縣北竿鄉芹壁村芹壁村","administration":"縣市政府","latitude":"26.2243122","longitude":"119.9820167","type2":"觀光地區及風景區","type":"女廁所","exec":null,"diaper":null},{"grade":"特優級","country":"9007","city":"09007020","village":"芹壁村","number":"Z020000028","name":"芹壁村新公廁-男廁","address":"連江縣北竿鄉芹壁村芹壁村","administration":"縣市政府","latitude":"26.22430498","longitude":"119.9820234","type2":"觀光地區及風景區","type":"男廁所","exec":null,"diaper":null},{"grade":"特優級","country":"9007","city":"09007020","village":"后沃村","number":"Z020000025","name":"后澳村公廁-女廁","address":"連江縣北竿鄉后澳村","administration":"縣市政府","latitude":"26.22295273","longitude":"120.006575","type2":"民眾洽公場所","type":"女廁所","exec":null,"diaper":null},{"grade":"特優級","country":"9007","city":"09007020","village":"后沃村","number":"Z020000024","name":"后澳村公廁-男廁","address":"連江縣北竿鄉后澳村","administration":"縣市政府","latitude":"26.22295995","longitude":"120.0065991","type2":"民眾洽公場所","type":"男廁所","exec":null,"diaper":null},{"grade":"特優級","country":"9007","city":"09007010","village":"福沃村","number":"Z010000046","name":"福澳救生大隊旁公廁-男廁","address":"連江縣南竿鄉福沃村福沃村","administration":"縣市政府","latitude":"26.15749039","longitude":"119.9408072","type2":"民眾洽公場所","type":"男廁所","exec":null,"diaper":null},{"grade":"特優級","country":"9007","city":"09007010","village":"福沃村","number":"Z010000043","name":"福澳運動場公廁-女廁","address":"連江縣南竿鄉福沃村福沃村","administration":"縣市政府","latitude":"26.15907813","longitude":"119.9435484","type2":"文化育樂活動場所","type":"女廁所","exec":null,"diaper":null},{"grade":"特優級","country":"9007","city":"09007010","village":"福沃村","number":"Z010000042","name":"福澳運動場公廁-男廁","address":"連江縣南竿鄉福沃村福沃村","administration":"縣市政府","latitude":"26.15912147","longitude":"119.9435324","type2":"文化育樂活動場所","type":"男廁所","exec":null,"diaper":null},{"grade":"特優級","country":"9007","city":"09007010","village":"介壽村","number":"Z010000017","name":"介壽村山隴澳口公園公廁-無障礙廁所","address":"連江縣南竿鄉介壽村介壽村","administration":"縣市政府","latitude":"26.15517554","longitude":"119.9513751","type2":"民眾洽公場所","type":"無障礙廁所","exec":null,"diaper":null},{"grade":"特優級","country":"9007","city":"09007010","village":"介壽村","number":"Z010000016","name":"介壽村山隴澳口公園公廁-女廁","address":"連江縣南竿鄉介壽村","administration":"縣市政府","latitude":"26.15511295","longitude":"119.9513537","type2":"民眾洽公場所","type":"女廁所","exec":null,"diaper":null},{"grade":"特優級","country":"9007","city":"09007010","village":"介壽村","number":"Z010000015","name":"介壽村山隴澳口公園公廁-男廁","address":"連江縣南竿鄉介壽村介壽村","administration":"縣市政府","latitude":"26.15506239","longitude":"119.9513215","type2":"民眾洽公場所","type":"男廁所","exec":null,"diaper":null},{"grade":"特優級","country":"9007","city":"09007010","village":"福沃村","number":"Z010000039","name":"福澳港旅客檢疫處(落地簽)-男廁","address":"連江縣南竿鄉福澳村135-6號","administration":"縣市政府","latitude":"26.16045761","longitude":"119.944109","type2":"","type":"男廁所","exec":null,"diaper":null},{"grade":"特優級","country":"9007","city":"09007010","village":"福沃村","number":"Z010000038","name":"福澳港小三通航線-無障礙廁所","address":"連江縣南竿鄉福澳村135-6號","administration":"縣市政府","latitude":"26.16033483","longitude":"119.9440849","type2":"","type":"無障礙廁所","exec":null,"diaper":null},{"grade":"特優級","country":"9007","city":"09007010","village":"福沃村","number":"Z010000037","name":"福澳港小三通航線-女廁","address":"連江縣南竿鄉福澳村135-6號","administration":"縣市政府","latitude":"26.16035891","longitude":"119.9440661","type2":"","type":"女廁所","exec":null,"diaper":null},{"grade":"特優級","country":"9007","city":"09007010","village":"福沃村","number":"Z010000036","name":"福澳港小三通航線-男廁","address":"連江縣南竿鄉福澳村135-6號","administration":"縣市政府","latitude":"26.16033242","longitude":"119.9440339","type2":"","type":"男廁所","exec":null,"diaper":null},{"grade":"特優級","country":"9007","city":"09007010","village":"福沃村","number":"Z010000035","name":"福澳港台馬航線-無障礙廁所","address":"連江縣南竿鄉福澳村135-6號","administration":"縣市政府","latitude":"26.16023853","longitude":"119.944396","type2":"","type":"無障礙廁所","exec":null,"diaper":null},{"grade":"特優級","country":"9007","city":"09007010","village":"福沃村","number":"Z010000034","name":"福澳港台馬航線-女廁","address":"連江縣南竿鄉福澳村135-6號","administration":"縣市政府","latitude":"26.16023853","longitude":"119.944447","type2":"","type":"女廁所","exec":null,"diaper":null},{"grade":"特優級","country":"9007","city":"09007030","village":"福正村","number":"Z030000020","name":"福正遊客中心公廁","address":"連江縣莒光鄉福正村福正村","administration":"交通部","latitude":"25.96526656","longitude":"119.9811269","type2":"民眾洽公場所","type":"混合廁所","exec":null,"diaper":null},{"grade":"特優級","country":"9007","city":"09007010","village":"仁愛村","number":"Z010000052","name":"仁愛遊客中心公廁","address":"連江縣南竿鄉仁愛村九五之二號","administration":"交通部","latitude":"26.1411603","longitude":"119.9272755","type2":"觀光地區及風景區","type":"混合廁所","exec":null,"diaper":null},{"grade":"特優級","country":"9007","city":"09007010","village":"仁愛村","number":"Z010000053","name":"北海坑道旁公廁","address":"連江縣南竿鄉仁愛村仁愛村","administration":"交通部","latitude":"26.14241478","longitude":"119.9286836","type2":"觀光地區及風景區","type":"混合廁所","exec":null,"diaper":null},{"grade":"特優級","country":"9007","city":"09007020","village":"塘岐村","number":"Z020000014","name":"北竿鄉圖書館","address":"連江縣北竿鄉塘岐村塘岐村","administration":"縣市政府","latitude":"26.22338463","longitude":"119.9971765","type2":"","type":"混合廁所","exec":null,"diaper":null},{"grade":"特優級","country":"9007","city":"09007040","village":"樂華村","number":"Z040000005","name":"獅子村公廁","address":"東引獅子村","administration":"縣市政府","latitude":"26.36255115","longitude":"120.490078","type2":"觀光地區及風景區","type":"混合廁所","exec":null,"diaper":null},{"grade":"特優級","country":"9007","city":"09007040","village":"中柳村","number":"Z040000009","name":"忠誠門公廁","address":"東引忠誠門","administration":"縣市政府","latitude":"26.36707882","longitude":"120.4864731","type2":"民眾洽公場所","type":"混合廁所","exec":null,"diaper":null},{"grade":"特優級","country":"9007","city":"09007030","village":"福正村","number":"Z030000021","name":"福正村公廁","address":"連江縣莒光鄉福正村福正村","administration":"縣市政府","latitude":"25.96934013","longitude":"119.9844897","type2":"民眾洽公場所","type":"混合廁所","exec":null,"diaper":null},{"grade":"特優級","country":"9007","city":"09007030","village":"青帆村","number":"Z030000001","name":"西莒青帆碼頭","address":"西莒青帆港","administration":"縣市政府","latitude":"25.967663","longitude":"119.9332622","type2":"","type":"混合廁所","exec":null,"diaper":null},{"grade":"特優級","country":"9007","city":"09007010","village":"四維村","number":"Z010000068","name":"四維公廁","address":"南竿鄉四維村83-1號","administration":"縣市政府","latitude":"26.16876543","longitude":"119.9175324","type2":"社福機構、集會場所","type":"混合廁所","exec":null,"diaper":null},{"grade":"特優級","country":"9007","city":"09007040","village":"中柳村","number":"Z040000004","name":"東引運動場公廁","address":"連江縣東引鄉中柳村121號","administration":"縣市政府","latitude":"26.36802086","longitude":"120.4913481","type2":"文化育樂活動場所","type":"混合廁所","exec":null,"diaper":null},{"grade":"特優級","country":"9007","city":"09007040","village":"中柳村","number":"Z040000003","name":"體育館公廁","address":"連江縣東引鄉中柳村121號","administration":"縣市政府","latitude":"26.36841978","longitude":"120.4879537","type2":"文化育樂活動場所","type":"混合廁所","exec":null,"diaper":null},{"grade":"特優級","country":"9007","city":"09007040","village":"樂華村","number":"Z040000014","name":"東引遊客服務中心","address":"東引鄉樂華村160-1號","administration":"交通部","latitude":"26.36000847","longitude":"120.483748","type2":"民眾洽公場所","type":"混合廁所","exec":null,"diaper":null},{"grade":"特優級","country":"9007","city":"09007020","village":"坂里村","number":"Z020000031","name":"北竿遊客中心","address":"連江縣北竿鄉坂里村47號","administration":"交通部","latitude":"26.21594217","longitude":"119.9746352","type2":"民眾洽公場所","type":"混合廁所","exec":null,"diaper":null},{"grade":"特優級","country":"9007","city":"09007020","village":"白沙村","number":"Z020000004","name":"北竿白沙碼頭","address":"連江縣北竿鄉白沙村72號","administration":"縣市政府","latitude":"26.20582683","longitude":"119.9692226","type2":"","type":"混合廁所","exec":null,"diaper":null}]