[{"country":"10016","city":"10016010","village":"陽明里","number":"X010000551","name":"北辰公有市場二樓後女廁","address":"澎湖縣馬公市陽明里","administration":"縣市政府","latitude":"23.571269","longitude":"119.57256","grade":"特優級","type2":"","type":"女廁所","exec":null,"diaper":null},{"country":"10016","city":"10016010","village":"陽明里","number":"X010000550","name":"北辰公有市場二樓後男廁","address":"澎湖縣馬公市陽明里","administration":"縣市政府","latitude":"23.571269","longitude":"119.57256","grade":"特優級","type2":"","type":"男廁所","exec":null,"diaper":null},{"country":"10016","city":"10016010","village":"陽明里","number":"X010000549","name":"北辰公有市場二樓前女廁","address":"澎湖縣馬公市陽明里","administration":"縣市政府","latitude":"23.57217","longitude":"119.572509","grade":"特優級","type2":"","type":"女廁所","exec":null,"diaper":null},{"country":"10016","city":"10016010","village":"陽明里","number":"X010000548","name":"北辰公有市場二樓前男廁","address":"澎湖縣馬公市陽明里","administration":"縣市政府","latitude":"23.57217","longitude":"119.572509","grade":"特優級","type2":"","type":"男廁所","exec":null,"diaper":null},{"country":"10016","city":"10016040","village":"二崁村","number":"X040000082","name":"西嶼大菓葉親子廁所","address":"澎湖縣西嶼鄉海巡署大菓葉站旁","administration":"交通部","latitude":"23.60544","longitude":"119.519616","grade":"特優級","type2":"觀光地區及風景區","type":"親子廁所","exec":null,"diaper":null},{"country":"10016","city":"10016040","village":"二崁村","number":"X040000081","name":"西嶼大菓葉無障礙廁","address":"澎湖縣西嶼鄉海巡署大菓葉站旁","administration":"交通部","latitude":"23.60544","longitude":"119.519616","grade":"特優級","type2":"觀光地區及風景區","type":"無障礙廁所","exec":null,"diaper":null},{"country":"10016","city":"10016040","village":"二崁村","number":"X040000080","name":"西嶼大菓葉女廁","address":"澎湖縣西嶼鄉海巡署大菓葉站旁","administration":"交通部","latitude":"23.60544","longitude":"119.519616","grade":"特優級","type2":"觀光地區及風景區","type":"女廁所","exec":null,"diaper":null},{"country":"10016","city":"10016040","village":"二崁村","number":"X040000079","name":"西嶼大菓葉男廁","address":"澎湖縣西嶼鄉海巡署大菓葉站旁","administration":"交通部","latitude":"23.60544","longitude":"119.519616","grade":"特優級","type2":"觀光地區及風景區","type":"男廁所","exec":null,"diaper":null},{"country":"10016","city":"10016010","village":"西文里","number":"X010000557","name":"澎湖國際廣場北側無障礙廁","address":"澎湖縣馬公市西文里新店路","administration":"縣市政府","latitude":"23.56668167","longitude":"119.5777273","grade":"特優級","type2":"公園","type":"無障礙廁所","exec":null,"diaper":null},{"country":"10016","city":"10016010","village":"西文里","number":"X010000556","name":"澎湖國際廣場北側女廁","address":"澎湖縣馬公市西文里","administration":"縣市政府","latitude":"23.56669151","longitude":"119.5776415","grade":"特優級","type2":"公園","type":"女廁所","exec":null,"diaper":null},{"country":"10016","city":"10016010","village":"西文里","number":"X010000555","name":"澎湖國際廣場北側男廁","address":"澎湖縣馬公市西文里新店路","administration":"縣市政府","latitude":"23.56679476","longitude":"119.5776361","grade":"特優級","type2":"公園","type":"男廁所","exec":null,"diaper":null},{"country":"10016","city":"10016010","village":"陽明里","number":"X010000554","name":"澎湖國際廣場南側無障礙廁","address":"澎湖縣馬公市陽明里新店路(喜來登飯店旁)","administration":"縣市政府","latitude":"23.56749789","longitude":"119.5763648","grade":"特優級","type2":"公園","type":"無障礙廁所","exec":null,"diaper":null},{"country":"10016","city":"10016010","village":"陽明里","number":"X010000553","name":"澎湖國際廣場南側女廁","address":"澎湖縣馬公市陽明里新店路(喜來登飯店旁)","administration":"縣市政府","latitude":"23.56738972","longitude":"119.5765472","grade":"特優級","type2":"公園","type":"女廁所","exec":null,"diaper":null},{"country":"10016","city":"10016010","village":"陽明里","number":"X010000552","name":"澎湖國際廣場南側男廁","address":"澎湖縣馬公市陽明里新店路一九七號","administration":"縣市政府","latitude":"23.5670947","longitude":"119.5777917","grade":"特優級","type2":"公園","type":"男廁所","exec":null,"diaper":null},{"country":"10016","city":"10016010","village":"虎井里","number":"X010000559","name":"虎井活動中心女廁","address":"澎湖縣馬公市虎井里","administration":"縣市政府","latitude":"23.48653473","longitude":"119.5162082","grade":"特優級","type2":"社福機構、集會場所","type":"女廁所","exec":null,"diaper":null},{"country":"10016","city":"10016010","village":"虎井里","number":"X010000558","name":"虎井活動中心男廁","address":"澎湖縣馬公市虎井里","administration":"縣市政府","latitude":"23.48651013","longitude":"119.5161653","grade":"特優級","type2":"社福機構、集會場所","type":"混合廁所","exec":null,"diaper":null},{"country":"10016","city":"10016040","village":"池東村","number":"X040000084","name":"池東公有零售市場女廁","address":"澎湖縣西嶼鄉池東村","administration":"縣市政府","latitude":"23.602519","longitude":"119.510334","grade":"特優級","type2":"","type":"女廁所","exec":null,"diaper":null},{"country":"10016","city":"10016040","village":"池東村","number":"X040000083","name":"池東公有零售市場男廁","address":"澎湖縣西嶼鄉池東村","administration":"縣市政府","latitude":"23.602519","longitude":"119.510334","grade":"特優級","type2":"","type":"男廁所","exec":null,"diaper":null},{"country":"10016","city":"10016020","village":"龍門村","number":"X020000131","name":"龍門社區公廁無障礙廁","address":"澎湖縣湖西鄉龍門村","administration":"其他","latitude":"23.56539","longitude":"119.675994","grade":"優等級","type2":"社福機構、集會場所","type":"無障礙廁所","exec":null,"diaper":null},{"country":"10016","city":"10016020","village":"龍門村","number":"X020000130","name":"龍門社區公廁女廁","address":"澎湖縣湖西鄉龍門村","administration":"其他","latitude":"23.56539","longitude":"119.675994","grade":"優等級","type2":"社福機構、集會場所","type":"女廁所","exec":null,"diaper":null},{"country":"10016","city":"10016020","village":"龍門村","number":"X020000129","name":"龍門社區公廁男廁","address":"澎湖縣湖西鄉龍門村","administration":"其他","latitude":"23.56539","longitude":"119.675994","grade":"優等級","type2":"社福機構、集會場所","type":"男廁所","exec":null,"diaper":null},{"country":"10016","city":"10016020","village":"湖西村","number":"X020000030","name":"湖西生態園區公廁","address":"澎湖縣湖西鄉湖西村","administration":"其他","latitude":"23.585684","longitude":"119.659354","grade":"優等級","type2":"文化育樂活動場所","type":"混合廁所","exec":null,"diaper":null},{"country":"10016","city":"10016010","village":"復興里","number":"X010000011","name":"馬公港旅客服務中心二樓女廁","address":"澎湖縣馬公市復興里臨海路36-1號","administration":"其他","latitude":"23.56307","longitude":"119.564464","grade":"特優級","type2":"","type":"女廁所","exec":null,"diaper":null},{"country":"10016","city":"10016010","village":"復興里","number":"X010000010","name":"馬公港旅客服務中心二樓男廁","address":"馬公市復興里臨海路36-1號","administration":"其他","latitude":"23.56313893","longitude":"119.564783","grade":"特優級","type2":"","type":"男廁所","exec":null,"diaper":null},{"country":"10016","city":"10016020","village":"林投村","number":"X020000117","name":"林投公園殘廁2(北側)","address":"湖西鄉林投村1-1號","administration":"交通部","latitude":"23.56154822","longitude":"119.6419931","grade":"特優級","type2":"公園","type":"無障礙廁所","exec":null,"diaper":null},{"country":"10016","city":"10016020","village":"林投村","number":"X020000116","name":"林投公園女廁2(北側)","address":"湖西鄉林投村1-1號","administration":"交通部","latitude":"23.56150889","longitude":"119.6419823","grade":"特優級","type2":"公園","type":"女廁所","exec":null,"diaper":null},{"country":"10016","city":"10016020","village":"林投村","number":"X020000115","name":"林投公園男廁2(北側)","address":"湖西鄉林投村1-1號","administration":"交通部","latitude":"23.56152855","longitude":"119.6420145","grade":"特優級","type2":"公園","type":"男廁所","exec":null,"diaper":null},{"country":"10016","city":"10016010","village":"中興里","number":"X010000096","name":"澎湖縣長青活動中心殘廁","address":"澎湖縣馬公市介壽路7-1號","administration":"縣市政府","latitude":"23.567373","longitude":"119.561568","grade":"特優級","type2":"社福機構、集會場所","type":"無障礙廁所","exec":null,"diaper":null},{"country":"10016","city":"10016040","village":"內垵村","number":"X040000061","name":"東昌營區公廁女廁","address":"澎湖縣西嶼鄉內垵村","administration":"交通部","latitude":"23.5687763","longitude":"119.5065737","grade":"特優級","type2":"觀光地區及風景區","type":"女廁所","exec":null,"diaper":null},{"country":"10016","city":"10016040","village":"內垵村","number":"X040000060","name":"東昌營區公廁男廁","address":"澎湖縣西嶼鄉內垵村","administration":"交通部","latitude":"23.56865829","longitude":"119.5068955","grade":"特優級","type2":"觀光地區及風景區","type":"男廁所","exec":null,"diaper":null},{"country":"10016","city":"10016040","village":"橫礁村","number":"X040000002","name":"漁翁島遊客中心女廁","address":"澎湖縣西嶼鄉1之2號","administration":"交通部","latitude":"23.639695","longitude":"119.540802","grade":"特優級","type2":"觀光地區及風景區","type":"女廁所","exec":null,"diaper":null},{"country":"10016","city":"10016040","village":"橫礁村","number":"X040000001","name":"漁翁島遊客中心男廁","address":"澎湖縣西嶼鄉1之2號","administration":"交通部","latitude":"23.639695","longitude":"119.540802","grade":"特優級","type2":"觀光地區及風景區","type":"男廁所","exec":null,"diaper":null},{"country":"10016","city":"10016010","village":"東衛里","number":"X010000477","name":"東衛石雕公園殘廁","address":"澎湖縣馬公市東衛里","administration":"交通部","latitude":"23.5710184","longitude":"119.597683","grade":"特優級","type2":"觀光地區及風景區","type":"無障礙廁所","exec":null,"diaper":null},{"country":"10016","city":"10016010","village":"東衛里","number":"X010000476","name":"東衛石雕公園女廁","address":"澎湖縣馬公市東衛里","administration":"交通部","latitude":"23.568533","longitude":"119.598196","grade":"特優級","type2":"觀光地區及風景區","type":"女廁所","exec":null,"diaper":null},{"country":"10016","city":"10016010","village":"東衛里","number":"X010000475","name":"東衛石雕公園男廁","address":"澎湖縣馬公市東衛里","administration":"交通部","latitude":"23.57068897","longitude":"119.5978546","grade":"特優級","type2":"觀光地區及風景區","type":"男廁所","exec":null,"diaper":null},{"country":"10016","city":"10016010","village":"光華里","number":"X010000419","name":"澎湖休憩園區殘廁3(花海區)","address":"澎湖縣馬公市光華里","administration":"縣市政府","latitude":"23.55795862","longitude":"119.6071029","grade":"特優級","type2":"公園","type":"無障礙廁所","exec":null,"diaper":null},{"country":"10016","city":"10016010","village":"光華里","number":"X010000418","name":"澎湖休憩園區女廁3(花海區)","address":"澎湖縣馬公市光華里","administration":"縣市政府","latitude":"23.55749","longitude":"119.600633","grade":"特優級","type2":"公園","type":"女廁所","exec":null,"diaper":null},{"country":"10016","city":"10016010","village":"光華里","number":"X010000417","name":"澎湖休憩園區男廁3(花海區)","address":"澎湖縣馬公市光華里","administration":"縣市政府","latitude":"23.55784061","longitude":"119.6073818","grade":"特優級","type2":"公園","type":"男廁所","exec":null,"diaper":null},{"country":"10016","city":"10016010","village":"光華里","number":"X010000416","name":"澎湖休憩園區殘廁2(林務所旁)","address":"澎湖縣馬公市光華里","administration":"縣市政府","latitude":"23.55795862","longitude":"119.6042061","grade":"特優級","type2":"公園","type":"無障礙廁所","exec":null,"diaper":null},{"country":"10016","city":"10016060","village":"中和村","number":"X060000004","name":"七美鄉公所男廁","address":"澎湖縣七美鄉中和村2鄰10號","administration":"縣市政府","latitude":"23.20661361","longitude":"119.4244874","grade":"特優級","type2":"","type":"男廁所","exec":null,"diaper":null},{"country":"10016","city":"10016020","village":"城北村","number":"X020000051","name":"澎湖縣政府環境保護局2樓男廁","address":"澎湖縣湖西鄉城北村","administration":"縣市政府","latitude":"23.56139087","longitude":"119.6130467","grade":"特優級","type2":"民眾洽公場所","type":"男廁所","exec":null,"diaper":null},{"country":"10016","city":"10016030","village":"後寮村","number":"X030000077","name":"三十人公廟公廁女廁","address":"澎湖縣白沙鄉後寮村","administration":"交通部","latitude":"23.66285244","longitude":"119.5748198","grade":"特優級","type2":"民眾洽公場所","type":"女廁所","exec":null,"diaper":null},{"country":"10016","city":"10016030","village":"後寮村","number":"X030000076","name":"三十人公廟公廁男廁","address":"澎湖縣白沙鄉後寮村","administration":"交通部","latitude":"23.66284262","longitude":"119.574734","grade":"特優級","type2":"民眾洽公場所","type":"男廁所","exec":null,"diaper":null},{"country":"10016","city":"10016010","village":"光復里","number":"X010000110","name":"南海遊客服務中心殘廁","address":"澎湖縣馬公市新營路25號","administration":"交通部","latitude":"23.56672101","longitude":"119.5727009","grade":"特優級","type2":"","type":"無障礙廁所","exec":null,"diaper":null},{"country":"10016","city":"10016020","village":"隘門村","number":"X020000090","name":"澎湖機場一樓外候機室北側無障礙廁所","address":"湖西鄉隘門村126-5號","administration":"交通部","latitude":"23.55997471","longitude":"119.6301699","grade":"特優級","type2":"","type":"無障礙廁所","exec":null,"diaper":null},{"country":"10016","city":"10016020","village":"隘門村","number":"X020000089","name":"澎湖機場一樓旅客入境室女廁","address":"湖西鄉隘門村126-5號","administration":"交通部","latitude":"23.5601714","longitude":"119.6302128","grade":"特優級","type2":"","type":"女廁所","exec":null,"diaper":null},{"country":"10016","city":"10016020","village":"隘門村","number":"X020000088","name":"澎湖機場一樓旅客入境室男廁","address":"湖西鄉隘門村126-5號","administration":"交通部","latitude":"23.56001405","longitude":"119.6301699","grade":"特優級","type2":"","type":"男廁所","exec":null,"diaper":null},{"country":"10016","city":"10016020","village":"隘門村","number":"X020000087","name":"澎湖機場二樓內候機室國際線無障礙廁","address":"湖西鄉隘門村126-5號","administration":"交通部","latitude":"23.55991571","longitude":"119.629966","grade":"特優級","type2":"","type":"無障礙廁所","exec":null,"diaper":null},{"country":"10016","city":"10016020","village":"隘門村","number":"X020000086","name":"澎湖機場二樓內候機室國際線女廁","address":"湖西鄉隘門村126-5號","administration":"交通部","latitude":"23.55995504","longitude":"119.6303201","grade":"特優級","type2":"","type":"女廁所","exec":null,"diaper":null},{"country":"10016","city":"10016020","village":"隘門村","number":"X020000085","name":"澎湖機場二樓內候機室國際線男廁","address":"湖西鄉隘門村126-5號","administration":"交通部","latitude":"23.55997471","longitude":"119.6302342","grade":"特優級","type2":"","type":"男廁所","exec":null,"diaper":null},{"country":"10016","city":"10016020","village":"湖西村","number":"X020000003","name":"台灣中油湖西加油站無障礙","address":"澎湖縣湖西鄉湖西村77-15號","administration":"經濟部","latitude":"23.58450951","longitude":"119.6553719","grade":"特優級","type2":"","type":"無障礙廁所","exec":null,"diaper":null},{"country":"10016","city":"10016030","village":"吉貝村","number":"X030000116","name":"吉貝大將軍爺廟無障礙廁","address":"澎湖縣白沙鄉吉貝村","administration":"交通部","latitude":"23.75339454","longitude":"119.6102035","grade":"特優級","type2":"宗教禮儀場所","type":"無障礙廁所","exec":null,"diaper":null},{"country":"10016","city":"10016030","village":"吉貝村","number":"X030000115","name":"吉貝大將軍爺廟女廁","address":"澎湖縣白沙鄉吉貝村","administration":"交通部","latitude":"23.75324724","longitude":"119.6102464","grade":"特優級","type2":"宗教禮儀場所","type":"女廁所","exec":null,"diaper":null},{"country":"10016","city":"10016030","village":"吉貝村","number":"X030000114","name":"吉貝大將軍爺廟男廁","address":"澎湖縣白沙鄉吉貝村","administration":"交通部","latitude":"23.75305084","longitude":"119.6096349","grade":"特優級","type2":"宗教禮儀場所","type":"男廁所","exec":null,"diaper":null},{"country":"10016","city":"10016040","village":"內垵村","number":"X040000059","name":"內垵遊憩區無障礙廁所","address":"澎湖縣西嶼鄉內垵村","administration":"交通部","latitude":"23.56968101","longitude":"119.4937849","grade":"特優級","type2":"觀光地區及風景區","type":"無障礙廁所","exec":null,"diaper":null},{"country":"10016","city":"10016040","village":"內垵村","number":"X040000058","name":"內垵遊憩區女廁","address":"澎湖縣西嶼鄉內垵村","administration":"交通部","latitude":"23.56973509","longitude":"119.4939351","grade":"特優級","type2":"觀光地區及風景區","type":"女廁所","exec":null,"diaper":null},{"country":"10016","city":"10016040","village":"內垵村","number":"X040000057","name":"內垵遊憩區男廁","address":"澎湖縣西嶼鄉內垵村","administration":"交通部","latitude":"23.56981254","longitude":"119.4939271","grade":"特優級","type2":"觀光地區及風景區","type":"男廁所","exec":null,"diaper":null},{"country":"10016","city":"10016010","village":"東衛里","number":"X010000481","name":"馬公市清潔隊一樓男廁","address":"澎湖縣馬公市東衛里600號","administration":"縣市政府","latitude":"23.563665","longitude":"119.60475","grade":"特優級","type2":"民眾洽公場所","type":"男廁所","exec":null,"diaper":null},{"country":"10016","city":"10016010","village":"東衛里","number":"X010000480","name":"馬公市清潔隊一樓女廁","address":"澎湖縣馬公市東衛里600號","administration":"縣市政府","latitude":"23.563665","longitude":"119.60475","grade":"特優級","type2":"民眾洽公場所","type":"女廁所","exec":null,"diaper":null},{"country":"10016","city":"10016010","village":"陽明里","number":"X010000360","name":"澎湖縣圖書館二樓殘障廁","address":"澎湖縣馬公市陽明里中華路236-1號","administration":"縣市政府","latitude":"23.57024153","longitude":"119.5779204","grade":"特優級","type2":"文化育樂活動場所","type":"無障礙廁所","exec":null,"diaper":null},{"country":"10016","city":"10016010","village":"陽明里","number":"X010000359","name":"澎湖縣圖書館二樓女廁","address":"澎湖縣馬公市陽明里中華路236-1號","administration":"縣市政府","latitude":"23.57018253","longitude":"119.5780063","grade":"特優級","type2":"文化育樂活動場所","type":"女廁所","exec":null,"diaper":null},{"country":"10016","city":"10016010","village":"陽明里","number":"X010000358","name":"澎湖縣圖書館二樓男廁","address":"澎湖縣馬公市陽明里中華路236-1號","administration":"縣市政府","latitude":"23.57016286","longitude":"119.5779419","grade":"特優級","type2":"文化育樂活動場所","type":"男廁所","exec":null,"diaper":null},{"country":"10016","city":"10016010","village":"西文里","number":"X010000408","name":"生活博物館四樓殘障廁","address":"澎湖縣馬公市西文里新生路327號","administration":"縣市政府","latitude":"23.56702586","longitude":"119.5793581","grade":"特優級","type2":"文化育樂活動場所","type":"無障礙廁所","exec":null,"diaper":null},{"country":"10016","city":"10016010","village":"西文里","number":"X010000407","name":"生活博物館三樓殘障廁","address":"澎湖縣馬公市西文里新生路327號","administration":"縣市政府","latitude":"23.56705536","longitude":"119.5794869","grade":"特優級","type2":"文化育樂活動場所","type":"無障礙廁所","exec":null,"diaper":null},{"country":"10016","city":"10016010","village":"西文里","number":"X010000406","name":"生活博物館二樓殘障廁","address":"澎湖縣馬公市西文里新生路327號","administration":"縣市政府","latitude":"23.56707503","longitude":"119.579401","grade":"特優級","type2":"文化育樂活動場所","type":"無障礙廁所","exec":null,"diaper":null},{"country":"10016","city":"10016010","village":"西文里","number":"X010000405","name":"生活博物館B1殘障廁","address":"澎湖縣馬公市西文里新生路327號","administration":"縣市政府","latitude":"23.56704553","longitude":"119.5793474","grade":"特優級","type2":"文化育樂活動場所","type":"無障礙廁所","exec":null,"diaper":null},{"country":"10016","city":"10016010","village":"西文里","number":"X010000404","name":"生活博物館一樓殘障廁","address":"澎湖縣馬公市西文里新生路327號","administration":"縣市政府","latitude":"23.56711437","longitude":"119.5794439","grade":"特優級","type2":"文化育樂活動場所","type":"無障礙廁所","exec":null,"diaper":null},{"country":"10016","city":"10016010","village":"西文里","number":"X010000403","name":"生活博物館四樓女廁","address":"澎湖縣馬公市西文里新生路327號","administration":"縣市政府","latitude":"23.5670947","longitude":"119.5794869","grade":"特優級","type2":"文化育樂活動場所","type":"女廁所","exec":null,"diaper":null},{"country":"10016","city":"10016010","village":"西文里","number":"X010000402","name":"生活博物館四樓男廁","address":"澎湖縣馬公市西文里新生路327號","administration":"縣市政府","latitude":"23.5670947","longitude":"119.5794869","grade":"特優級","type2":"文化育樂活動場所","type":"男廁所","exec":null,"diaper":null},{"country":"10016","city":"10016010","village":"西文里","number":"X010000401","name":"生活博物館三樓女廁","address":"澎湖縣馬公市西文里新生路327號","administration":"縣市政府","latitude":"23.5670947","longitude":"119.5794439","grade":"特優級","type2":"文化育樂活動場所","type":"女廁所","exec":null,"diaper":null},{"country":"10016","city":"10016010","village":"西文里","number":"X010000400","name":"生活博物館三樓男廁","address":"澎湖縣馬公市西文里新生路327號","administration":"縣市政府","latitude":"23.56717337","longitude":"119.5794654","grade":"特優級","type2":"文化育樂活動場所","type":"男廁所","exec":null,"diaper":null},{"country":"10016","city":"10016010","village":"西文里","number":"X010000399","name":"生活博物館二樓女廁","address":"澎湖縣馬公市西文里新生路327號","administration":"縣市政府","latitude":"23.56711437","longitude":"119.5794654","grade":"特優級","type2":"文化育樂活動場所","type":"女廁所","exec":null,"diaper":null},{"country":"10016","city":"10016010","village":"西文里","number":"X010000398","name":"生活博物館二樓男廁","address":"澎湖縣馬公市西文里新生路327號","administration":"縣市政府","latitude":"23.56707503","longitude":"119.5794439","grade":"特優級","type2":"文化育樂活動場所","type":"男廁所","exec":null,"diaper":null},{"country":"10016","city":"10016050","village":"東安村","number":"X050000006","name":"鴛鴦窟親子廁","address":"澎湖縣望安鄉東安村","administration":"交通部","latitude":"23.362529","longitude":"119.506796","grade":"特優級","type2":"觀光地區及風景區","type":"親子廁所","exec":null,"diaper":null},{"country":"10016","city":"10016050","village":"東安村","number":"X050000005","name":"鴛鴦窟女廁","address":"澎湖縣望安鄉東安村","administration":"交通部","latitude":"23.362529","longitude":"119.506796","grade":"特優級","type2":"觀光地區及風景區","type":"女廁所","exec":null,"diaper":null},{"country":"10016","city":"10016050","village":"東安村","number":"X050000004","name":"鴛鴦窟男廁","address":"澎湖縣望安鄉東安村","administration":"交通部","latitude":"23.362529","longitude":"119.506796","grade":"特優級","type2":"觀光地區及風景區","type":"男廁所","exec":null,"diaper":null},{"country":"10016","city":"10016010","village":"陽明里","number":"X010000109","name":"南海碼頭候船室殘障","address":"澎湖縣馬公市新營路100號","administration":"縣市政府","latitude":"23.567122","longitude":"119.573642","grade":"特優級","type2":"","type":"無障礙廁所","exec":null,"diaper":null},{"country":"10016","city":"10016030","village":"港子村","number":"X030000019","name":"白沙社福館一樓無障礙廁","address":"澎湖縣白沙鄉港子村","administration":"縣市政府","latitude":"23.64936448","longitude":"119.6006119","grade":"特優級","type2":"文化育樂活動場所","type":"無障礙廁所","exec":null,"diaper":null},{"country":"10016","city":"10016030","village":"港子村","number":"X030000018","name":"白沙社福館一樓廁所","address":"澎湖縣白沙鄉港子村","administration":"縣市政府","latitude":"23.64864459","longitude":"119.6002686","grade":"特優級","type2":"文化育樂活動場所","type":"混合廁所","exec":null,"diaper":null},{"country":"10016","city":"10016060","village":"中和村","number":"X060000006","name":"七美鄉公所無障礙廁","address":"澎湖縣七美鄉中和村2鄰10號","administration":"縣市政府","latitude":"23.20728661","longitude":"119.4244444","grade":"特優級","type2":"","type":"無障礙廁所","exec":null,"diaper":null},{"country":"10016","city":"10016060","village":"中和村","number":"X060000005","name":"七美鄉公所女廁","address":"澎湖縣七美鄉中和村2鄰10號","administration":"縣市政府","latitude":"23.20712883","longitude":"119.424305","grade":"特優級","type2":"","type":"女廁所","exec":null,"diaper":null},{"country":"10016","city":"10016060","village":"東湖村","number":"X060000003","name":"雙心石滬無障礙廁","address":"澎湖縣七美鄉東湖村","administration":"交通部","latitude":"23.21941966","longitude":"119.446063","grade":"特優級","type2":"觀光地區及風景區","type":"無障礙廁所","exec":null,"diaper":null},{"country":"10016","city":"10016060","village":"東湖村","number":"X060000002","name":"雙心石滬女廁","address":"澎湖縣七美鄉東湖村","administration":"交通部","latitude":"23.2194591","longitude":"119.4461274","grade":"特優級","type2":"觀光地區及風景區","type":"女廁所","exec":null,"diaper":null},{"country":"10016","city":"10016060","village":"東湖村","number":"X060000001","name":"雙心石滬男廁","address":"澎湖縣七美鄉東湖村","administration":"交通部","latitude":"23.2194591","longitude":"119.4459343","grade":"特優級","type2":"觀光地區及風景區","type":"男廁所","exec":null,"diaper":null},{"country":"10016","city":"10016030","village":"赤崁村","number":"X030000058","name":"白沙鄉立圖書館三樓廁所","address":"澎湖縣白沙鄉赤崁村368號","administration":"縣市政府","latitude":"23.66633108","longitude":"119.5985037","grade":"特優級","type2":"文化育樂活動場所","type":"混合廁所","exec":null,"diaper":null},{"country":"10016","city":"10016030","village":"赤崁村","number":"X030000057","name":"白沙鄉立圖書館二樓女廁","address":"澎湖縣白沙鄉赤崁村368號","administration":"縣市政府","latitude":"23.66633108","longitude":"119.5985252","grade":"特優級","type2":"文化育樂活動場所","type":"女廁所","exec":null,"diaper":null},{"country":"10016","city":"10016030","village":"赤崁村","number":"X030000056","name":"白沙鄉立圖書館一樓男廁","address":"澎湖縣白沙鄉赤崁村368號","administration":"縣市政府","latitude":"23.66632617","longitude":"119.5984823","grade":"特優級","type2":"文化育樂活動場所","type":"男廁所","exec":null,"diaper":null},{"country":"10016","city":"10016030","village":"岐頭村","number":"X030000035","name":"澎湖水族館外無障礙廁","address":"澎湖縣白沙鄉岐頭村58號","administration":"農業部","latitude":"23.650001","longitude":"119.604305","grade":"特優級","type2":"觀光地區及風景區","type":"無障礙廁所","exec":null,"diaper":null},{"country":"10016","city":"10016030","village":"岐頭村","number":"X030000034","name":"澎湖水族館外女廁","address":"澎湖縣白沙鄉岐頭村58號","administration":"農業部","latitude":"23.650001","longitude":"119.604305","grade":"特優級","type2":"觀光地區及風景區","type":"女廁所","exec":null,"diaper":null},{"country":"10016","city":"10016030","village":"岐頭村","number":"X030000033","name":"澎湖水族館外男廁","address":"澎湖縣白沙鄉岐頭村58號","administration":"農業部","latitude":"23.650001","longitude":"119.604305","grade":"特優級","type2":"觀光地區及風景區","type":"男廁所","exec":null,"diaper":null},{"country":"10016","city":"10016030","village":"岐頭村","number":"X030000032","name":"澎湖水族館二樓無障礙廁","address":"澎湖縣白沙鄉岐頭村58號","administration":"農業部","latitude":"23.650001","longitude":"119.604305","grade":"特優級","type2":"觀光地區及風景區","type":"無障礙廁所","exec":null,"diaper":null},{"country":"10016","city":"10016030","village":"岐頭村","number":"X030000031","name":"澎湖水族館二樓女廁","address":"澎湖縣白沙鄉岐頭村58號","administration":"農業部","latitude":"23.650001","longitude":"119.604305","grade":"特優級","type2":"觀光地區及風景區","type":"女廁所","exec":null,"diaper":null},{"country":"10016","city":"10016030","village":"岐頭村","number":"X030000030","name":"澎湖水族館二樓男廁","address":"澎湖縣白沙鄉岐頭村58號","administration":"農業部","latitude":"23.650001","longitude":"119.604305","grade":"特優級","type2":"觀光地區及風景區","type":"男廁所","exec":null,"diaper":null},{"country":"10016","city":"10016030","village":"岐頭村","number":"X030000029","name":"澎湖水族館一樓無障礙廁","address":"澎湖縣白沙鄉岐頭村58號","administration":"農業部","latitude":"23.650001","longitude":"119.604305","grade":"特優級","type2":"觀光地區及風景區","type":"無障礙廁所","exec":null,"diaper":null},{"country":"10016","city":"10016030","village":"岐頭村","number":"X030000028","name":"澎湖水族館一樓女廁","address":"澎湖縣白沙鄉岐頭村58號","administration":"農業部","latitude":"23.650001","longitude":"119.604305","grade":"特優級","type2":"觀光地區及風景區","type":"女廁所","exec":null,"diaper":null},{"country":"10016","city":"10016030","village":"岐頭村","number":"X030000027","name":"澎湖水族館一樓男廁","address":"澎湖縣白沙鄉岐頭村58號","administration":"農業部","latitude":"23.650001","longitude":"119.604305","grade":"特優級","type2":"觀光地區及風景區","type":"男廁所","exec":null,"diaper":null},{"country":"10016","city":"10016010","village":"陽明里","number":"X010000307","name":"統一超商揚光門市公廁","address":"澎湖縣馬公市陽明里中華路175號1樓","administration":"其他","latitude":"23.57190342","longitude":"119.5745516","grade":"特優級","type2":"","type":"混合廁所","exec":null,"diaper":null},{"country":"10016","city":"10016020","village":"隘門村","number":"X020000108","name":"隘門社區女廁","address":"澎湖縣湖西鄉隘門村40號","administration":"其他","latitude":"23.56154822","longitude":"119.6371222","grade":"特優級","type2":"社福機構、集會場所","type":"女廁所","exec":null,"diaper":null},{"country":"10016","city":"10016020","village":"隘門村","number":"X020000107","name":"隘門社區男廁","address":"澎湖縣湖西鄉隘門村40號","administration":"其他","latitude":"23.56154822","longitude":"119.6371222","grade":"特優級","type2":"社福機構、集會場所","type":"男廁所","exec":null,"diaper":null},{"country":"10016","city":"10016020","village":"北寮村","number":"X020000033","name":"北寮奎壁山殘廁","address":"澎湖縣湖西鄉北寮村","administration":"交通部","latitude":"23.59964602","longitude":"119.6711648","grade":"特優級","type2":"觀光地區及風景區","type":"無障礙廁所","exec":null,"diaper":null},{"country":"10016","city":"10016020","village":"北寮村","number":"X020000032","name":"北寮奎壁山女廁","address":"澎湖縣湖西鄉北寮村","administration":"交通部","latitude":"23.59966814","longitude":"119.6711487","grade":"特優級","type2":"觀光地區及風景區","type":"女廁所","exec":null,"diaper":null},{"country":"10016","city":"10016020","village":"北寮村","number":"X020000031","name":"北寮奎壁山男廁","address":"澎湖縣湖西鄉北寮村","administration":"交通部","latitude":"23.59959441","longitude":"119.6711272","grade":"特優級","type2":"觀光地區及風景區","type":"男廁所","exec":null,"diaper":null},{"country":"10016","city":"10016010","village":"啟明里","number":"X010000025","name":"馬公漁船加油站男廁","address":"澎湖縣馬公市海安街16號","administration":"其他","latitude":"23.564125","longitude":"119.570194","grade":"特優級","type2":"","type":"男廁所","exec":null,"diaper":null},{"country":"10016","city":"10016010","village":"啟明里","number":"X010000024","name":"馬公漁船加油站女廁","address":"澎湖縣馬公市海安街16號","administration":"其他","latitude":"23.564125","longitude":"119.570194","grade":"特優級","type2":"","type":"女廁所","exec":null,"diaper":null},{"country":"10016","city":"10016010","village":"重慶里","number":"X010000023","name":"台灣中油馬公加油站女廁","address":"澎湖縣馬公市民福路18號","administration":"經濟部","latitude":"23.564964","longitude":"119.568673","grade":"特優級","type2":"","type":"女廁所","exec":null,"diaper":null},{"country":"10016","city":"10016050","village":"水垵村","number":"X050000023","name":"天台山親子廁","address":"望安鄉中社村","administration":"交通部","latitude":"23.38104233","longitude":"119.49489","grade":"特優級","type2":"觀光地區及風景區","type":"親子廁所","exec":null,"diaper":null},{"country":"10016","city":"10016050","village":"水垵村","number":"X050000022","name":"天台山男廁","address":"澎湖縣望安鄉水垵村","administration":"交通部","latitude":"23.38096355","longitude":"119.4949007","grade":"特優級","type2":"觀光地區及風景區","type":"男廁所","exec":null,"diaper":null},{"country":"10016","city":"10016050","village":"水垵村","number":"X050000021","name":"天台山女廁","address":"澎湖縣望安鄉水垵村","administration":"交通部","latitude":"23.38098325","longitude":"119.4949007","grade":"特優級","type2":"觀光地區及風景區","type":"女廁所","exec":null,"diaper":null},{"country":"10016","city":"10016050","village":"東安村","number":"X050000003","name":"望安綠觿龜保育中心殘障","address":"澎湖縣望安鄉東安村1-14號","administration":"交通部","latitude":"23.3639","longitude":"119.506798","grade":"特優級","type2":"觀光地區及風景區","type":"無障礙廁所","exec":null,"diaper":null},{"country":"10016","city":"10016040","village":"小門村","number":"X040000009","name":"小門地質探索館無障礙廁","address":"西嶼鄉小門村11-12號","administration":"交通部","latitude":"23.65405717","longitude":"119.5174098","grade":"特優級","type2":"觀光地區及風景區","type":"無障礙廁所","exec":null,"diaper":null},{"country":"10016","city":"10016040","village":"小門村","number":"X040000008","name":"小門地質探索館男廁","address":"西嶼鄉小門村11-12號","administration":"交通部","latitude":"23.65398838","longitude":"119.5173776","grade":"特優級","type2":"觀光地區及風景區","type":"男廁所","exec":null,"diaper":null},{"country":"10016","city":"10016010","village":"陽明里","number":"X010000304","name":"北辰公有市場前男廁","address":"馬公市北辰街20號","administration":"縣市政府","latitude":"23.57011861","longitude":"119.5720518","grade":"特優級","type2":"","type":"男廁所","exec":null,"diaper":null},{"country":"10016","city":"10016010","village":"陽明里","number":"X010000303","name":"北辰公有市場前女廁","address":"馬公市北辰街20號","administration":"縣市政府","latitude":"23.56965642","longitude":"119.5716977","grade":"特優級","type2":"","type":"女廁所","exec":null,"diaper":null},{"country":"10016","city":"10016010","village":"光復里","number":"X010000098","name":"菊島之星農特產中心性別友善廁所","address":"馬公市漁隆路50號","administration":"縣市政府","latitude":"23.56579661","longitude":"119.5698953","grade":"特優級","type2":"","type":"性別友善廁所","exec":null,"diaper":null},{"country":"10016","city":"10016060","village":"南港村","number":"X060000017","name":"台灣中油七美加油站男廁","address":"澎湖縣七美鄉南港村11鄰1-2號","administration":"經濟部","latitude":"23.19476784","longitude":"119.4221163","grade":"特優級","type2":"","type":"男廁所","exec":null,"diaper":null},{"country":"10016","city":"10016060","village":"南港村","number":"X060000016","name":"台灣中油七美加油站女廁","address":"澎湖縣七美鄉南港村11鄰1-2號","administration":"經濟部","latitude":"23.1947777","longitude":"119.422127","grade":"特優級","type2":"","type":"女廁所","exec":null,"diaper":null},{"country":"10016","city":"10016050","village":"東安村","number":"X050000015","name":"台灣中油望安加油站女廁","address":"澎湖縣望安鄉東安村2-14號","administration":"經濟部","latitude":"23.36284226","longitude":"119.5072925","grade":"特優級","type2":"","type":"女廁所","exec":null,"diaper":null},{"country":"10016","city":"10016040","village":"外垵村","number":"X040000075","name":"台灣中油外垵加油站混合廁所","address":"澎湖縣西嶼鄉外垵村89-2號","administration":"經濟部","latitude":"23.56381011","longitude":"119.4831419","grade":"特優級","type2":"","type":"混合廁所","exec":null,"diaper":null},{"country":"10016","city":"10016030","village":"通梁村","number":"X030000082","name":"台灣中油通梁加油站男廁","address":"澎湖縣白沙鄉通梁村25-1號","administration":"經濟部","latitude":"23.6595506","longitude":"119.5629644","grade":"特優級","type2":"","type":"男廁所","exec":null,"diaper":null},{"country":"10016","city":"10016030","village":"通梁村","number":"X030000081","name":"台灣中油通梁加油站女廁","address":"澎湖縣白沙鄉通梁村25-1號","administration":"經濟部","latitude":"23.65958008","longitude":"119.562943","grade":"特優級","type2":"","type":"女廁所","exec":null,"diaper":null},{"country":"10016","city":"10016020","village":"湖西村","number":"X020000002","name":"台灣中油湖西加油站男廁","address":"澎湖縣湖西鄉湖西村77-15號","administration":"經濟部","latitude":"23.58416536","longitude":"119.6552432","grade":"特優級","type2":"","type":"男廁所","exec":null,"diaper":null},{"country":"10016","city":"10016020","village":"湖西村","number":"X020000001","name":"台灣中油湖西加油站女廁","address":"澎湖縣湖西鄉湖西村77-15號","administration":"經濟部","latitude":"23.58420469","longitude":"119.6552324","grade":"特優級","type2":"","type":"女廁所","exec":null,"diaper":null},{"country":"10016","city":"10016010","village":"前寮里","number":"X010000445","name":"三總B1購物區女廁","address":"澎湖縣馬公市前寮里90號","administration":"國防部","latitude":"23.55450661","longitude":"119.5839071","grade":"特優級","type2":"","type":"女廁所","exec":null,"diaper":null},{"country":"10016","city":"10016010","village":"前寮里","number":"X010000444","name":"三總B1購物區男廁","address":"澎湖縣馬公市前寮里90號","administration":"國防部","latitude":"23.55470331","longitude":"119.5842934","grade":"特優級","type2":"","type":"男廁所","exec":null,"diaper":null},{"country":"10016","city":"10016010","village":"前寮里","number":"X010000443","name":"三總四樓婦兒門診區無障礙廁所","address":"澎湖縣馬公市前寮里90號","administration":"國防部","latitude":"23.55458529","longitude":"119.5840359","grade":"特優級","type2":"","type":"無障礙廁所","exec":null,"diaper":null},{"country":"10016","city":"10016010","village":"前寮里","number":"X010000442","name":"三總四樓婦兒門診區廁所","address":"澎湖縣馬公市前寮里90號","administration":"國防部","latitude":"23.55470331","longitude":"119.5842075","grade":"特優級","type2":"","type":"混合廁所","exec":null,"diaper":null},{"country":"10016","city":"10016010","village":"前寮里","number":"X010000441","name":"三總三樓加護病房區女廁","address":"澎湖縣馬公市前寮里90號","administration":"國防部","latitude":"23.5543886","longitude":"119.5843792","grade":"特優級","type2":"","type":"女廁所","exec":null,"diaper":null},{"country":"10016","city":"10016010","village":"前寮里","number":"X010000440","name":"三總三樓加護病房區男廁","address":"澎湖縣馬公市前寮里90號","administration":"國防部","latitude":"23.55458529","longitude":"119.5838213","grade":"特優級","type2":"","type":"男廁所","exec":null,"diaper":null},{"country":"10016","city":"10016010","village":"前寮里","number":"X010000439","name":"三總二樓血液透析室廁所","address":"澎湖縣馬公市前寮里90號","administration":"國防部","latitude":"23.55454595","longitude":"119.583993","grade":"特優級","type2":"","type":"混合廁所","exec":null,"diaper":null},{"country":"10016","city":"10016010","village":"前寮里","number":"X010000429","name":"三總急診室公廁","address":"澎湖縣馬公市前寮里90號","administration":"國防部","latitude":"23.55450661","longitude":"119.5838642","grade":"特優級","type2":"","type":"混合廁所","exec":null,"diaper":null},{"country":"10016","city":"10016010","village":"前寮里","number":"X010000428","name":"三總放射科男廁","address":"澎湖縣馬公市前寮里90號","administration":"國防部","latitude":"23.55434926","longitude":"119.5837784","grade":"特優級","type2":"","type":"男廁所","exec":null,"diaper":null},{"country":"10016","city":"10016010","village":"前寮里","number":"X010000427","name":"三總放射科女廁","address":"澎湖縣馬公市前寮里90號","administration":"國防部","latitude":"23.55470331","longitude":"119.58498","grade":"特優級","type2":"","type":"女廁所","exec":null,"diaper":null},{"country":"10016","city":"10016010","village":"前寮里","number":"X010000426","name":"三總一樓門診區無障礙公廁","address":"澎湖縣馬公市前寮里90號","administration":"國防部","latitude":"23.55458529","longitude":"119.5852375","grade":"特優級","type2":"","type":"無障礙廁所","exec":null,"diaper":null},{"country":"10016","city":"10016010","village":"前寮里","number":"X010000425","name":"三總一樓門診區公廁","address":"以澎湖縣馬公市前寮里90號","administration":"國防部","latitude":"23.55458529","longitude":"119.5852375","grade":"特優級","type2":"","type":"混合廁所","exec":null,"diaper":null},{"country":"10016","city":"10016010","village":"陽明里","number":"X010000362","name":"澎湖縣文化中心女廁","address":"馬公市中華路230號","administration":"縣市政府","latitude":"23.57150024","longitude":"119.5774484","grade":"特優級","type2":"文化育樂活動場所","type":"女廁所","exec":null,"diaper":null},{"country":"10016","city":"10016010","village":"光復里","number":"X010000103","name":"南海遊客服務中心女廁3","address":"馬公市新營路25號","administration":"交通部","latitude":"23.56589495","longitude":"119.5719552","grade":"特優級","type2":"","type":"女廁所","exec":null,"diaper":null},{"country":"10016","city":"10016010","village":"光復里","number":"X010000102","name":"南海遊客服務中心女廁2","address":"馬公市新營路25號","administration":"交通部","latitude":"23.56632765","longitude":"119.5720464","grade":"特優級","type2":"","type":"女廁所","exec":null,"diaper":null},{"country":"10016","city":"10016010","village":"光復里","number":"X010000101","name":"南海遊客服務中心女廁1","address":"馬公市新營路25號","administration":"交通部","latitude":"23.56683902","longitude":"119.5725453","grade":"特優級","type2":"","type":"女廁所","exec":null,"diaper":null},{"country":"10016","city":"10016010","village":"中興里","number":"X010000094","name":"澎湖縣長青活動中心女廁","address":"澎湖縣馬公市介壽路7-1號","administration":"縣市政府","latitude":"23.567373","longitude":"119.561568","grade":"特優級","type2":"社福機構、集會場所","type":"女廁所","exec":null,"diaper":null},{"country":"10016","city":"10016010","village":"中興里","number":"X010000028","name":"觀音亭運動公園南男廁","address":"馬公市介壽路11號","administration":"縣市政府","latitude":"23.56949417","longitude":"119.5631361","grade":"特優級","type2":"公園","type":"男廁所","exec":null,"diaper":null},{"country":"10016","city":"10016010","village":"東衛里","number":"X010000482","name":"馬公市清潔隊一樓無障礙廁","address":"澎湖縣馬公市東衛里600號","administration":"縣市政府","latitude":"23.563665","longitude":"119.60475","grade":"特優級","type2":"民眾洽公場所","type":"無障礙廁所","exec":null,"diaper":null},{"country":"10016","city":"10016050","village":"東安村","number":"X050000010","name":"望安綠觿龜保育中心販賣部女廁","address":"澎湖縣望安鄉東安村48號","administration":"交通部","latitude":"23.356542","longitude":"119.501514","grade":"特優級","type2":"觀光地區及風景區","type":"女廁所","exec":null,"diaper":null},{"country":"10016","city":"10016050","village":"東安村","number":"X050000009","name":"望安綠觿龜保育中心販賣部男廁","address":"澎湖縣望安鄉東安村48號","administration":"交通部","latitude":"23.356542","longitude":"119.501514","grade":"特優級","type2":"觀光地區及風景區","type":"男廁所","exec":null,"diaper":null},{"country":"10016","city":"10016050","village":"東安村","number":"X050000008","name":"望安綠觿龜保育中心女廁2","address":"澎湖縣望安鄉東安村48號","administration":"交通部","latitude":"23.356542","longitude":"119.501514","grade":"特優級","type2":"觀光地區及風景區","type":"女廁所","exec":null,"diaper":null},{"country":"10016","city":"10016050","village":"東安村","number":"X050000007","name":"望安綠觿龜保育中心男廁2","address":"澎湖縣望安鄉東安村48號","administration":"交通部","latitude":"23.356542","longitude":"119.501514","grade":"特優級","type2":"觀光地區及風景區","type":"男廁所","exec":null,"diaper":null},{"country":"10016","city":"10016040","village":"二崁村","number":"X040000024","name":"二崁公廁殘廁","address":"澎湖縣西嶼鄉二崁村12-1號","administration":"交通部","latitude":"23.60400624","longitude":"119.5183003","grade":"優等級","type2":"觀光地區及風景區","type":"無障礙廁所","exec":null,"diaper":null},{"country":"10016","city":"10016040","village":"二崁村","number":"X040000023","name":"二崁公廁女廁","address":"澎湖縣西嶼鄉二崁村12-1號","administration":"交通部","latitude":"23.60400624","longitude":"119.5181716","grade":"特優級","type2":"觀光地區及風景區","type":"女廁所","exec":null,"diaper":null},{"country":"10016","city":"10016040","village":"二崁村","number":"X040000022","name":"二崁公廁男廁","address":"澎湖縣西嶼鄉二崁村12-1號","administration":"交通部","latitude":"23.60407014","longitude":"119.5183647","grade":"特優級","type2":"觀光地區及風景區","type":"男廁所","exec":null,"diaper":null},{"country":"10016","city":"10016040","village":"竹灣村","number":"X040000012","name":"小門資訊站殘廁","address":"澎湖縣西嶼鄉小門村","administration":"縣市政府","latitude":"23.65137425","longitude":"119.5180643","grade":"特優級","type2":"觀光地區及風景區","type":"無障礙廁所","exec":null,"diaper":null},{"country":"10016","city":"10016040","village":"竹灣村","number":"X040000011","name":"小門資訊站女廁","address":"澎湖縣西嶼鄉小門村","administration":"縣市政府","latitude":"23.65138408","longitude":"119.5182037","grade":"特優級","type2":"觀光地區及風景區","type":"女廁所","exec":null,"diaper":null},{"country":"10016","city":"10016040","village":"竹灣村","number":"X040000010","name":"小門資訊站男廁","address":"澎湖縣西嶼鄉小門村","administration":"縣市政府","latitude":"23.65114821","longitude":"119.5181179","grade":"特優級","type2":"觀光地區及風景區","type":"男廁所","exec":null,"diaper":null},{"country":"10016","city":"10016040","village":"小門村","number":"X040000007","name":"小門地質探索館女廁","address":"西嶼鄉小門村11-12號","administration":"交通部","latitude":"23.65384097","longitude":"119.5173454","grade":"特優級","type2":"觀光地區及風景區","type":"女廁所","exec":null,"diaper":null},{"country":"10016","city":"10016030","village":"吉貝村","number":"X030000090","name":"吉貝遊客服務中心殘障","address":"白沙鄉吉貝村182-2號","administration":"交通部","latitude":"23.73903695","longitude":"119.6119309","grade":"特優級","type2":"觀光地區及風景區","type":"無障礙廁所","exec":null,"diaper":null},{"country":"10016","city":"10016030","village":"吉貝村","number":"X030000087","name":"吉貝海上樂園男廁","address":"白沙鄉吉貝村187號","administration":"交通部","latitude":"23.73396919","longitude":"119.6013737","grade":"特優級","type2":"觀光地區及風景區","type":"男廁所","exec":null,"diaper":null},{"country":"10016","city":"10016030","village":"通梁村","number":"X030000080","name":"跨海大橋橋頭殘障廁所","address":"白沙鄉通樑村(大橋往西嶼鄉橋頭旁)","administration":"交通部","latitude":"23.65833204","longitude":"119.5545262","grade":"特優級","type2":"觀光地區及風景區","type":"無障礙廁所","exec":null,"diaper":null},{"country":"10016","city":"10016010","village":"長安里","number":"X010000012","name":"澎湖公車總站男廁","address":"馬公市民族路16-1號","administration":"縣市政府","latitude":"23.56742905","longitude":"119.5644665","grade":"特優級","type2":"","type":"男廁所","exec":null,"diaper":null},{"country":"10016","city":"10016020","village":"隘門村","number":"X020000084","name":"澎湖機場二樓內候機室北側親子廁","address":"湖西鄉隘門村126-5號","administration":"交通部","latitude":"23.56003372","longitude":"119.6303201","grade":"特優級","type2":"","type":"親子廁所","exec":null,"diaper":null},{"country":"10016","city":"10016020","village":"隘門村","number":"X020000080","name":"澎湖機場二樓內候機室南側親子廁","address":"湖西鄉隘門村126-5號","administration":"交通部","latitude":"23.56052544","longitude":"119.6302986","grade":"特優級","type2":"","type":"親子廁所","exec":null,"diaper":null},{"country":"10016","city":"10016020","village":"隘門村","number":"X020000079","name":"澎湖機場二樓內候機室南側無障礙廁","address":"湖西鄉隘門村126-5號","administration":"交通部","latitude":"23.55995504","longitude":"119.6302772","grade":"特優級","type2":"","type":"無障礙廁所","exec":null,"diaper":null},{"country":"10016","city":"10016020","village":"隘門村","number":"X020000075","name":"澎湖機場二樓外候機室北側女廁","address":"湖西鄉隘門村126-5號","administration":"交通部","latitude":"23.56046644","longitude":"119.6303845","grade":"特優級","type2":"","type":"女廁所","exec":null,"diaper":null},{"country":"10016","city":"10016020","village":"隘門村","number":"X020000074","name":"澎湖機場二樓外候機室北側男廁","address":"湖西鄉隘門村126-5號","administration":"交通部","latitude":"23.56060412","longitude":"119.6302557","grade":"特優級","type2":"","type":"男廁所","exec":null,"diaper":null},{"country":"10016","city":"10016020","village":"隘門村","number":"X020000073","name":"澎湖機場二樓外候機室南側無障礙廁","address":"湖西鄉隘門村126-5號","administration":"交通部","latitude":"23.56034842","longitude":"119.6293652","grade":"特優級","type2":"","type":"無障礙廁所","exec":null,"diaper":null},{"country":"10016","city":"10016020","village":"隘門村","number":"X020000068","name":"澎湖機場一樓國際線候機室男廁","address":"湖西鄉隘門村126-5號","administration":"交通部","latitude":"23.56063362","longitude":"119.6294349","grade":"特優級","type2":"","type":"男廁所","exec":null,"diaper":null},{"country":"10016","city":"10016020","village":"隘門村","number":"X020000067","name":"澎湖機場一樓外候機室北側女廁","address":"湖西鄉隘門村126-5號","administration":"交通部","latitude":"23.56087457","longitude":"119.6295208","grade":"特優級","type2":"","type":"女廁所","exec":null,"diaper":null},{"country":"10016","city":"10016020","village":"隘門村","number":"X020000066","name":"澎湖機場一樓外候機室北側男廁","address":"湖西鄉隘門村126-5號","administration":"交通部","latitude":"23.56055495","longitude":"119.629451","grade":"特優級","type2":"","type":"男廁所","exec":null,"diaper":null},{"country":"10016","city":"10016020","village":"隘門村","number":"X020000065","name":"澎湖機場一樓外候機室南側親子廁","address":"湖西鄉隘門村126-5號","administration":"交通部","latitude":"23.56056478","longitude":"119.6294725","grade":"特優級","type2":"","type":"親子廁所","exec":null,"diaper":null},{"country":"10016","city":"10016020","village":"隘門村","number":"X020000064","name":"澎湖機場一樓外候機室南側無障礙廁所","address":"湖西鄉隘門村126-5號","administration":"交通部","latitude":"23.56067296","longitude":"119.6294725","grade":"特優級","type2":"","type":"無障礙廁所","exec":null,"diaper":null},{"country":"10016","city":"10016020","village":"隘門村","number":"X020000063","name":"澎湖機場一樓外候機室南側女廁","address":"湖西鄉隘門村126-5號","administration":"交通部","latitude":"23.56080081","longitude":"119.6295583","grade":"特優級","type2":"","type":"女廁所","exec":null,"diaper":null},{"country":"10016","city":"10016020","village":"隘門村","number":"X020000062","name":"澎湖機場一樓外候機室南側男廁","address":"湖西鄉隘門村126-5號","administration":"交通部","latitude":"23.56093849","longitude":"119.6296656","grade":"特優級","type2":"","type":"男廁所","exec":null,"diaper":null},{"country":"10016","city":"10016010","village":"西文里","number":"X010000371","name":"文澳公有零售市場後殘障","address":"馬公市文德路5號","administration":"縣市政府","latitude":"23.56523607","longitude":"119.5820725","grade":"特優級","type2":"","type":"無障礙廁所","exec":null,"diaper":null},{"country":"10016","city":"10016010","village":"西文里","number":"X010000370","name":"文澳公有零售市場後男廁","address":"馬公市文德路5號","administration":"縣市政府","latitude":"23.56522623","longitude":"119.5821261","grade":"特優級","type2":"","type":"男廁所","exec":null,"diaper":null},{"country":"10016","city":"10016010","village":"西文里","number":"X010000369","name":"文澳公有零售市場後女廁","address":"馬公市文德路5號","administration":"縣市政府","latitude":"23.56504922","longitude":"119.5821905","grade":"特優級","type2":"","type":"女廁所","exec":null,"diaper":null},{"country":"10016","city":"10016010","village":"西文里","number":"X010000368","name":"文澳公有零售市場前殘障","address":"馬公市文德路3號","administration":"縣市政府","latitude":"23.56464602","longitude":"119.5816219","grade":"優等級","type2":"","type":"無障礙廁所","exec":null,"diaper":null},{"country":"10016","city":"10016010","village":"西文里","number":"X010000367","name":"文澳公有零售市場前女廁","address":"馬公市文德路3號","administration":"縣市政府","latitude":"23.56459685","longitude":"119.581579","grade":"優等級","type2":"","type":"女廁所","exec":null,"diaper":null},{"country":"10016","city":"10016010","village":"西文里","number":"X010000366","name":"文澳公有零售市場前男廁","address":"馬公市文德路3號","administration":"縣市政府","latitude":"23.56473453","longitude":"119.5816863","grade":"優等級","type2":"","type":"男廁所","exec":null,"diaper":null},{"country":"10016","city":"10016020","village":"城北村","number":"X020000056","name":"澎湖縣政府環境保護局1樓殘廁","address":"澎湖縣湖西鄉城北村","administration":"縣市政府","latitude":"23.5619416","longitude":"119.6131754","grade":"特優級","type2":"民眾洽公場所","type":"無障礙廁所","exec":null,"diaper":null},{"country":"10016","city":"10016020","village":"城北村","number":"X020000055","name":"澎湖縣政府環境保護局1樓女廁","address":"澎湖縣湖西鄉城北村","administration":"縣市政府","latitude":"23.56190226","longitude":"119.6130467","grade":"特優級","type2":"民眾洽公場所","type":"女廁所","exec":null,"diaper":null},{"country":"10016","city":"10016020","village":"城北村","number":"X020000054","name":"澎湖縣政府環境保護局1樓男廁","address":"澎湖縣湖西鄉城北村","administration":"縣市政府","latitude":"23.56217762","longitude":"119.6130467","grade":"特優級","type2":"民眾洽公場所","type":"男廁所","exec":null,"diaper":null},{"country":"10016","city":"10016020","village":"城北村","number":"X020000053","name":"澎湖縣政府環境保護局2樓殘廁","address":"澎湖縣湖西鄉城北村","administration":"縣市政府","latitude":"23.56186292","longitude":"119.6130896","grade":"特優級","type2":"民眾洽公場所","type":"無障礙廁所","exec":null,"diaper":null},{"country":"10016","city":"10016020","village":"城北村","number":"X020000052","name":"澎湖縣政府環境保護局2樓女廁","address":"澎湖縣湖西鄉城北村","administration":"縣市政府","latitude":"23.56202027","longitude":"119.6130896","grade":"特優級","type2":"民眾洽公場所","type":"女廁所","exec":null,"diaper":null},{"country":"10016","city":"10016010","village":"桶盤里","number":"X010000541","name":"桶盤公廁殘廁","address":"澎湖縣馬公市桶盤里","administration":"交通部","latitude":"23.513454","longitude":"119.517445","grade":"特優級","type2":"","type":"無障礙廁所","exec":null,"diaper":null},{"country":"10016","city":"10016010","village":"桶盤里","number":"X010000540","name":"桶盤公廁女廁","address":"澎湖縣馬公市桶盤里","administration":"交通部","latitude":"23.51233389","longitude":"119.5176485","grade":"特優級","type2":"","type":"女廁所","exec":null,"diaper":null},{"country":"10016","city":"10016010","village":"桶盤里","number":"X010000539","name":"桶盤公廁男廁","address":"澎湖縣馬公市桶盤里","administration":"交通部","latitude":"23.51233266","longitude":"119.5176566","grade":"特優級","type2":"","type":"男廁所","exec":null,"diaper":null},{"country":"10016","city":"10016030","village":"吉貝村","number":"X030000100","name":"吉貝西崁山無障礙廁","address":"澎湖縣白沙鄉吉貝村(西崁山)","administration":"交通部","latitude":"23.741799","longitude":"119.613301","grade":"特優級","type2":"觀光地區及風景區","type":"無障礙廁所","exec":null,"diaper":null},{"country":"10016","city":"10016050","village":"東安村","number":"X050000013","name":"網垵口親子廁所","address":"澎湖縣望安鄉東安村","administration":"交通部","latitude":"23.35642043","longitude":"119.5030171","grade":"特優級","type2":"觀光地區及風景區","type":"親子廁所","exec":null,"diaper":null},{"country":"10016","city":"10016050","village":"東安村","number":"X050000012","name":"網垵口女廁","address":"澎湖縣望安鄉東安村","administration":"交通部","latitude":"23.35640073","longitude":"119.5030171","grade":"特優級","type2":"觀光地區及風景區","type":"女廁所","exec":null,"diaper":null},{"country":"10016","city":"10016010","village":"虎井里","number":"X010000538","name":"虎井西山無障礙公廁","address":"澎湖縣馬公市虎井里","administration":"交通部","latitude":"23.48716449","longitude":"119.5110798","grade":"特優級","type2":"觀光地區及風景區","type":"無障礙廁所","exec":null,"diaper":null},{"country":"10016","city":"10016010","village":"虎井里","number":"X010000537","name":"虎井西山女廁","address":"澎湖縣馬公市虎井里","administration":"交通部","latitude":"23.48724321","longitude":"119.5110691","grade":"特優級","type2":"觀光地區及風景區","type":"女廁所","exec":null,"diaper":null},{"country":"10016","city":"10016010","village":"虎井里","number":"X010000536","name":"虎井西山男廁","address":"澎湖縣馬公市虎井里","administration":"交通部","latitude":"23.48713005","longitude":"119.5111227","grade":"特優級","type2":"觀光地區及風景區","type":"男廁所","exec":null,"diaper":null},{"country":"10016","city":"10016050","village":"東安村","number":"X050000002","name":"望安綠觿龜保育中心女廁","address":"澎湖縣望安鄉東安村1-14號","administration":"交通部","latitude":"23.3639","longitude":"119.506798","grade":"特優級","type2":"觀光地區及風景區","type":"女廁所","exec":null,"diaper":null},{"country":"10016","city":"10016050","village":"東安村","number":"X050000001","name":"望安綠觿龜保育中心男廁","address":"澎湖縣望安鄉東安村1-14號","administration":"交通部","latitude":"23.3639","longitude":"119.506798","grade":"特優級","type2":"觀光地區及風景區","type":"男廁所","exec":null,"diaper":null},{"country":"10016","city":"10016040","village":"竹灣村","number":"X040000019","name":"大義宮男廁","address":"澎湖縣西嶼鄉竹灣村無","administration":"其他","latitude":"23.63237602","longitude":"119.520607","grade":"特優級","type2":"宗教禮儀場所","type":"男廁所","exec":null,"diaper":null},{"country":"10016","city":"10016040","village":"竹灣村","number":"X040000018","name":"大義宮女廁","address":"澎湖縣西嶼鄉竹灣村無","administration":"其他","latitude":"23.63263158","longitude":"119.5213795","grade":"特優級","type2":"宗教禮儀場所","type":"女廁所","exec":null,"diaper":null},{"country":"10016","city":"10016030","village":"吉貝村","number":"X030000089","name":"吉貝遊客服務中心男廁","address":"白沙鄉吉貝村182-2號","administration":"交通部","latitude":"23.73887982","longitude":"119.6119738","grade":"特優級","type2":"觀光地區及風景區","type":"男廁所","exec":null,"diaper":null},{"country":"10016","city":"10016030","village":"吉貝村","number":"X030000088","name":"吉貝遊客服務中心女廁","address":"白沙鄉吉貝村182-2號","administration":"交通部","latitude":"23.73899767","longitude":"119.61133","grade":"特優級","type2":"觀光地區及風景區","type":"女廁所","exec":null,"diaper":null},{"country":"10016","city":"10016030","village":"通梁村","number":"X030000079","name":"跨海大橋橋頭公廁男廁","address":"白沙鄉通樑村(大橋往西嶼鄉橋頭旁)","administration":"交通部","latitude":"23.65830747","longitude":"119.5544726","grade":"特優級","type2":"觀光地區及風景區","type":"男廁所","exec":null,"diaper":null},{"country":"10016","city":"10016030","village":"通梁村","number":"X030000086","name":"通樑社區殘障","address":"白沙鄉通樑村","administration":"交通部","latitude":"23.65613075","longitude":"119.5574927","grade":"特優級","type2":"社福機構、集會場所","type":"無障礙廁所","exec":null,"diaper":null},{"country":"10016","city":"10016030","village":"後寮村","number":"X030000067","name":"後寮遊客服務中心殘障","address":"白沙鄉後寮村104-18號","administration":"交通部","latitude":"23.67068416","longitude":"119.5705819","grade":"特優級","type2":"","type":"無障礙廁所","exec":null,"diaper":null},{"country":"10016","city":"10016030","village":"後寮村","number":"X030000066","name":"後寮遊客服務中心男廁","address":"白沙鄉後寮村104-18號","administration":"交通部","latitude":"23.67069398","longitude":"119.5706034","grade":"特優級","type2":"","type":"男廁所","exec":null,"diaper":null},{"country":"10016","city":"10016030","village":"吉貝村","number":"X030000096","name":"吉貝海上樂園無障礙廁","address":"澎湖縣白沙鄉吉貝村","administration":"交通部","latitude":"23.73887982","longitude":"119.6080256","grade":"特優級","type2":"觀光地區及風景區","type":"無障礙廁所","exec":null,"diaper":null},{"country":"10016","city":"10016010","village":"虎井里","number":"X010000535","name":"虎井資訊站無障礙公廁","address":"澎湖縣馬公市虎井里","administration":"交通部","latitude":"23.48766632","longitude":"119.5175064","grade":"特優級","type2":"觀光地區及風景區","type":"無障礙廁所","exec":null,"diaper":null},{"country":"10016","city":"10016010","village":"虎井里","number":"X010000534","name":"虎井資訊站女廁","address":"澎湖縣馬公市虎井里","administration":"交通部","latitude":"23.48771552","longitude":"119.5175064","grade":"特優級","type2":"觀光地區及風景區","type":"女廁所","exec":null,"diaper":null},{"country":"10016","city":"10016010","village":"虎井里","number":"X010000533","name":"虎井資訊站男廁","address":"澎湖縣馬公市虎井里","administration":"交通部","latitude":"23.48758268","longitude":"119.5176029","grade":"特優級","type2":"觀光地區及風景區","type":"男廁所","exec":null,"diaper":null},{"country":"10016","city":"10016030","village":"瓦硐村","number":"X030000064","name":"瓦硐社區活動中心無障礙廁所","address":"澎湖縣白沙鄉瓦硐村四○之二號","administration":"其他","latitude":"23.6564096","longitude":"119.5883234","grade":"特優級","type2":"社福機構、集會場所","type":"無障礙廁所","exec":null,"diaper":null},{"country":"10016","city":"10016030","village":"瓦硐村","number":"X030000063","name":"瓦硐社區活動中心女廁","address":"澎湖縣白沙鄉瓦硐村四○之二號","administration":"其他","latitude":"23.65638257","longitude":"119.5880203","grade":"特優級","type2":"社福機構、集會場所","type":"女廁所","exec":null,"diaper":null},{"country":"10016","city":"10016030","village":"瓦硐村","number":"X030000062","name":"瓦硐社區活動中心男廁","address":"澎湖縣白沙鄉瓦硐村四○之二號","administration":"其他","latitude":"23.65444","longitude":"119.589751","grade":"特優級","type2":"社福機構、集會場所","type":"男廁所","exec":null,"diaper":null},{"country":"10016","city":"10016030","village":"赤崁村","number":"X030000061","name":"赤崁攤販集中場無障礙廁所","address":"澎湖縣白沙鄉赤崁村","administration":"其他","latitude":"23.66728425","longitude":"119.6019745","grade":"特優級","type2":"社福機構、集會場所","type":"無障礙廁所","exec":null,"diaper":null},{"country":"10016","city":"10016030","village":"赤崁村","number":"X030000060","name":"赤崁攤販集中場女廁","address":"澎湖縣白沙鄉赤崁村","administration":"其他","latitude":"23.66713685","longitude":"119.601481","grade":"特優級","type2":"社福機構、集會場所","type":"女廁所","exec":null,"diaper":null},{"country":"10016","city":"10016030","village":"赤崁村","number":"X030000059","name":"赤崁攤販集中場男廁","address":"澎湖縣白沙鄉赤崁村","administration":"其他","latitude":"23.711776","longitude":"119.609153","grade":"特優級","type2":"社福機構、集會場所","type":"男廁所","exec":null,"diaper":null},{"country":"10016","city":"10016060","village":"平和村","number":"X060000008","name":"七美機場候機室女廁","address":"七美鄉平和村55號","administration":"交通部","latitude":"23.21186683","longitude":"119.4177175","grade":"特優級","type2":"","type":"女廁所","exec":null,"diaper":null},{"country":"10016","city":"10016060","village":"平和村","number":"X060000007","name":"七美機場候機室男廁","address":"七美鄉平和村55號","administration":"交通部","latitude":"23.21188655","longitude":"119.4177389","grade":"特優級","type2":"","type":"男廁所","exec":null,"diaper":null},{"country":"10016","city":"10016050","village":"中社村","number":"X050000026","name":"望安機場候機室殘障","address":"望安鄉中社村","administration":"交通部","latitude":"23.36743191","longitude":"119.5019817","grade":"特優級","type2":"","type":"無障礙廁所","exec":null,"diaper":null},{"country":"10016","city":"10016020","village":"隘門村","number":"X020000083","name":"澎湖機場二樓內候機室北側無障礙廁","address":"湖西鄉隘門村126-5號","administration":"交通部","latitude":"23.55999438","longitude":"119.6303415","grade":"特優級","type2":"","type":"無障礙廁所","exec":null,"diaper":null},{"country":"10016","city":"10016020","village":"隘門村","number":"X020000082","name":"澎湖機場二樓內候機室北側女廁","address":"湖西鄉隘門村126-5號","administration":"交通部","latitude":"23.56013206","longitude":"119.6302128","grade":"特優級","type2":"","type":"女廁所","exec":null,"diaper":null},{"country":"10016","city":"10016020","village":"隘門村","number":"X020000081","name":"澎湖機場二樓內候機室北側男廁","address":"湖西鄉隘門村126-5號","administration":"交通部","latitude":"23.5601714","longitude":"119.6302557","grade":"特優級","type2":"","type":"男廁所","exec":null,"diaper":null},{"country":"10016","city":"10016020","village":"隘門村","number":"X020000078","name":"澎湖機場二樓內候機室南側女廁","address":"湖西鄉隘門村126-5號","administration":"交通部","latitude":"23.56013698","longitude":"119.6302342","grade":"特優級","type2":"","type":"女廁所","exec":null,"diaper":null},{"country":"10016","city":"10016020","village":"隘門村","number":"X020000077","name":"澎湖機場二樓內候機室南側男廁","address":"湖西鄉隘門村126-5號","administration":"交通部","latitude":"23.56034842","longitude":"119.6304703","grade":"特優級","type2":"","type":"男廁所","exec":null,"diaper":null},{"country":"10016","city":"10016020","village":"隘門村","number":"X020000076","name":"澎湖機場二樓外候機室北側無障礙廁","address":"湖西鄉隘門村126-5號","administration":"交通部","latitude":"23.56032875","longitude":"119.6304488","grade":"特優級","type2":"","type":"無障礙廁所","exec":null,"diaper":null},{"country":"10016","city":"10016020","village":"隘門村","number":"X020000072","name":"澎湖機場二樓外候機室南側女廁","address":"湖西鄉隘門村126-5號","administration":"交通部","latitude":"23.56046644","longitude":"119.6294564","grade":"特優級","type2":"","type":"女廁所","exec":null,"diaper":null},{"country":"10016","city":"10016020","village":"隘門村","number":"X020000071","name":"澎湖機場二樓外候機室南側男廁","address":"湖西鄉隘門村126-5號","administration":"交通部","latitude":"23.56049594","longitude":"119.6294081","grade":"特優級","type2":"","type":"男廁所","exec":null,"diaper":null},{"country":"10016","city":"10016020","village":"隘門村","number":"X020000070","name":"澎湖機場一樓國際線候機室無障礙廁","address":"湖西鄉隘門村126-5號","administration":"交通部","latitude":"23.56049102","longitude":"119.6293867","grade":"特優級","type2":"","type":"無障礙廁所","exec":null,"diaper":null},{"country":"10016","city":"10016020","village":"隘門村","number":"X020000069","name":"澎湖機場一樓國際線候機室女廁","address":"湖西鄉隘門村126-5號","administration":"交通部","latitude":"23.56055003","longitude":"119.6294028","grade":"特優級","type2":"","type":"女廁所","exec":null,"diaper":null},{"country":"10016","city":"10016010","village":"陽明里","number":"X010000361","name":"澎湖縣立文化中心男廁","address":"馬公市中華路230號","administration":"縣市政府","latitude":"23.57132324","longitude":"119.5775664","grade":"特優級","type2":"文化育樂活動場所","type":"男廁所","exec":null,"diaper":null},{"country":"10016","city":"10016010","village":"光復里","number":"X010000106","name":"南海遊客服務中心男廁3","address":"馬公市新營路25號","administration":"交通部","latitude":"23.56613097","longitude":"119.5718265","grade":"特優級","type2":"","type":"男廁所","exec":null,"diaper":null},{"country":"10016","city":"10016010","village":"光復里","number":"X010000105","name":"南海遊客服務中心男廁2","address":"馬公市新營路25號","administration":"交通部","latitude":"23.56635715","longitude":"119.5721161","grade":"特優級","type2":"","type":"男廁所","exec":null,"diaper":null},{"country":"10016","city":"10016010","village":"光復里","number":"X010000104","name":"南海遊客服務中心男廁1","address":"馬公市新營路25號","administration":"交通部","latitude":"23.5668046","longitude":"119.5725399","grade":"特優級","type2":"","type":"男廁所","exec":null,"diaper":null},{"country":"10016","city":"10016010","village":"中興里","number":"X010000095","name":"澎湖縣長青活動中心男廁","address":"澎湖縣馬公市介壽路7-1號","administration":"縣市政府","latitude":"23.567373","longitude":"119.561568","grade":"特優級","type2":"社福機構、集會場所","type":"男廁所","exec":null,"diaper":null},{"country":"10016","city":"10016010","village":"中興里","number":"X010000029","name":"觀音亭運動公園南女廁","address":"馬公市介壽路","administration":"縣市政府","latitude":"23.56898281","longitude":"119.5627928","grade":"特優級","type2":"公園","type":"女廁所","exec":null,"diaper":null},{"country":"10016","city":"10016010","village":"中興里","number":"X010000092","name":"救國團青年活動中心男廁","address":"馬公市介壽路11號","administration":"其他","latitude":"23.56855012","longitude":"119.5637155","grade":"特優級","type2":"社福機構、集會場所","type":"男廁所","exec":null,"diaper":null},{"country":"10016","city":"10016060","village":"南港村","number":"X060000012","name":"七美旅客服務中心無障礙廁","address":"澎湖縣七美鄉南港村南滬59號","administration":"交通部","latitude":"23.195778","longitude":"119.419248","grade":"特優級","type2":"觀光地區及風景區","type":"無障礙廁所","exec":null,"diaper":null},{"country":"10016","city":"10016010","village":"五德里","number":"X010000564","name":"五德自行園區無障礙廁","address":"澎湖縣馬公市五德里四一號之一一","administration":"交通部","latitude":"23.52674","longitude":"119.59178","grade":"特優級","type2":"觀光地區及風景區","type":"無障礙廁所","exec":null,"diaper":null},{"country":"10016","city":"10016010","village":"五德里","number":"X010000563","name":"五德自行園區女廁","address":"澎湖縣馬公市五德里四一號之一一","administration":"交通部","latitude":"23.52672","longitude":"119.59171","grade":"特優級","type2":"觀光地區及風景區","type":"女廁所","exec":null,"diaper":null},{"country":"10016","city":"10016010","village":"五德里","number":"X010000562","name":"五德自行園區男廁","address":"澎湖縣馬公市五德里四一號之一一","administration":"交通部","latitude":"23.526728","longitude":"119.591718","grade":"特優級","type2":"觀光地區及風景區","type":"男廁所","exec":null,"diaper":null},{"country":"10016","city":"10016010","village":"山水里","number":"X010000486","name":"山水30高地公廁無障礙廁","address":"澎湖縣馬公市山水里(30公園停車場)","administration":"縣市政府","latitude":"23.5125819","longitude":"119.5877069","grade":"優等級","type2":"觀光地區及風景區","type":"無障礙廁所","exec":null,"diaper":null},{"country":"10016","city":"10016010","village":"山水里","number":"X010000485","name":"山水30高地公廁女廁","address":"澎湖縣馬公市山水里(30公園停車場)","administration":"縣市政府","latitude":"23.513653","longitude":"119.595918","grade":"優等級","type2":"觀光地區及風景區","type":"女廁所","exec":null,"diaper":null},{"country":"10016","city":"10016010","village":"山水里","number":"X010000484","name":"山水30高地公廁男廁","address":"澎湖縣馬公市山水里(30公園停車場)","administration":"縣市政府","latitude":"23.513653","longitude":"119.595918","grade":"優等級","type2":"觀光地區及風景區","type":"男廁所","exec":null,"diaper":null},{"country":"10016","city":"10016020","village":"龍門村","number":"X020000128","name":"龍門閉鎖陣地無障礙廁","address":"澎湖縣湖西鄉龍門村漁港旁","administration":"縣市政府","latitude":"23.56539","longitude":"119.675994","grade":"特優級","type2":"觀光地區及風景區","type":"無障礙廁所","exec":null,"diaper":null},{"country":"10016","city":"10016020","village":"龍門村","number":"X020000127","name":"龍門閉鎖陣地女廁","address":"澎湖縣湖西鄉龍門村漁港旁","administration":"縣市政府","latitude":"23.56539","longitude":"119.675994","grade":"特優級","type2":"觀光地區及風景區","type":"女廁所","exec":null,"diaper":null},{"country":"10016","city":"10016020","village":"龍門村","number":"X020000126","name":"龍門閉鎖陣地男廁","address":"澎湖縣湖西鄉龍門漁港旁","administration":"縣市政府","latitude":"23.55574581","longitude":"119.6756709","grade":"特優級","type2":"觀光地區及風景區","type":"男廁所","exec":null,"diaper":null},{"country":"10016","city":"10016010","village":"中興里","number":"X010000091","name":"澎湖縣政府第3棟辦公大樓5樓女廁","address":"澎湖縣馬公市中興里治平路32號","administration":"縣市政府","latitude":"23.57040871","longitude":"119.5664728","grade":"特優級","type2":"","type":"女廁所","exec":null,"diaper":null},{"country":"10016","city":"10016010","village":"中興里","number":"X010000090","name":"澎湖縣政府第3棟辦公大樓5樓男廁","address":"澎湖縣馬公市中興里治平路32號","administration":"縣市政府","latitude":"23.57088072","longitude":"119.5664835","grade":"特優級","type2":"","type":"男廁所","exec":null,"diaper":null},{"country":"10016","city":"10016010","village":"中興里","number":"X010000089","name":"澎湖縣政府第3棟辦公大樓4樓女廁","address":"澎湖縣馬公市中興里治平路32號","administration":"縣市政府","latitude":"23.57040871","longitude":"119.5665264","grade":"特優級","type2":"","type":"女廁所","exec":null,"diaper":null},{"country":"10016","city":"10016030","village":"通梁村","number":"X030000083","name":"通樑汽車加油站無障礙廁所","address":"澎湖縣白沙鄉通梁村25-1號","administration":"其他","latitude":"23.65954569","longitude":"119.5627713","grade":"特優級","type2":"","type":"無障礙廁所","exec":null,"diaper":null},{"country":"10016","city":"10016030","village":"吉貝村","number":"X030000095","name":"吉貝海上樂園女廁","address":"澎湖縣白沙鄉吉貝村","administration":"交通部","latitude":"23.73346093","longitude":"119.6033156","grade":"優等級","type2":"觀光地區及風景區","type":"女廁所","exec":null,"diaper":null},{"country":"10016","city":"10016030","village":"吉貝村","number":"X030000094","name":"吉貝社區女廁","address":"澎湖縣白沙鄉吉貝村","administration":"交通部","latitude":"23.74145659","longitude":"119.6127945","grade":"特優級","type2":"觀光地區及風景區","type":"女廁所","exec":null,"diaper":null},{"country":"10016","city":"10016030","village":"吉貝村","number":"X030000093","name":"吉貝社區男廁","address":"澎湖縣白沙鄉吉貝村","administration":"交通部","latitude":"23.74144432","longitude":"119.6127972","grade":"特優級","type2":"觀光地區及風景區","type":"男廁所","exec":null,"diaper":null},{"country":"10016","city":"10016030","village":"岐頭村","number":"X030000038","name":"岐頭遊客中心殘廁","address":"澎湖縣白沙鄉岐頭村","administration":"交通部","latitude":"23.65165925","longitude":"119.6099997","grade":"特優級","type2":"","type":"無障礙廁所","exec":null,"diaper":null},{"country":"10016","city":"10016030","village":"岐頭村","number":"X030000037","name":"岐頭遊客中心女廁","address":"澎湖縣白沙鄉岐頭村16-5號","administration":"交通部","latitude":"23.649513","longitude":"119.609282","grade":"特優級","type2":"","type":"女廁所","exec":null,"diaper":null},{"country":"10016","city":"10016030","village":"岐頭村","number":"X030000036","name":"岐頭遊客中心男廁","address":"澎湖縣白沙鄉岐頭村","administration":"交通部","latitude":"23.65195408","longitude":"119.6093559","grade":"特優級","type2":"","type":"男廁所","exec":null,"diaper":null},{"country":"10016","city":"10016040","village":"小門村","number":"X040000015","name":"西嶼福利館親子廁所","address":"澎湖縣西嶼鄉小門村11-9號2樓","administration":"縣市政府","latitude":"23.65407928","longitude":"119.5166266","grade":"特優級","type2":"文化育樂活動場所","type":"親子廁所","exec":null,"diaper":null},{"country":"10016","city":"10016040","village":"小門村","number":"X040000014","name":"西嶼福利館女廁","address":"澎湖縣西嶼鄉小門村11-9號2樓","administration":"縣市政府","latitude":"23.65410877","longitude":"119.5166159","grade":"特優級","type2":"文化育樂活動場所","type":"女廁所","exec":null,"diaper":null},{"country":"10016","city":"10016040","village":"小門村","number":"X040000013","name":"西嶼福利館男廁","address":"澎湖縣西嶼鄉小門村11-9號2樓","administration":"縣市政府","latitude":"23.65408911","longitude":"119.5166266","grade":"特優級","type2":"文化育樂活動場所","type":"男廁所","exec":null,"diaper":null},{"country":"10016","city":"10016010","village":"光華里","number":"X010000415","name":"澎湖休憩園區女廁2(林務所旁)","address":"澎湖縣馬公市光華里","administration":"縣市政府","latitude":"23.5577521","longitude":"119.6044207","grade":"特優級","type2":"公園","type":"女廁所","exec":null,"diaper":null},{"country":"10016","city":"10016010","village":"光華里","number":"X010000414","name":"澎湖休憩園區男廁2(林務所旁)","address":"澎湖縣馬公市光華里","administration":"縣市政府","latitude":"23.55802747","longitude":"119.6045494","grade":"特優級","type2":"公園","type":"男廁所","exec":null,"diaper":null},{"country":"10016","city":"10016010","village":"光華里","number":"X010000413","name":"澎湖休憩園區殘廁1(水土教室旁)","address":"澎湖縣馬公市光華里","administration":"縣市政府","latitude":"23.55842085","longitude":"119.6060085","grade":"特優級","type2":"公園","type":"無障礙廁所","exec":null,"diaper":null},{"country":"10016","city":"10016010","village":"光華里","number":"X010000412","name":"澎湖休憩園區女廁1(水土教室旁)","address":"澎湖縣馬公市光華里","administration":"縣市政府","latitude":"23.55842085","longitude":"119.6062231","grade":"特優級","type2":"公園","type":"女廁所","exec":null,"diaper":null},{"country":"10016","city":"10016010","village":"光華里","number":"X010000411","name":"澎湖休憩園區男廁1(水土教室旁)","address":"澎湖縣馬公市光華里","administration":"縣市政府","latitude":"23.55749","longitude":"119.600633","grade":"特優級","type2":"公園","type":"男廁所","exec":null,"diaper":null},{"country":"10016","city":"10016040","village":"大池村","number":"X040000021","name":"大池治安宮公廁","address":"澎湖縣西嶼鄉大池村","administration":"其他","latitude":"23.616164","longitude":"119.506815","grade":"特優級","type2":"宗教禮儀場所","type":"混合廁所","exec":null,"diaper":null},{"country":"10016","city":"10016010","village":"菜園里","number":"X010000473","name":"菜園候船室女廁","address":"澎湖縣馬公市菜園里","administration":"交通部","latitude":"23.54926204","longitude":"119.595446","grade":"特優級","type2":"","type":"女廁所","exec":null,"diaper":null},{"country":"10016","city":"10016010","village":"菜園里","number":"X010000472","name":"菜園候船室男廁","address":"澎湖縣馬公市菜園里","administration":"交通部","latitude":"23.54925221","longitude":"119.5954406","grade":"特優級","type2":"","type":"男廁所","exec":null,"diaper":null},{"country":"10016","city":"10016010","village":"菜園里","number":"X010000471","name":"菜園里無障礙廁所","address":"澎湖縣馬公市菜園里","administration":"交通部","latitude":"23.555789","longitude":"119.596729","grade":"特優級","type2":"觀光地區及風景區","type":"無障礙廁所","exec":null,"diaper":null},{"country":"10016","city":"10016010","village":"菜園里","number":"X010000470","name":"菜園里女廁","address":"澎湖縣馬公市菜園里","administration":"交通部","latitude":"23.555789","longitude":"119.596729","grade":"特優級","type2":"觀光地區及風景區","type":"女廁所","exec":null,"diaper":null},{"country":"10016","city":"10016010","village":"菜園里","number":"X010000469","name":"菜園里男廁","address":"澎湖縣馬公市菜園里","administration":"交通部","latitude":"23.555789","longitude":"119.596729","grade":"特優級","type2":"觀光地區及風景區","type":"男廁所","exec":null,"diaper":null},{"country":"10016","city":"10016050","village":"東安村","number":"X050000011","name":"網垵口男廁","address":"澎湖縣望安鄉東安村","administration":"交通部","latitude":"23.35640073","longitude":"119.5030385","grade":"特優級","type2":"觀光地區及風景區","type":"男廁所","exec":null,"diaper":null},{"country":"10016","city":"10016020","village":"潭邊村","number":"X020000042","name":"潭邊社區公廁","address":"澎湖縣湖西鄉潭邊村47-1號","administration":"縣市政府","latitude":"23.59482971","longitude":"119.607937","grade":"特優級","type2":"社福機構、集會場所","type":"混合廁所","exec":null,"diaper":null},{"country":"10016","city":"10016030","village":"小赤村","number":"X030000040","name":"小赤社區活動中心無障礙廁所","address":"澎湖縣白沙鄉小赤村11-8號","administration":"縣市政府","latitude":"23.65977416","longitude":"119.5975596","grade":"優等級","type2":"社福機構、集會場所","type":"無障礙廁所","exec":null,"diaper":null},{"country":"10016","city":"10016030","village":"小赤村","number":"X030000039","name":"小赤社區活動中心廁所","address":"澎湖縣白沙鄉小赤村11-8號","administration":"縣市政府","latitude":"23.6597152","longitude":"119.5975488","grade":"優等級","type2":"社福機構、集會場所","type":"混合廁所","exec":null,"diaper":null},{"country":"10016","city":"10016010","village":"中興里","number":"X010000032","name":"觀音亭運動公園北殘廁","address":"澎湖縣馬公市中興里觀音亭園區","administration":"縣市政府","latitude":"23.56848128","longitude":"119.5630181","grade":"特優級","type2":"公園","type":"無障礙廁所","exec":null,"diaper":null},{"country":"10016","city":"10016010","village":"中興里","number":"X010000031","name":"觀音亭運動公園北女廁","address":"澎湖縣馬公市中興里觀音槀園區","administration":"縣市政府","latitude":"23.56833869","longitude":"119.5629484","grade":"特優級","type2":"公園","type":"女廁所","exec":null,"diaper":null},{"country":"10016","city":"10016010","village":"中興里","number":"X010000030","name":"觀音亭運動公園北男廁","address":"澎湖縣馬公市中興里觀音亭園區","administration":"縣市政府","latitude":"23.56841245","longitude":"119.562943","grade":"優等級","type2":"公園","type":"男廁所","exec":null,"diaper":null},{"country":"10016","city":"10016040","village":"外垵村","number":"X040000074","name":"西嶼西臺遊客中心殘廁","address":"","administration":"交通部","latitude":"23.56520656","longitude":"119.4880343","grade":"特優級","type2":"觀光地區及風景區","type":"無障礙廁所","exec":null,"diaper":null},{"country":"10016","city":"10016040","village":"外垵村","number":"X040000073","name":"西嶼西臺遊客中心女廁","address":"","administration":"交通部","latitude":"23.56520656","longitude":"119.4881201","grade":"特優級","type2":"觀光地區及風景區","type":"女廁所","exec":null,"diaper":null},{"country":"10016","city":"10016040","village":"外垵村","number":"X040000072","name":"西嶼西臺遊客中心男廁","address":"","administration":"交通部","latitude":"23.56503938","longitude":"119.4883883","grade":"特優級","type2":"觀光地區及風景區","type":"男廁所","exec":null,"diaper":null},{"country":"10016","city":"10016010","village":"鎖港里","number":"X010000497","name":"澎南圖書分館殘廁","address":"澎湖縣馬公市鎖港里309號","administration":"縣市政府","latitude":"23.52852021","longitude":"119.6026826","grade":"特優級","type2":"文化育樂活動場所","type":"無障礙廁所","exec":null,"diaper":null},{"country":"10016","city":"10016010","village":"鎖港里","number":"X010000496","name":"澎南圖書分館女廁","address":"澎湖縣馬公市鎖港里309號","administration":"縣市政府","latitude":"23.52846119","longitude":"119.6027684","grade":"特優級","type2":"文化育樂活動場所","type":"女廁所","exec":null,"diaper":null},{"country":"10016","city":"10016010","village":"鎖港里","number":"X010000495","name":"澎南圖書分館男廁","address":"澎湖縣馬公市鎖港里309號","administration":"縣市政府","latitude":"23.52844151","longitude":"119.6026826","grade":"特優級","type2":"文化育樂活動場所","type":"男廁所","exec":null,"diaper":null},{"country":"10016","city":"10016020","village":"湖西村","number":"X020000029","name":"湖西鄉立圖書館女廁","address":"澎湖縣湖西鄉湖西村43-5號","administration":"縣市政府","latitude":"23.58356065","longitude":"119.6521908","grade":"特優級","type2":"文化育樂活動場所","type":"女廁所","exec":null,"diaper":null},{"country":"10016","city":"10016020","village":"湖西村","number":"X020000028","name":"湖西鄉立圖書館男廁","address":"澎湖縣湖西鄉湖西村","administration":"縣市政府","latitude":"23.58359998","longitude":"119.6521747","grade":"特優級","type2":"文化育樂活動場所","type":"男廁所","exec":null,"diaper":null},{"country":"10016","city":"10016020","village":"菓葉村","number":"X020000133","name":"觀日樓公廁女廁","address":"澎湖縣湖西鄉菓葉村","administration":"交通部","latitude":"23.58035022","longitude":"119.6800804","grade":"特優級","type2":"觀光地區及風景區","type":"女廁所","exec":null,"diaper":null},{"country":"10016","city":"10016020","village":"菓葉村","number":"X020000132","name":"觀日樓公廁男廁","address":"","administration":"交通部","latitude":"23.5799569","longitude":"119.6804237","grade":"特優級","type2":"觀光地區及風景區","type":"男廁所","exec":null,"diaper":null},{"country":"10016","city":"10016010","village":"西文里","number":"X010000410","name":"澎湖海洋地質公園中心女廁","address":"澎湖縣馬公市西文里新明路七一號","administration":"縣市政府","latitude":"23.566455","longitude":"119.579037","grade":"特優級","type2":"文化育樂活動場所","type":"女廁所","exec":null,"diaper":null},{"country":"10016","city":"10016010","village":"西文里","number":"X010000409","name":"澎湖海洋地質公園中心男廁","address":"澎湖縣馬公市西文里新明路七一號","administration":"縣市政府","latitude":"23.566455","longitude":"119.579037","grade":"特優級","type2":"文化育樂活動場所","type":"男廁所","exec":null,"diaper":null},{"country":"10016","city":"10016020","village":"林投村","number":"X020000112","name":"林投公園男廁(南側)","address":"湖西鄉林投公園1-1號","administration":"交通部","latitude":"23.56199077","longitude":"119.6481407","grade":"特優級","type2":"公園","type":"男廁所","exec":null,"diaper":null},{"country":"10016","city":"10016020","village":"隘門村","number":"X020000059","name":"隘門沙灘殘障","address":"湖西鄉隘門村79-1號","administration":"交通部","latitude":"23.55480658","longitude":"119.6383157","grade":"特優級","type2":"觀光地區及風景區","type":"無障礙廁所","exec":null,"diaper":null},{"country":"10016","city":"10016020","village":"隘門村","number":"X020000058","name":"隘門沙灘女廁","address":"湖西鄉隘門村79-1號","administration":"交通部","latitude":"23.55483117","longitude":"119.6384203","grade":"特優級","type2":"觀光地區及風景區","type":"女廁所","exec":null,"diaper":null},{"country":"10016","city":"10016010","village":"嵵裡里","number":"X010000524","name":"蒔裡社區公廁女廁","address":"馬公市蒔裡里","administration":"其他","latitude":"23.52495922","longitude":"119.5703888","grade":"特優級","type2":"宗教禮儀場所","type":"女廁所","exec":null,"diaper":null},{"country":"10016","city":"10016010","village":"嵵裡里","number":"X010000523","name":"蒔裡社區公廁男廁","address":"馬公市蒔裡里","administration":"其他","latitude":"23.52503791","longitude":"119.5700455","grade":"特優級","type2":"宗教禮儀場所","type":"男廁所","exec":null,"diaper":null},{"country":"10016","city":"10016010","village":"光華里","number":"X010000465","name":"澎湖遊客服務中心殘障廁所","address":"澎湖縣馬公市光華里171號","administration":"交通部","latitude":"23.556592","longitude":"119.606601","grade":"特優級","type2":"觀光地區及風景區","type":"無障礙廁所","exec":null,"diaper":null},{"country":"10016","city":"10016010","village":"光華里","number":"X010000464","name":"澎湖遊客服務中心男廁","address":"澎湖縣馬公市光華里171號","administration":"交通部","latitude":"23.556592","longitude":"119.606601","grade":"特優級","type2":"觀光地區及風景區","type":"男廁所","exec":null,"diaper":null},{"country":"10016","city":"10016010","village":"光華里","number":"X010000463","name":"澎湖遊客服務中心女廁","address":"澎湖縣馬公市光華里171號","administration":"交通部","latitude":"23.556592","longitude":"119.606601","grade":"特優級","type2":"觀光地區及風景區","type":"女廁所","exec":null,"diaper":null},{"country":"10016","city":"10016020","village":"龍門村","number":"X020000124","name":"龍門後灣濱海公園女廁","address":"湖西鄉龍門村","administration":"交通部","latitude":"23.5652459","longitude":"119.682371","grade":"特優級","type2":"觀光地區及風景區","type":"女廁所","exec":null,"diaper":null},{"country":"10016","city":"10016020","village":"龍門村","number":"X020000123","name":"龍門後灣濱海公園男廁","address":"湖西鄉龍門村","administration":"交通部","latitude":"23.56541308","longitude":"119.6825373","grade":"特優級","type2":"觀光地區及風景區","type":"男廁所","exec":null,"diaper":null},{"country":"10016","city":"10016010","village":"陽明里","number":"X010000357","name":"澎湖縣圖書館一樓殘障廁","address":"澎湖縣馬公市陽明里中華路236-1號","administration":"縣市政府","latitude":"23.57028087","longitude":"119.5779848","grade":"特優級","type2":"文化育樂活動場所","type":"無障礙廁所","exec":null,"diaper":null},{"country":"10016","city":"10016010","village":"陽明里","number":"X010000356","name":"澎湖縣圖書館一樓女廁","address":"澎湖縣馬公市陽明里中華路236-1號","administration":"縣市政府","latitude":"23.5703202","longitude":"119.5779634","grade":"特優級","type2":"文化育樂活動場所","type":"女廁所","exec":null,"diaper":null},{"country":"10016","city":"10016010","village":"陽明里","number":"X010000355","name":"澎湖縣圖書館一樓男廁","address":"澎湖縣馬公市陽明里中華路236-1號","administration":"縣市政府","latitude":"23.5702022","longitude":"119.5780009","grade":"特優級","type2":"文化育樂活動場所","type":"男廁所","exec":null,"diaper":null},{"country":"10016","city":"10016010","village":"陽明里","number":"X010000354","name":"演藝廳三樓女廁","address":"澎湖縣馬公市陽明里中華路230號","administration":"縣市政府","latitude":"23.57157891","longitude":"119.5781457","grade":"特優級","type2":"文化育樂活動場所","type":"女廁所","exec":null,"diaper":null},{"country":"10016","city":"10016010","village":"陽明里","number":"X010000353","name":"演藝廳三樓男廁","address":"澎湖縣馬公市陽明里中華路230號","administration":"縣市政府","latitude":"23.57140191","longitude":"119.5781136","grade":"特優級","type2":"文化育樂活動場所","type":"男廁所","exec":null,"diaper":null},{"country":"10016","city":"10016010","village":"陽明里","number":"X010000352","name":"演藝廳二樓女廁","address":"澎湖縣馬公市陽明里中華路230號","administration":"縣市政府","latitude":"23.57153958","longitude":"119.5780921","grade":"特優級","type2":"文化育樂活動場所","type":"女廁所","exec":null,"diaper":null},{"country":"10016","city":"10016010","village":"陽明里","number":"X010000351","name":"演藝廳二樓男廁","address":"澎湖縣馬公市陽明里中華路230號","administration":"縣市政府","latitude":"23.57149041","longitude":"119.5782316","grade":"特優級","type2":"文化育樂活動場所","type":"男廁所","exec":null,"diaper":null},{"country":"10016","city":"10016010","village":"陽明里","number":"X010000350","name":"演藝廳一樓女廁","address":"澎湖縣馬公市陽明里中華路230號","administration":"縣市政府","latitude":"23.57154941","longitude":"119.578253","grade":"特優級","type2":"文化育樂活動場所","type":"女廁所","exec":null,"diaper":null},{"country":"10016","city":"10016010","village":"陽明里","number":"X010000349","name":"演藝廳一樓男廁","address":"澎湖縣馬公市陽明里中華路230號","administration":"縣市政府","latitude":"23.57148058","longitude":"119.5781887","grade":"特優級","type2":"文化育樂活動場所","type":"男廁所","exec":null,"diaper":null},{"country":"10016","city":"10016010","village":"陽明里","number":"X010000108","name":"南海碼頭候船室女廁","address":"澎湖縣馬公市新營路100號","administration":"縣市政府","latitude":"23.567122","longitude":"119.573642","grade":"特優級","type2":"","type":"女廁所","exec":null,"diaper":null},{"country":"10016","city":"10016010","village":"陽明里","number":"X010000107","name":"南海碼頭候船室男廁","address":"澎湖縣馬公市新營路100號","administration":"縣市政府","latitude":"23.567122","longitude":"119.573642","grade":"特優級","type2":"","type":"男廁所","exec":null,"diaper":null},{"country":"10016","city":"10016050","village":"東安村","number":"X050000014","name":"台灣中油望安加油站男廁","address":"澎湖縣望安鄉東安村2-14號","administration":"經濟部","latitude":"23.36368929","longitude":"119.5076037","grade":"特優級","type2":"","type":"男廁所","exec":null,"diaper":null},{"country":"10016","city":"10016060","village":"中和村","number":"X060000032","name":"七美鄉立圖書館無障礙廁","address":"澎湖縣七美鄉中和村4鄰3-1號","administration":"縣市政府","latitude":"23.20648296","longitude":"119.4310427","grade":"特優級","type2":"文化育樂活動場所","type":"無障礙廁所","exec":null,"diaper":null},{"country":"10016","city":"10016060","village":"中和村","number":"X060000031","name":"七美鄉立圖書館男廁","address":"澎湖縣七美鄉中和村","administration":"縣市政府","latitude":"23.20664073","longitude":"119.4310856","grade":"特優級","type2":"文化育樂活動場所","type":"男廁所","exec":null,"diaper":null},{"country":"10016","city":"10016060","village":"中和村","number":"X060000030","name":"七美鄉立圖書館女廁","address":"澎湖縣七美鄉中和村","administration":"縣市政府","latitude":"23.20616741","longitude":"119.4313431","grade":"特優級","type2":"文化育樂活動場所","type":"女廁所","exec":null,"diaper":null},{"country":"10016","city":"10016020","village":"龍門村","number":"X020000125","name":"龍門後灣濱海公園殘障廁","address":"湖西鄉龍門村","administration":"交通部","latitude":"23.56502955","longitude":"119.6822691","grade":"特優級","type2":"觀光地區及風景區","type":"無障礙廁所","exec":null,"diaper":null},{"country":"10016","city":"10016010","village":"西文里","number":"X010000397","name":"生活博物館一樓女廁","address":"澎湖縣馬公市西文里新生路327號","administration":"縣市政府","latitude":"23.5670947","longitude":"119.5794654","grade":"特優級","type2":"文化育樂活動場所","type":"女廁所","exec":null,"diaper":null},{"country":"10016","city":"10016010","village":"西文里","number":"X010000396","name":"生活博物館一樓男廁","address":"澎湖縣馬公市西文里新生路327號","administration":"縣市政府","latitude":"23.5671537","longitude":"119.5795512","grade":"特優級","type2":"文化育樂活動場所","type":"男廁所","exec":null,"diaper":null},{"country":"10016","city":"10016010","village":"西文里","number":"X010000395","name":"生活博物館B1女廁","address":"澎湖縣馬公市西文里新生路327號","administration":"縣市政府","latitude":"23.56707503","longitude":"119.5795083","grade":"特優級","type2":"文化育樂活動場所","type":"女廁所","exec":null,"diaper":null},{"country":"10016","city":"10016010","village":"西文里","number":"X010000394","name":"生活博物館B1男廁","address":"澎湖縣馬公市西文里新生路327號","administration":"縣市政府","latitude":"23.56710453","longitude":"119.5794118","grade":"特優級","type2":"文化育樂活動場所","type":"男廁所","exec":null,"diaper":null},{"country":"10016","city":"10016060","village":"南港村","number":"X060000015","name":"七美人塚無障礙廁","address":"澎湖縣七美鄉南港村","administration":"交通部","latitude":"23.19228269","longitude":"119.4269657","grade":"特優級","type2":"觀光地區及風景區","type":"無障礙廁所","exec":null,"diaper":null},{"country":"10016","city":"10016010","village":"菜園里","number":"X010000474","name":"菜園候船室無障礙公廁","address":"澎湖縣馬公市菜園里","administration":"交通部","latitude":"23.55174543","longitude":"119.598788","grade":"特優級","type2":"","type":"無障礙廁所","exec":null,"diaper":null},{"country":"10016","city":"10016010","village":"中興里","number":"X010000088","name":"澎湖縣政府第3棟辦公大樓4樓男廁","address":"澎湖縣馬公市中興里治平路32號","administration":"縣市政府","latitude":"23.57035954","longitude":"119.5665264","grade":"特優級","type2":"","type":"男廁所","exec":null,"diaper":null},{"country":"10016","city":"10016010","village":"中興里","number":"X010000087","name":"澎湖縣政府第3棟辦公大樓3樓女廁","address":"澎湖縣馬公市中興里治平路32號","administration":"縣市政府","latitude":"23.57043821","longitude":"119.5665264","grade":"特優級","type2":"","type":"女廁所","exec":null,"diaper":null},{"country":"10016","city":"10016010","village":"中興里","number":"X010000086","name":"澎湖縣政府第3棟辦公大樓3樓男廁","address":"澎湖縣馬公市中興里治平路32號","administration":"縣市政府","latitude":"23.57039887","longitude":"119.5664406","grade":"特優級","type2":"","type":"男廁所","exec":null,"diaper":null},{"country":"10016","city":"10016010","village":"中興里","number":"X010000085","name":"澎湖縣政府第3棟辦公大樓2樓女廁","address":"澎湖縣馬公市中興里治平路32號","administration":"縣市政府","latitude":"23.57035954","longitude":"119.5664513","grade":"特優級","type2":"","type":"女廁所","exec":null,"diaper":null},{"country":"10016","city":"10016010","village":"中興里","number":"X010000084","name":"澎湖縣政府第3棟辦公大樓2樓男廁","address":"澎湖縣馬公市中興里治平路32號","administration":"縣市政府","latitude":"23.57033987","longitude":"119.5664942","grade":"特優級","type2":"","type":"男廁所","exec":null,"diaper":null},{"country":"10016","city":"10016010","village":"嵵裡里","number":"X010000526","name":"嵵裡海水域場女廁","address":"澎湖縣馬公市嵵裡里160號","administration":"縣市政府","latitude":"23.52547566","longitude":"119.5682135","grade":"優等級","type2":"民眾洽公場所","type":"女廁所","exec":null,"diaper":null},{"country":"10016","city":"10016010","village":"嵵裡里","number":"X010000525","name":"嵵裡海水域場男廁","address":"澎湖縣馬公市嵵裡里160號","administration":"縣市政府","latitude":"23.52544369","longitude":"119.5682886","grade":"優等級","type2":"民眾洽公場所","type":"男廁所","exec":null,"diaper":null},{"country":"10016","city":"10016010","village":"中興里","number":"X010000083","name":"澎湖縣政府第3棟辦公大樓1樓女廁","address":"澎湖縣馬公市中興里治平路32號","administration":"縣市政府","latitude":"23.57036937","longitude":"119.5665479","grade":"特優級","type2":"","type":"女廁所","exec":null,"diaper":null},{"country":"10016","city":"10016010","village":"中興里","number":"X010000082","name":"澎湖縣政府第3棟辦公大樓1樓男廁","address":"澎湖縣馬公市中興里治平路","administration":"縣市政府","latitude":"23.5703202","longitude":"119.5665157","grade":"特優級","type2":"","type":"男廁所","exec":null,"diaper":null},{"country":"10016","city":"10016040","village":"赤馬村","number":"X040000056","name":"西嶼鄉立圖書館無障礙廁所","address":"澎湖縣西嶼鄉赤馬村","administration":"縣市政府","latitude":"23.58438168","longitude":"119.5067453","grade":"特優級","type2":"文化育樂活動場所","type":"無障礙廁所","exec":null,"diaper":null},{"country":"10016","city":"10016040","village":"赤馬村","number":"X040000055","name":"西嶼鄉立圖書館女廁","address":"澎湖縣西嶼鄉赤馬村","administration":"縣市政府","latitude":"23.58443085","longitude":"119.5067561","grade":"特優級","type2":"文化育樂活動場所","type":"女廁所","exec":null,"diaper":null},{"country":"10016","city":"10016040","village":"赤馬村","number":"X040000054","name":"西嶼鄉立圖書館男廁","address":"","administration":"縣市政府","latitude":"23.58399821","longitude":"119.5050824","grade":"特優級","type2":"文化育樂活動場所","type":"男廁所","exec":null,"diaper":null},{"country":"10016","city":"10016040","village":"內垵村","number":"X040000062","name":"東昌營區無障礙廁所","address":"澎湖縣西嶼鄉內垵村","administration":"交通部","latitude":"23.56862879","longitude":"119.506681","grade":"特優級","type2":"觀光地區及風景區","type":"無障礙廁所","exec":null,"diaper":null},{"country":"10016","city":"10016020","village":"湖西村","number":"X020000027","name":"湖西鄉公所殘廁","address":"澎湖縣湖西鄉湖西村43-11號","administration":"縣市政府","latitude":"23.58416045","longitude":"119.6525073","grade":"特優級","type2":"","type":"無障礙廁所","exec":null,"diaper":null},{"country":"10016","city":"10016020","village":"湖西村","number":"X020000026","name":"湖西鄉公所女廁","address":"澎湖縣湖西鄉湖西村43-11號","administration":"縣市政府","latitude":"23.58420961","longitude":"119.6524537","grade":"特優級","type2":"","type":"女廁所","exec":null,"diaper":null},{"country":"10016","city":"10016020","village":"湖西村","number":"X020000025","name":"湖西鄉公所男廁","address":"澎湖縣湖西鄉湖西村43-11號","administration":"縣市政府","latitude":"23.58420469","longitude":"119.6524483","grade":"特優級","type2":"","type":"男廁所","exec":null,"diaper":null},{"country":"10016","city":"10016030","village":"後寮村","number":"X030000074","name":"後寮社區公廁男廁","address":"白沙鄉後寮村45號","administration":"縣市政府","latitude":"23.66706807","longitude":"119.5750344","grade":"優等級","type2":"宗教禮儀場所","type":"男廁所","exec":null,"diaper":null},{"country":"10016","city":"10016030","village":"港子村","number":"X030000022","name":"港子社區活動中心女廁","address":"白沙鄉港子村54號","administration":"縣市政府","latitude":"23.64900576","longitude":"119.5996141","grade":"特優級","type2":"宗教禮儀場所","type":"女廁所","exec":null,"diaper":null},{"country":"10016","city":"10016020","village":"隘門村","number":"X020000057","name":"隘門沙灘男廁","address":"湖西鄉隘門村79-1號","administration":"交通部","latitude":"23.55482133","longitude":"119.6383023","grade":"特優級","type2":"觀光地區及風景區","type":"男廁所","exec":null,"diaper":null},{"country":"10016","city":"10016010","village":"重慶里","number":"X010000022","name":"台灣中油馬公加油站男廁","address":"澎湖縣馬公市民福路18號","administration":"經濟部","latitude":"23.564964","longitude":"119.568673","grade":"特優級","type2":"","type":"男廁所","exec":null,"diaper":null},{"country":"10016","city":"10016060","village":"南港村","number":"X060000014","name":"七美人塚女廁","address":"七美鄉南港村1-4號","administration":"交通部","latitude":"23.19239117","longitude":"119.4272018","grade":"特優級","type2":"觀光地區及風景區","type":"女廁所","exec":null,"diaper":null},{"country":"10016","city":"10016060","village":"南港村","number":"X060000013","name":"七美人塚男廁","address":"七美鄉南港村1-4號","administration":"交通部","latitude":"23.19250951","longitude":"119.4269443","grade":"特優級","type2":"觀光地區及風景區","type":"男廁所","exec":null,"diaper":null},{"country":"10016","city":"10016050","village":"東安村","number":"X050000018","name":"潭門港旅客服務中心殘障","address":"望安鄉東安村1號","administration":"交通部","latitude":"23.36215281","longitude":"119.5074964","grade":"特優級","type2":"","type":"無障礙廁所","exec":null,"diaper":null},{"country":"10016","city":"10016050","village":"東安村","number":"X050000017","name":"潭門港旅客服務中心女廁","address":"望安鄉東安村1號","administration":"交通部","latitude":"23.36210357","longitude":"119.5074534","grade":"優等級","type2":"","type":"女廁所","exec":null,"diaper":null},{"country":"10016","city":"10016050","village":"東安村","number":"X050000016","name":"潭門港旅客服務中心男廁","address":"望安鄉東安村1號","administration":"交通部","latitude":"23.36217251","longitude":"119.5075178","grade":"特優級","type2":"","type":"男廁所","exec":null,"diaper":null},{"country":"10016","city":"10016010","village":"長安里","number":"X010000013","name":"澎湖公車總站 女廁","address":"馬公市民族路16-1號","administration":"縣市政府","latitude":"23.56687835","longitude":"119.5644236","grade":"特優級","type2":"","type":"女廁所","exec":null,"diaper":null},{"country":"10016","city":"10016020","village":"隘門村","number":"X020000061","name":"澎湖機場地下室女廁","address":"湖西鄉隘門村126-5號","administration":"交通部","latitude":"23.56097783","longitude":"119.6296978","grade":"特優級","type2":"","type":"女廁所","exec":null,"diaper":null},{"country":"10016","city":"10016020","village":"隘門村","number":"X020000060","name":"澎湖機場地下室男廁","address":"湖西鄉隘門村126-5號","administration":"交通部","latitude":"23.56103683","longitude":"119.6298266","grade":"特優級","type2":"","type":"男廁所","exec":null,"diaper":null},{"country":"10016","city":"10016010","village":"陽明里","number":"X010000306","name":"北辰公有零售市場後性別友善公廁","address":"馬公市北辰街20號","administration":"縣市政府","latitude":"23.57085122","longitude":"119.5708984","grade":"特優級","type2":"","type":"性別友善廁所","exec":null,"diaper":null},{"country":"10016","city":"10016010","village":"陽明里","number":"X010000305","name":"北辰公有零售市場後無障礙公廁","address":"馬公市北辰街20號","administration":"縣市政府","latitude":"23.57083156","longitude":"119.5708716","grade":"特優級","type2":"","type":"無障礙廁所","exec":null,"diaper":null},{"country":"10016","city":"10016010","village":"前寮里","number":"X010000438","name":"三總二樓復健區前無障礙廁所","address":"澎湖縣馬公市前寮里90號","administration":"國防部","latitude":"23.55462463","longitude":"119.5838642","grade":"特優級","type2":"","type":"無障礙廁所","exec":null,"diaper":null},{"country":"10016","city":"10016010","village":"前寮里","number":"X010000437","name":"三總二樓復健區前公廁","address":"澎湖縣馬公市前寮里90號","administration":"國防部","latitude":"23.55486067","longitude":"119.5842075","grade":"特優級","type2":"","type":"混合廁所","exec":null,"diaper":null},{"country":"10016","city":"10016010","village":"前寮里","number":"X010000436","name":"三總二樓體檢區前女廁","address":"澎湖縣馬公市前寮里90號","administration":"國防部","latitude":"23.55446727","longitude":"119.5842075","grade":"特優級","type2":"","type":"女廁所","exec":null,"diaper":null},{"country":"10016","city":"10016010","village":"前寮里","number":"X010000435","name":"三總二樓體檢區前男廁","address":"澎湖縣馬公市前寮里90號","administration":"國防部","latitude":"23.55462463","longitude":"119.583993","grade":"特優級","type2":"","type":"男廁所","exec":null,"diaper":null},{"country":"10016","city":"10016010","village":"前寮里","number":"X010000434","name":"三總二樓檢驗科前女廁","address":"澎湖縣馬公市前寮里90號","administration":"國防部","latitude":"23.55466397","longitude":"119.5840788","grade":"特優級","type2":"","type":"女廁所","exec":null,"diaper":null},{"country":"10016","city":"10016010","village":"前寮里","number":"X010000433","name":"三總二樓檢驗科前男廁","address":"澎湖縣馬公市前寮里90號","administration":"國防部","latitude":"23.55448694","longitude":"119.5838642","grade":"特優級","type2":"","type":"男廁所","exec":null,"diaper":null},{"country":"10016","city":"10016010","village":"前寮里","number":"X010000432","name":"三總二樓門診區無障礙廁所","address":"澎湖縣馬公市前寮里90號","administration":"國防部","latitude":"23.55458529","longitude":"119.58395","grade":"特優級","type2":"","type":"無障礙廁所","exec":null,"diaper":null},{"country":"10016","city":"10016010","village":"前寮里","number":"X010000431","name":"三總二樓門診區公廁","address":"澎湖縣馬公市前寮里90號","administration":"國防部","latitude":"23.55458529","longitude":"119.58395","grade":"特優級","type2":"","type":"混合廁所","exec":null,"diaper":null},{"country":"10016","city":"10016010","village":"前寮里","number":"X010000430","name":"三總急診室無障礙廁所","address":"澎湖縣馬公市前寮里90號","administration":"國防部","latitude":"23.55462463","longitude":"119.5838642","grade":"特優級","type2":"","type":"無障礙廁所","exec":null,"diaper":null},{"country":"10016","city":"10016030","village":"通梁村","number":"X030000078","name":"跨海大橋橋頭公廁女廁","address":"白沙鄉通樑村(大橋往西嶼鄉橋頭旁)","administration":"交通部","latitude":"23.65836644","longitude":"119.554553","grade":"特優級","type2":"觀光地區及風景區","type":"女廁所","exec":null,"diaper":null},{"country":"10016","city":"10016030","village":"通梁村","number":"X030000085","name":"通樑社區男廁","address":"白沙鄉通樑村","administration":"交通部","latitude":"23.65617006","longitude":"119.5575571","grade":"特優級","type2":"社福機構、集會場所","type":"男廁所","exec":null,"diaper":null},{"country":"10016","city":"10016030","village":"通梁村","number":"X030000084","name":"通樑社區女廁","address":"白沙鄉通樑村","administration":"交通部","latitude":"23.65618971","longitude":"119.5575357","grade":"特優級","type2":"社福機構、集會場所","type":"女廁所","exec":null,"diaper":null},{"country":"10016","city":"10016030","village":"後寮村","number":"X030000065","name":"後寮遊客服務中心女廁","address":"白沙鄉後寮村104-18號","administration":"交通部","latitude":"23.67072346","longitude":"119.5707536","grade":"特優級","type2":"","type":"女廁所","exec":null,"diaper":null},{"country":"10016","city":"10016030","village":"後寮村","number":"X030000075","name":"後寮社區公廁女廁","address":"白沙鄉後寮村45號","administration":"縣市政府","latitude":"23.66710737","longitude":"119.5750773","grade":"特優級","type2":"宗教禮儀場所","type":"女廁所","exec":null,"diaper":null},{"country":"10016","city":"10016060","village":"平和村","number":"X060000009","name":"七美機場候機室無障礙廁","address":"七美鄉平和村55號","administration":"交通部","latitude":"23.21220208","longitude":"119.4177818","grade":"特優級","type2":"","type":"無障礙廁所","exec":null,"diaper":null},{"country":"10016","city":"10016050","village":"中社村","number":"X050000025","name":"望安機場候機室女廁","address":"望安鄉中社村","administration":"交通部","latitude":"23.3675107","longitude":"119.5019388","grade":"特優級","type2":"","type":"女廁所","exec":null,"diaper":null},{"country":"10016","city":"10016050","village":"中社村","number":"X050000024","name":"望安機場候機室男廁","address":"望安鄉中社村","administration":"交通部","latitude":"23.36760426","longitude":"119.5018154","grade":"特優級","type2":"","type":"男廁所","exec":null,"diaper":null},{"country":"10016","city":"10016010","village":"中興里","number":"X010000093","name":"救國團青年活動中心女廁","address":"馬公市介壽路11號","administration":"其他","latitude":"23.56851078","longitude":"119.5637155","grade":"特優級","type2":"社福機構、集會場所","type":"女廁所","exec":null,"diaper":null},{"country":"10016","city":"10016030","village":"港子村","number":"X030000021","name":"港子社區活動中心男廁","address":"白沙鄉港子村54號","administration":"縣市政府","latitude":"23.64900576","longitude":"119.5996571","grade":"特優級","type2":"宗教禮儀場所","type":"男廁所","exec":null,"diaper":null},{"country":"10016","city":"10016020","village":"林投村","number":"X020000114","name":"林投公園殘障(南側)","address":"湖西鄉林投公園1-1號","administration":"交通部","latitude":"23.56023041","longitude":"119.642272","grade":"特優級","type2":"公園","type":"無障礙廁所","exec":null,"diaper":null},{"country":"10016","city":"10016020","village":"林投村","number":"X020000113","name":"林投公園女廁(南側)","address":"湖西鄉林投村1-1號","administration":"交通部","latitude":"23.55983703","longitude":"119.6427441","grade":"特優級","type2":"公園","type":"女廁所","exec":null,"diaper":null},{"country":"10016","city":"10016060","village":"南港村","number":"X060000011","name":"七美旅客服務中心女廁","address":"澎湖縣七美鄉南港村南滬59號","administration":"交通部","latitude":"23.195778","longitude":"119.419248","grade":"特優級","type2":"觀光地區及風景區","type":"女廁所","exec":null,"diaper":null},{"country":"10016","city":"10016030","village":"赤崁村","number":"X030000043","name":"赤崁漁港加油站殘障","address":"澎湖縣白沙鄉赤崁村37號","administration":"其他","latitude":"23.66687154","longitude":"119.6026826","grade":"特優級","type2":"","type":"無障礙廁所","exec":null,"diaper":null},{"country":"10016","city":"10016030","village":"赤崁村","number":"X030000042","name":"赤崁漁港加油站男廁","address":"澎湖縣白沙鄉大赤崁村37號","administration":"其他","latitude":"23.66687154","longitude":"119.6026826","grade":"特優級","type2":"","type":"男廁所","exec":null,"diaper":null},{"country":"10016","city":"10016030","village":"赤崁村","number":"X030000041","name":"赤崁漁港加油站女廁","address":"白沙鄉赤崁村37號","administration":"其他","latitude":"23.66752991","longitude":"119.6029723","grade":"特優級","type2":"","type":"女廁所","exec":null,"diaper":null},{"country":"10016","city":"10016010","village":"長安里","number":"X010000014","name":"澎湖公車總站殘障","address":"馬公市民族路16-1號","administration":"縣市政府","latitude":"23.56698653","longitude":"119.5644343","grade":"特優級","type2":"","type":"無障礙廁所","exec":null,"diaper":null},{"country":"10016","city":"10016060","village":"南港村","number":"X060000010","name":"七美旅客服務中心男廁","address":"澎湖縣七美鄉南港村南滬59號","administration":"交通部","latitude":"23.195778","longitude":"119.419248","grade":"特優級","type2":"觀光地區及風景區","type":"男廁所","exec":null,"diaper":null},{"country":"10016","city":"10016010","village":"虎井里","number":"X010000561","name":"虎井活動中心二樓女廁","address":"澎湖縣馬公市虎井里","administration":"縣市政府","latitude":"23.48653473","longitude":"119.5162082","grade":"特優級","type2":"社福機構、集會場所","type":"女廁所","exec":null,"diaper":null},{"country":"10016","city":"10016010","village":"虎井里","number":"X010000560","name":"虎井活動中心二樓男廁","address":"澎湖縣馬公市虎井里","administration":"縣市政府","latitude":"23.48653473","longitude":"119.5161116","grade":"特優級","type2":"社福機構、集會場所","type":"男廁所","exec":null,"diaper":null}]