[{"country":"67000","city":"67000270","village":"仁義里","number":"D270000891","name":"仁德區圖書館2F親子廁","address":"臺南市仁德區仁義里正義一街39號","latitude":"22.972232","longitude":"120.253105","grade":"特優級","type2":"文化育樂活動場所","type":"親子廁所","administration":"仁德區公所","exec":null,"diaper":null},{"country":"67000","city":"67000190","village":"文昌里","number":"D190000211","name":"善化區文昌里公6公園性別友善廁","address":"臺南市善化區文昌里光復路１７５號旁","latitude":"23.12741563","longitude":"120.2900979","grade":"特優級","type2":"公園","type":"性別友善廁所","administration":"善化區公所","exec":null,"diaper":null},{"country":"67000","city":"67000190","village":"文昌里","number":"D190000210","name":"善化區文昌里公6公園女廁","address":"臺南市善化區文昌里光復路１７５號旁","latitude":"23.12741563","longitude":"120.2900979","grade":"特優級","type2":"公園","type":"女廁所","administration":"善化區公所","exec":null,"diaper":null},{"country":"67000","city":"67000190","village":"文昌里","number":"D190000209","name":"善化區文昌里公6公園男廁","address":"臺南市善化區文昌里光復路１７５號旁","latitude":"23.12741563","longitude":"120.2900979","grade":"特優級","type2":"公園","type":"男廁所","administration":"善化區公所","exec":null,"diaper":null},{"country":"67000","city":"67000010","village":"護鎮里","number":"D010000537","name":"臺南市新營體育場田徑場北側桌球室女廁","address":"臺南市新營區護鎮里長榮路二段７８號","latitude":"23.32060611","longitude":"120.3121183","grade":"特優級","type2":"文化育樂活動場所","type":"女廁所","administration":"臺南市政府體育局","exec":null,"diaper":null},{"country":"67000","city":"67000010","village":"護鎮里","number":"D010000536","name":"臺南市新營體育場田徑場北側桌球室男廁","address":"臺南市新營區護鎮里長榮路二段７８號","latitude":"23.32060611","longitude":"120.3121183","grade":"特優級","type2":"文化育樂活動場所","type":"男廁所","administration":"臺南市政府體育局","exec":null,"diaper":null},{"country":"67000","city":"67000010","village":"護鎮里","number":"D010000535","name":"臺南市新營體育場田徑場1號出口下女廁","address":"臺南市新營區護鎮里長榮路二段７８號","latitude":"23.32060611","longitude":"120.3121183","grade":"特優級","type2":"文化育樂活動場所","type":"女廁所","administration":"臺南市政府體育局","exec":null,"diaper":null},{"country":"67000","city":"67000010","village":"護鎮里","number":"D010000534","name":"臺南市新營體育場田徑場1號出口下男廁","address":"臺南市新營區護鎮里長榮路二段７８號","latitude":"23.32060611","longitude":"120.3121183","grade":"特優級","type2":"文化育樂活動場所","type":"男廁所","administration":"臺南市政府體育局","exec":null,"diaper":null},{"country":"67000","city":"67000010","village":"護鎮里","number":"D010000533","name":"新營田徑場看台2F外側B廁女廁","address":"臺南市新營區護鎮里長榮路二段７８號","latitude":"23.32060611","longitude":"120.3121183","grade":"特優級","type2":"文化育樂活動場所","type":"女廁所","administration":"臺南市政府體育局","exec":null,"diaper":null},{"country":"67000","city":"67000010","village":"護鎮里","number":"D010000532","name":"新營田徑場看台2F外側B廁男廁","address":"臺南市新營區護鎮里長榮路二段７８號","latitude":"23.32060611","longitude":"120.3121183","grade":"特優級","type2":"文化育樂活動場所","type":"男廁所","administration":"臺南市政府體育局","exec":null,"diaper":null},{"country":"67000","city":"67000010","village":"護鎮里","number":"D010000531","name":"新營田徑場看台2F外側A廁女廁","address":"臺南市新營區護鎮里長榮路二段７８號","latitude":"23.32060611","longitude":"120.3121183","grade":"特優級","type2":"文化育樂活動場所","type":"女廁所","administration":"臺南市政府體育局","exec":null,"diaper":null},{"country":"67000","city":"67000010","village":"護鎮里","number":"D010000530","name":"新營田徑場看台2F外側A廁男廁","address":"臺南市新營區護鎮里長榮路二段７８號","latitude":"23.32060611","longitude":"120.3121183","grade":"特優級","type2":"文化育樂活動場所","type":"男廁所","administration":"臺南市政府體育局","exec":null,"diaper":null},{"country":"67000","city":"67000010","village":"護鎮里","number":"D010000554","name":"臺南市新營體育場體育館東側1F女廁","address":"臺南市新營區護鎮里長榮路二段７８號","latitude":"23.32060611","longitude":"120.3121183","grade":"特優級","type2":"文化育樂活動場所","type":"女廁所","administration":"臺南市政府體育局","exec":null,"diaper":null},{"country":"67000","city":"67000010","village":"護鎮里","number":"D010000553","name":"臺南市新營體育場體育館東側1F親子廁B","address":"臺南市新營區護鎮里長榮路二段７８號","latitude":"23.32060611","longitude":"120.3121183","grade":"特優級","type2":"文化育樂活動場所","type":"親子廁所","administration":"臺南市政府體育局","exec":null,"diaper":null},{"country":"67000","city":"67000010","village":"護鎮里","number":"D010000552","name":"臺南市新營體育場體育館東側2F男廁","address":"臺南市新營區護鎮里長榮路二段７８號","latitude":"23.32060611","longitude":"120.3121183","grade":"特優級","type2":"文化育樂活動場所","type":"男廁所","administration":"臺南市政府體育局","exec":null,"diaper":null},{"country":"67000","city":"67000010","village":"護鎮里","number":"D010000551","name":"臺南市新營體育場體育館東側1F男廁","address":"臺南市新營區護鎮里長榮路二段７８號","latitude":"23.32060611","longitude":"120.3121183","grade":"特優級","type2":"文化育樂活動場所","type":"男廁所","administration":"臺南市政府體育局","exec":null,"diaper":null},{"country":"67000","city":"67000010","village":"護鎮里","number":"D010000550","name":"臺南市新營體育場體育館東側1F親子廁A","address":"臺南市新營區護鎮里長榮路二段７８號","latitude":"23.32060611","longitude":"120.3121183","grade":"特優級","type2":"文化育樂活動場所","type":"親子廁所","administration":"臺南市政府體育局","exec":null,"diaper":null},{"country":"67000","city":"67000010","village":"護鎮里","number":"D010000549","name":"臺南市新營體育場田徑場10號出口下女廁","address":"臺南市新營區護鎮里長榮路二段７８號","latitude":"23.32060611","longitude":"120.3121183","grade":"特優級","type2":"文化育樂活動場所","type":"女廁所","administration":"臺南市政府體育局","exec":null,"diaper":null},{"country":"67000","city":"67000010","village":"護鎮里","number":"D010000548","name":"臺南市新營體育場田徑場10號出口下男廁","address":"臺南市新營區護鎮里長榮路二段７８號","latitude":"23.32060611","longitude":"120.3121183","grade":"特優級","type2":"文化育樂活動場所","type":"男廁所","administration":"臺南市政府體育局","exec":null,"diaper":null},{"country":"67000","city":"67000010","village":"護鎮里","number":"D010000547","name":"新營體育場田徑場西南側1F無障礙廁","address":"臺南市新營區護鎮里長榮路二段７８號","latitude":"23.32060611","longitude":"120.3121183","grade":"特優級","type2":"文化育樂活動場所","type":"無障礙廁所","administration":"臺南市政府體育局","exec":null,"diaper":null},{"country":"67000","city":"67000010","village":"護鎮里","number":"D010000546","name":"新營體育場田徑場西南側1F女廁","address":"臺南市新營區護鎮里長榮路二段７８號","latitude":"23.32060611","longitude":"120.3121183","grade":"特優級","type2":"文化育樂活動場所","type":"女廁所","administration":"臺南市政府體育局","exec":null,"diaper":null},{"country":"67000","city":"67000290","village":"松腳里","number":"D290000170","name":"大潭埤旺萊公園鳳梨主題遊戲場男廁","address":"臺南市關廟區松腳里無","latitude":"22.956763","longitude":"120.342489","grade":"特優級","type2":"公園","type":"男廁所","administration":"關廟區公所","exec":null,"diaper":null},{"country":"67000","city":"67000290","village":"松腳里","number":"D290000169","name":"大潭埤旺萊公園鳳梨主題遊戲場女廁","address":"臺南市關廟區松腳里無","latitude":"22.956763","longitude":"120.342489","grade":"特優級","type2":"公園","type":"女廁所","administration":"關廟區公所","exec":null,"diaper":null},{"country":"67000","city":"67000290","village":"松腳里","number":"D290000168","name":"大潭埤旺萊公園無障礙廁","address":"臺南市關廟區松腳里無","latitude":"22.956758","longitude":"120.341177","grade":"特優級","type2":"公園","type":"無障礙廁所","administration":"關廟區公所","exec":null,"diaper":null},{"country":"67000","city":"67000290","village":"松腳里","number":"D290000167","name":"大潭埤旺萊公園男廁","address":"臺南市關廟區松腳里無","latitude":"22.956758","longitude":"120.341177","grade":"特優級","type2":"公園","type":"男廁所","administration":"關廟區公所","exec":null,"diaper":null},{"country":"67000","city":"67000290","village":"松腳里","number":"D290000166","name":"大潭埤旺萊公園女廁","address":"臺南市關廟區松腳里無","latitude":"22.956758","longitude":"120.341177","grade":"特優級","type2":"公園","type":"女廁所","administration":"關廟區公所","exec":null,"diaper":null},{"country":"67000","city":"67000280","village":"武東里","number":"D280000405","name":"大臺南會展中心會議棟3F東北區女廁","address":"臺南市歸仁區武東里歸仁十二路3號","latitude":"22.92182","longitude":"120.285113","grade":"特優級","type2":"文化育樂活動場所","type":"女廁所","administration":"大臺南會展股份有限公司","exec":null,"diaper":null},{"country":"67000","city":"67000280","village":"武東里","number":"D280000404","name":"大臺南會展中心會議棟3F東北區男廁","address":"臺南市歸仁區武東里歸仁十二路3號","latitude":"22.92182","longitude":"120.285113","grade":"特優級","type2":"文化育樂活動場所","type":"男廁所","administration":"大臺南會展股份有限公司","exec":null,"diaper":null},{"country":"67000","city":"67000280","village":"武東里","number":"D280000403","name":"大臺南會展中心停車棟1F東南區無障礙廁","address":"臺南市歸仁區武東里歸仁十二路3號","latitude":"22.92182","longitude":"120.285113","grade":"特優級","type2":"文化育樂活動場所","type":"無障礙廁所","administration":"大臺南會展股份有限公司","exec":null,"diaper":null},{"country":"67000","city":"67000280","village":"武東里","number":"D280000402","name":"大臺南會展中心停車棟1F東南區性別友善廁","address":"臺南市歸仁區武東里歸仁十二路3號","latitude":"22.92182","longitude":"120.285113","grade":"特優級","type2":"文化育樂活動場所","type":"性別友善廁所","administration":"大臺南會展股份有限公司","exec":null,"diaper":null},{"country":"67000","city":"67000280","village":"武東里","number":"D280000401","name":"大臺南會展中心展覽棟1F西南區親子廁","address":"臺南市歸仁區武東里歸仁十二路3號","latitude":"22.92182","longitude":"120.285113","grade":"特優級","type2":"文化育樂活動場所","type":"親子廁所","administration":"大臺南會展股份有限公司","exec":null,"diaper":null},{"country":"67000","city":"67000280","village":"武東里","number":"D280000400","name":"大臺南會展中心展覽棟1F西南區無障礙廁","address":"臺南市歸仁區武東里歸仁十二路3號","latitude":"22.92182","longitude":"120.285113","grade":"特優級","type2":"文化育樂活動場所","type":"無障礙廁所","administration":"大臺南會展股份有限公司","exec":null,"diaper":null},{"country":"67000","city":"67000280","village":"武東里","number":"D280000399","name":"大臺南會展中心展覽棟1F西南區女廁","address":"臺南市歸仁區武東里歸仁十二路3號","latitude":"22.92182","longitude":"120.285113","grade":"特優級","type2":"文化育樂活動場所","type":"女廁所","administration":"大臺南會展股份有限公司","exec":null,"diaper":null},{"country":"67000","city":"67000280","village":"武東里","number":"D280000398","name":"大臺南會展中心展覽棟1F西南區男廁","address":"臺南市歸仁區武東里歸仁十二路3號","latitude":"22.92182","longitude":"120.285113","grade":"特優級","type2":"文化育樂活動場所","type":"男廁所","administration":"大臺南會展股份有限公司","exec":null,"diaper":null},{"country":"67000","city":"67000280","village":"武東里","number":"D280000397","name":"大臺南會展中心展覽棟1F東南區親子廁","address":"臺南市歸仁區武東里歸仁十二路3號","latitude":"22.92182","longitude":"120.285113","grade":"特優級","type2":"文化育樂活動場所","type":"親子廁所","administration":"大臺南會展股份有限公司","exec":null,"diaper":null},{"country":"67000","city":"67000280","village":"武東里","number":"D280000389","name":"大臺南會展中心會議棟1F東北區後無障礙廁","address":"臺南市歸仁區武東里歸仁十二路3號","latitude":"22.92182","longitude":"120.285113","grade":"特優級","type2":"文化育樂活動場所","type":"無障礙廁所","administration":"大臺南會展股份有限公司","exec":null,"diaper":null},{"country":"67000","city":"67000280","village":"武東里","number":"D280000388","name":"大臺南會展中心會議棟1F東北區前無障礙廁","address":"臺南市歸仁區武東里歸仁十二路3號","latitude":"22.92182","longitude":"120.285113","grade":"特優級","type2":"文化育樂活動場所","type":"無障礙廁所","administration":"大臺南會展股份有限公司","exec":null,"diaper":null},{"country":"67000","city":"67000280","village":"武東里","number":"D280000387","name":"大臺南會展中心會議棟1F東北區女廁","address":"臺南市歸仁區武東里歸仁十二路3號","latitude":"22.92182","longitude":"120.285113","grade":"特優級","type2":"文化育樂活動場所","type":"女廁所","administration":"大臺南會展股份有限公司","exec":null,"diaper":null},{"country":"67000","city":"67000280","village":"武東里","number":"D280000386","name":"大臺南會展中心會議棟1F東北區男廁","address":"臺南市歸仁區武東里歸仁十二路3號","latitude":"22.92182","longitude":"120.285113","grade":"特優級","type2":"文化育樂活動場所","type":"男廁所","administration":"大臺南會展股份有限公司","exec":null,"diaper":null},{"country":"67000","city":"67000310","village":"東橋里","number":"D310000735","name":"統一Par K* Avenue商場無障礙廁","address":"臺南市永康區東橋里東橋八街","latitude":"23.021235","longitude":"120.23454","grade":"特優級","type2":"商業營業場所","type":"無障礙廁所","administration":"其他","exec":null,"diaper":null},{"country":"67000","city":"67000310","village":"東橋里","number":"D310000734","name":"統一Par K* Avenue商場女廁","address":"臺南市永康區東橋里東橋八街","latitude":"23.021235","longitude":"120.23454","grade":"特優級","type2":"商業營業場所","type":"女廁所","administration":"其他","exec":null,"diaper":null},{"country":"67000","city":"67000310","village":"東橋里","number":"D310000733","name":"統一Par K* Avenue商場男廁","address":"臺南市永康區東橋里東橋八街","latitude":"23.021235","longitude":"120.23454","grade":"特優級","type2":"商業營業場所","type":"男廁所","administration":"其他","exec":null,"diaper":null},{"country":"67000","city":"67000010","village":"南興里","number":"D010000528","name":"長勝園區流動景觀無障礙廁","address":"臺南市新營區南興里建業路２００號","latitude":"23.29982","longitude":"120.305774","grade":"特優級","type2":"公園","type":"無障礙廁所","administration":"新營區公所","exec":null,"diaper":null},{"country":"67000","city":"67000010","village":"南興里","number":"D010000527","name":"長勝園區流動景觀女廁","address":"臺南市新營區南興里建業路２００號","latitude":"23.29982","longitude":"120.305774","grade":"特優級","type2":"公園","type":"女廁所","administration":"新營區公所","exec":null,"diaper":null},{"country":"67000","city":"67000330","village":"文南里","number":"D330000350","name":"健康綠洲公園無障礙廁","address":"臺南市南　區文南里健康路二段550號","latitude":"22.98351819","longitude":"120.1840273","grade":"特優級","type2":"公園","type":"無障礙廁所","administration":"臺南市政府工務局","exec":null,"diaper":null},{"country":"67000","city":"67000330","village":"文南里","number":"D330000349","name":"健康綠洲公園男廁","address":"臺南市南　區文南里健康路二段550號","latitude":"22.98341942","longitude":"120.1840782","grade":"特優級","type2":"公園","type":"男廁所","administration":"臺南市政府工務局","exec":null,"diaper":null},{"country":"67000","city":"67000330","village":"文南里","number":"D330000348","name":"健康綠洲公園女廁","address":"臺南市南　區文南里健康路二段550號","latitude":"22.98341942","longitude":"120.1840782","grade":"特優級","type2":"公園","type":"女廁所","administration":"臺南市政府工務局","exec":null,"diaper":null},{"country":"67000","city":"67000040","village":"東昇里","number":"D040000264","name":"柳營火車站無障礙廁","address":"臺南市柳營區東昇里建國路1號","latitude":"23.277501","longitude":"120.322463","grade":"特優級","type2":"交通","type":"無障礙廁所","administration":"交通部臺灣鐵路管理局新營站","exec":null,"diaper":null},{"country":"67000","city":"67000070","village":"中興里","number":"D070000344","name":"中興興農活動中心2F男廁","address":"臺南市麻豆區中興里臺南市麻豆區中興里自由路８號之６","latitude":"23.18084736","longitude":"120.2444975","grade":"特優級","type2":"社福機構、集會場所","type":"男廁所","administration":"縣市政府","exec":null,"diaper":null},{"country":"67000","city":"67000070","village":"中興里","number":"D070000343","name":"中興興農活動中心2F女廁","address":"臺南市麻豆區中興里臺南市麻豆區中興里自由路８號之６","latitude":"23.18077493","longitude":"120.2443877","grade":"特優級","type2":"社福機構、集會場所","type":"女廁所","administration":"縣市政府","exec":null,"diaper":null},{"country":"67000","city":"67000330","village":"喜南里","number":"D330000365","name":"喜樹沙灘性別友善廁","address":"臺南市南　區喜南里無","latitude":"22.938047","longitude":"120.175577","grade":"特優級","type2":"觀光地區及風景區","type":"性別友善廁所","administration":"臺南市政府觀光旅遊局","exec":null,"diaper":null},{"country":"67000","city":"67000330","village":"喜南里","number":"D330000364","name":"喜樹沙灘親子廁","address":"臺南市南　區喜南里無","latitude":"22.938047","longitude":"120.175577","grade":"特優級","type2":"觀光地區及風景區","type":"親子廁所","administration":"臺南市政府觀光旅遊局","exec":null,"diaper":null},{"country":"67000","city":"67000370","village":"大涼里","number":"D370000953","name":"永華國民運動中心北棟1F男廁","address":"臺南市中西區大涼里中華西路二段","latitude":"22.99007646","longitude":"120.1875544","grade":"特優級","type2":"文化育樂活動場所","type":"男廁所","administration":"縣市政府","exec":null,"diaper":null},{"country":"67000","city":"67000370","village":"大涼里","number":"D370000952","name":"永華國民運動中心北棟1F女廁","address":"臺南市中西區大涼里中華西路二段","latitude":"22.99007646","longitude":"120.1875544","grade":"特優級","type2":"文化育樂活動場所","type":"女廁所","administration":"縣市政府","exec":null,"diaper":null},{"country":"67000","city":"67000270","village":"後壁里","number":"D270000894","name":"仁德五帝廟男廁","address":"臺南市仁德區後壁里德善路212巷22號","latitude":"22.946967","longitude":"120.256715","grade":"特優級","type2":"宗教禮儀場所","type":"男廁所","administration":"仁德五帝廟管理委員會","exec":null,"diaper":null},{"country":"67000","city":"67000270","village":"後壁里","number":"D270000893","name":"仁德五帝廟女廁","address":"臺南市仁德區後壁里德善路212巷22號","latitude":"22.946967","longitude":"120.256715","grade":"特優級","type2":"宗教禮儀場所","type":"女廁所","administration":"仁德五帝廟管理委員會","exec":null,"diaper":null},{"country":"67000","city":"67000040","village":"士林里","number":"D040000272","name":"士林里活動中心2F混合廁","address":"臺南市柳營區士林里博愛街18號","latitude":"23.278199","longitude":"120.311221","grade":"特優級","type2":"社福機構、集會場所","type":"混合廁所","administration":"柳營區公所","exec":null,"diaper":null},{"country":"67000","city":"67000040","village":"八翁里","number":"D040000271","name":"八翁里集會所無障礙廁","address":"臺南市柳營區八翁里八老爺70號","latitude":"23.272862","longitude":"120.296681","grade":"特優級","type2":"社福機構、集會場所","type":"無障礙廁所","administration":"柳營區公所","exec":null,"diaper":null},{"country":"67000","city":"67000040","village":"八翁里","number":"D040000270","name":"八翁里集會所男廁","address":"臺南市柳營區八翁里八老爺70號","latitude":"23.272862","longitude":"120.296681","grade":"特優級","type2":"社福機構、集會場所","type":"男廁所","administration":"柳營區公所","exec":null,"diaper":null},{"country":"67000","city":"67000040","village":"八翁里","number":"D040000269","name":"八翁里集會所女廁","address":"臺南市柳營區八翁里八老爺70號","latitude":"23.272862","longitude":"120.296681","grade":"特優級","type2":"社福機構、集會場所","type":"女廁所","administration":"柳營區公所","exec":null,"diaper":null},{"country":"67000","city":"67000270","village":"文賢里","number":"D270000892","name":"田厝水明殿混合廁","address":"臺南市仁德區文賢里田厝二街88號","latitude":"22.938917","longitude":"120.242818","grade":"特優級","type2":"宗教禮儀場所","type":"混合廁所","administration":"田厝水明殿管理委員會","exec":null,"diaper":null},{"country":"67000","city":"67000310","village":"復華里","number":"D310000723","name":"永康區第一公墓納骨塔親子廁","address":"臺南市永康區復華里忠孝路","latitude":"23.01389442","longitude":"120.2429447","grade":"特優級","type2":"宗教禮儀場所","type":"親子廁所","administration":"縣市政府","exec":null,"diaper":null},{"country":"67000","city":"67000310","village":"復華里","number":"D310000722","name":"永康區第一公墓納骨塔無障礙廁","address":"臺南市永康區復華里忠孝路","latitude":"23.01389442","longitude":"120.2429447","grade":"特優級","type2":"宗教禮儀場所","type":"無障礙廁所","administration":"縣市政府","exec":null,"diaper":null},{"country":"67000","city":"67000310","village":"復華里","number":"D310000721","name":"永康區第一公墓納骨塔男廁","address":"臺南市永康區復華里忠孝路","latitude":"23.01389442","longitude":"120.2429447","grade":"特優級","type2":"宗教禮儀場所","type":"男廁所","administration":"縣市政府","exec":null,"diaper":null},{"country":"67000","city":"67000310","village":"復華里","number":"D310000720","name":"永康區第一公墓納骨塔女廁","address":"臺南市永康區復華里忠孝路","latitude":"23.01389442","longitude":"120.2429447","grade":"特優級","type2":"宗教禮儀場所","type":"女廁所","administration":"縣市政府","exec":null,"diaper":null},{"country":"67000","city":"67000250","village":"北寮里","number":"D250000096","name":"北寮思親堂無障礙廁","address":"臺南市南化區北寮里北寮６１之９號","latitude":"23.085827","longitude":"120.497315","grade":"特優級","type2":"社福機構、集會場所","type":"無障礙廁所","administration":"縣市政府","exec":null,"diaper":null},{"country":"67000","city":"67000250","village":"北寮里","number":"D250000095","name":"北寮思親堂性別友善廁","address":"臺南市南化區北寮里北寮６１之９號","latitude":"23.085827","longitude":"120.497315","grade":"特優級","type2":"社福機構、集會場所","type":"性別友善廁所","administration":"縣市政府","exec":null,"diaper":null},{"country":"67000","city":"67000010","village":"民權里","number":"D010000496","name":"新營市立文化中心音樂廳2F右側女廁","address":"臺南市新營區民權里中正路２３號","latitude":"23.308579","longitude":"120.315842","grade":"特優級","type2":"文化育樂活動場所","type":"女廁所","administration":"臺南市政府文化局","exec":null,"diaper":null},{"country":"67000","city":"67000010","village":"民權里","number":"D010000495","name":"新營市立文化中心音樂廳2F右側男廁","address":"臺南市新營區民權里中正路２３號","latitude":"23.308579","longitude":"120.315842","grade":"特優級","type2":"文化育樂活動場所","type":"男廁所","administration":"臺南市政府文化局","exec":null,"diaper":null},{"country":"67000","city":"67000010","village":"民權里","number":"D010000494","name":"新營市立文化中心音樂廳2F左側女廁","address":"臺南市新營區民權里中正路２３號","latitude":"23.308579","longitude":"120.315842","grade":"特優級","type2":"文化育樂活動場所","type":"女廁所","administration":"臺南市政府文化局","exec":null,"diaper":null},{"country":"67000","city":"67000260","village":"榮和里","number":"D260000057","name":"7-11左鎮門市無障礙廁","address":"臺南市左鎮區榮和里菜寮62之35號","latitude":"23.063044","longitude":"120.388605","grade":"特優級","type2":"商業營業場所","type":"無障礙廁所","administration":"統一企業股份有限公司","exec":null,"diaper":null},{"country":"67000","city":"67000360","village":"億載里","number":"D360000359","name":"台灣中油光州路加油站無障礙廁","address":"臺南市安平區億載里永華路二段","latitude":"22.991382","longitude":"120.160179","grade":"特優級","type2":"商業營業場所","type":"無障礙廁所","administration":"經濟部","exec":null,"diaper":null},{"country":"67000","city":"67000360","village":"平通里","number":"D360000358","name":"全家台南承天店混合廁","address":"臺南市安平區平通里慶平路","latitude":"22.997515","longitude":"120.169742","grade":"特優級","type2":"商業營業場所","type":"混合廁所","administration":"其他","exec":null,"diaper":null},{"country":"67000","city":"67000360","village":"華平里","number":"D360000357","name":"7-11慶國門市混合廁","address":"臺南市安平區華平里慶平路","latitude":"22.997122","longitude":"120.171948","grade":"特優級","type2":"商業營業場所","type":"混合廁所","administration":"其他","exec":null,"diaper":null},{"country":"67000","city":"67000360","village":"平安里","number":"D360000356","name":"7-11安運門市混合廁","address":"臺南市安平區平安里華平路","latitude":"22.999057","longitude":"120.176096","grade":"特優級","type2":"商業營業場所","type":"混合廁所","administration":"其他","exec":null,"diaper":null},{"country":"67000","city":"67000360","village":"平通里","number":"D360000355","name":"安平國中行政大樓1F西側男廁","address":"臺南市安平區平通里慶平路","latitude":"22.997633","longitude":"120.168409","grade":"特優級","type2":"其他","type":"男廁所","administration":"縣市政府","exec":null,"diaper":null},{"country":"67000","city":"67000280","village":"武東里","number":"D280000412","name":"大臺南會展中心會議棟4F西區親子廁","address":"臺南市歸仁區武東里歸仁十二路3號","latitude":"22.92182","longitude":"120.285113","grade":"特優級","type2":"文化育樂活動場所","type":"親子廁所","administration":"大臺南會展股份有限公司","exec":null,"diaper":null},{"country":"67000","city":"67000280","village":"武東里","number":"D280000411","name":"大臺南會展中心會議棟4F西區無障礙廁","address":"臺南市歸仁區武東里歸仁十二路3號","latitude":"22.92182","longitude":"120.285113","grade":"特優級","type2":"文化育樂活動場所","type":"無障礙廁所","administration":"大臺南會展股份有限公司","exec":null,"diaper":null},{"country":"67000","city":"67000280","village":"武東里","number":"D280000410","name":"大臺南會展中心會議棟4F西區男廁","address":"臺南市歸仁區武東里歸仁十二路3號","latitude":"22.92182","longitude":"120.285113","grade":"特優級","type2":"文化育樂活動場所","type":"男廁所","administration":"大臺南會展股份有限公司","exec":null,"diaper":null},{"country":"67000","city":"67000280","village":"武東里","number":"D280000409","name":"大臺南會展中心會議棟4F東區女廁","address":"臺南市歸仁區武東里歸仁十二路3號","latitude":"22.92182","longitude":"120.285113","grade":"特優級","type2":"文化育樂活動場所","type":"女廁所","administration":"大臺南會展股份有限公司","exec":null,"diaper":null},{"country":"67000","city":"67000280","village":"武東里","number":"D280000408","name":"大臺南會展中心會議棟3F西北區女廁","address":"臺南市歸仁區武東里歸仁十二路3號","latitude":"22.92182","longitude":"120.285113","grade":"特優級","type2":"文化育樂活動場所","type":"女廁所","administration":"大臺南會展股份有限公司","exec":null,"diaper":null},{"country":"67000","city":"67000280","village":"武東里","number":"D280000407","name":"大臺南會展中心會議棟3F西北區男廁","address":"臺南市歸仁區武東里歸仁十二路3號","latitude":"22.92182","longitude":"120.285113","grade":"特優級","type2":"文化育樂活動場所","type":"男廁所","administration":"大臺南會展股份有限公司","exec":null,"diaper":null},{"country":"67000","city":"67000280","village":"武東里","number":"D280000406","name":"大臺南會展中心會議棟3F東北區無障礙廁","address":"臺南市歸仁區武東里歸仁十二路3號","latitude":"22.92182","longitude":"120.285113","grade":"特優級","type2":"文化育樂活動場所","type":"無障礙廁所","administration":"大臺南會展股份有限公司","exec":null,"diaper":null},{"country":"67000","city":"67000280","village":"武東里","number":"D280000396","name":"大臺南會展中心展覽棟1F東南區無障礙廁","address":"臺南市歸仁區武東里歸仁十二路3號","latitude":"22.92182","longitude":"120.285113","grade":"特優級","type2":"文化育樂活動場所","type":"無障礙廁所","administration":"大臺南會展股份有限公司","exec":null,"diaper":null},{"country":"67000","city":"67000280","village":"武東里","number":"D280000395","name":"大臺南會展中心展覽棟1F東南區女廁","address":"臺南市歸仁區武東里歸仁十二路3號","latitude":"22.92182","longitude":"120.285113","grade":"特優級","type2":"文化育樂活動場所","type":"女廁所","administration":"大臺南會展股份有限公司","exec":null,"diaper":null},{"country":"67000","city":"67000280","village":"武東里","number":"D280000394","name":"大臺南會展中心展覽棟1F東南區男廁","address":"臺南市歸仁區武東里歸仁十二路3號","latitude":"22.92182","longitude":"120.285113","grade":"特優級","type2":"文化育樂活動場所","type":"男廁所","administration":"大臺南會展股份有限公司","exec":null,"diaper":null},{"country":"67000","city":"67000280","village":"武東里","number":"D280000393","name":"大臺南會展中心會議棟1F西區女廁","address":"臺南市歸仁區武東里歸仁十二路3號","latitude":"22.92182","longitude":"120.285113","grade":"特優級","type2":"文化育樂活動場所","type":"女廁所","administration":"大臺南會展股份有限公司","exec":null,"diaper":null},{"country":"67000","city":"67000280","village":"武東里","number":"D280000392","name":"大臺南會展中心會議棟1F西區男廁","address":"臺南市歸仁區武東里歸仁十二路3號","latitude":"22.92182","longitude":"120.285113","grade":"特優級","type2":"文化育樂活動場所","type":"男廁所","administration":"大臺南會展股份有限公司","exec":null,"diaper":null},{"country":"67000","city":"67000280","village":"武東里","number":"D280000391","name":"大臺南會展中心會議棟1F西北區女廁","address":"臺南市歸仁區武東里歸仁十二路3號","latitude":"22.92182","longitude":"120.285113","grade":"特優級","type2":"文化育樂活動場所","type":"女廁所","administration":"大臺南會展股份有限公司","exec":null,"diaper":null},{"country":"67000","city":"67000280","village":"武東里","number":"D280000390","name":"大臺南會展中心會議棟1F西北區男廁","address":"臺南市歸仁區武東里歸仁十二路3號","latitude":"22.92182","longitude":"120.285113","grade":"特優級","type2":"文化育樂活動場所","type":"男廁所","administration":"大臺南會展股份有限公司","exec":null,"diaper":null},{"country":"67000","city":"67000280","village":"武東里","number":"D280000385","name":"Mitsui Outlet Park台南3FB區無障礙客廁","address":"臺南市歸仁區武東里歸仁大道101號","latitude":"22.925183","longitude":"120.287133","grade":"特優級","type2":"商業營業場所","type":"無障礙廁所","administration":"台灣三井不動產商業管理股份有限公司","exec":null,"diaper":null},{"country":"67000","city":"67000280","village":"武東里","number":"D280000384","name":"Mitsui Outlet Park台南3FB區女客廁","address":"臺南市歸仁區武東里歸仁大道101號","latitude":"22.925183","longitude":"120.287133","grade":"特優級","type2":"商業營業場所","type":"女廁所","administration":"台灣三井不動產商業管理股份有限公司","exec":null,"diaper":null},{"country":"67000","city":"67000280","village":"武東里","number":"D280000383","name":"Mitsui Outlet Park台南3FB區男客廁","address":"臺南市歸仁區武東里歸仁大道101號","latitude":"22.925183","longitude":"120.287133","grade":"特優級","type2":"商業營業場所","type":"男廁所","administration":"台灣三井不動產商業管理股份有限公司","exec":null,"diaper":null},{"country":"67000","city":"67000280","village":"武東里","number":"D280000382","name":"Mitsui Outlet Park台南3FD區無障礙客廁","address":"臺南市歸仁區武東里歸仁大道101號","latitude":"22.925183","longitude":"120.287133","grade":"特優級","type2":"商業營業場所","type":"無障礙廁所","administration":"台灣三井不動產商業管理股份有限公司","exec":null,"diaper":null},{"country":"67000","city":"67000280","village":"武東里","number":"D280000381","name":"Mitsui Outlet Park台南3FD區女客廁","address":"臺南市歸仁區武東里歸仁大道101號","latitude":"22.925183","longitude":"120.287133","grade":"特優級","type2":"商業營業場所","type":"女廁所","administration":"台灣三井不動產商業管理股份有限公司","exec":null,"diaper":null},{"country":"67000","city":"67000280","village":"武東里","number":"D280000380","name":"Mitsui Outlet Park台南3FD區男客廁","address":"臺南市歸仁區武東里歸仁大道101號","latitude":"22.925183","longitude":"120.287133","grade":"特優級","type2":"商業營業場所","type":"男廁所","administration":"台灣三井不動產商業管理股份有限公司","exec":null,"diaper":null},{"country":"67000","city":"67000280","village":"武東里","number":"D280000379","name":"Mitsui Outlet Park台南2FB區南無障礙客廁","address":"臺南市歸仁區武東里歸仁大道101號","latitude":"22.925183","longitude":"120.287133","grade":"特優級","type2":"商業營業場所","type":"無障礙廁所","administration":"台灣三井不動產商業管理股份有限公司","exec":null,"diaper":null},{"country":"67000","city":"67000280","village":"武東里","number":"D280000370","name":"Mitsui Outlet Park台南1FD區親子客廁","address":"臺南市歸仁區武東里歸仁大道101號","latitude":"22.925183","longitude":"120.287133","grade":"特優級","type2":"商業營業場所","type":"親子廁所","administration":"台灣三井不動產商業管理股份有限公司","exec":null,"diaper":null},{"country":"67000","city":"67000280","village":"武東里","number":"D280000369","name":"Mitsui Outlet Park台南1FD區女客廁","address":"臺南市歸仁區武東里歸仁大道101號","latitude":"22.925183","longitude":"120.287133","grade":"特優級","type2":"商業營業場所","type":"女廁所","administration":"台灣三井不動產商業管理股份有限公司","exec":null,"diaper":null},{"country":"67000","city":"67000280","village":"武東里","number":"D280000368","name":"Mitsui Outlet Park台南1FD區男客廁","address":"臺南市歸仁區武東里歸仁大道101號","latitude":"22.925183","longitude":"120.287133","grade":"特優級","type2":"商業營業場所","type":"男廁所","administration":"台灣三井不動產商業管理股份有限公司","exec":null,"diaper":null},{"country":"67000","city":"67000150","village":"十份里","number":"D150000142","name":"國聖港燈塔無障礙廁","address":"臺南市七股區十份里聖港燈塔","latitude":"23.09999849","longitude":"120.0358969","grade":"特優級","type2":"觀光地區及風景區","type":"無障礙廁所","administration":"交通部航港局","exec":null,"diaper":null},{"country":"67000","city":"67000150","village":"十份里","number":"D150000141","name":"國聖港燈塔性別友善廁B","address":"臺南市七股區十份里聖港燈塔","latitude":"23.09999849","longitude":"120.0358969","grade":"特優級","type2":"觀光地區及風景區","type":"性別友善廁所","administration":"交通部航港局","exec":null,"diaper":null},{"country":"67000","city":"67000150","village":"十份里","number":"D150000140","name":"國聖港燈塔性別友善廁A","address":"臺南市七股區十份里聖港燈塔","latitude":"23.09999849","longitude":"120.0358969","grade":"特優級","type2":"觀光地區及風景區","type":"性別友善廁所","administration":"交通部航港局","exec":null,"diaper":null},{"country":"67000","city":"67000360","village":"金城里","number":"D360000376","name":"安平開臺天后宮停車場無障礙廁","address":"臺南市安平區金城里國勝路","latitude":"22.999787","longitude":"120.160837","grade":"特優級","type2":"民眾洽公場所","type":"無障礙廁所","administration":"縣市政府","exec":null,"diaper":null},{"country":"67000","city":"67000360","village":"金城里","number":"D360000375","name":"安平開臺天后宮停車場男廁","address":"臺南市安平區金城里國勝路","latitude":"22.999787","longitude":"120.160837","grade":"特優級","type2":"民眾洽公場所","type":"男廁所","administration":"縣市政府","exec":null,"diaper":null},{"country":"67000","city":"67000360","village":"金城里","number":"D360000374","name":"安平開臺天后宮停車場女廁","address":"臺南市安平區金城里國勝路","latitude":"22.999787","longitude":"120.160837","grade":"特優級","type2":"民眾洽公場所","type":"女廁所","administration":"縣市政府","exec":null,"diaper":null},{"country":"67000","city":"67000360","village":"億載里","number":"D360000386","name":"全家台南平豐店混合廁","address":"臺南市安平區億載里平豐路","latitude":"22.993175","longitude":"120.163756","grade":"特優級","type2":"商業營業場所","type":"混合廁所","administration":"經濟部","exec":null,"diaper":null},{"country":"67000","city":"67000360","village":"建平里","number":"D360000351","name":"社會福利綜合大樓東側親子廁","address":"臺南市安平區建平里中華西路二段","latitude":"22.991871","longitude":"120.186286","grade":"特優級","type2":"民眾洽公場所","type":"親子廁所","administration":"縣市政府","exec":null,"diaper":null},{"country":"67000","city":"67000350","village":"東和里","number":"D350000453","name":"國立臺灣歷史博物館湖畔圖書館親子廁","address":"臺南市安南區東和里長和路一段250號","latitude":"23.059176","longitude":"120.234144","grade":"特優級","type2":"文化育樂活動場所","type":"親子廁所","administration":"中華民國文化部","exec":null,"diaper":null},{"country":"67000","city":"67000350","village":"東和里","number":"D350000452","name":"國立臺灣歷史博物館湖畔圖書館無障礙廁","address":"臺南市安南區東和里長和路一段250號","latitude":"23.059176","longitude":"120.234144","grade":"特優級","type2":"文化育樂活動場所","type":"無障礙廁所","administration":"中華民國文化部","exec":null,"diaper":null},{"country":"67000","city":"67000350","village":"東和里","number":"D350000451","name":"國立臺灣歷史博物館湖畔圖書館女廁","address":"臺南市安南區東和里長和路一段250號","latitude":"23.059176","longitude":"120.234144","grade":"特優級","type2":"文化育樂活動場所","type":"女廁所","administration":"中華民國文化部","exec":null,"diaper":null},{"country":"67000","city":"67000350","village":"東和里","number":"D350000450","name":"國立臺灣歷史博物館湖畔圖書館男廁","address":"臺南市安南區東和里長和路一段250號","latitude":"23.059176","longitude":"120.234144","grade":"特優級","type2":"文化育樂活動場所","type":"男廁所","administration":"中華民國文化部","exec":null,"diaper":null},{"country":"67000","city":"67000250","village":"南化里","number":"D250000094","name":"南化區假日廣場旁無障礙廁","address":"臺南市南化區南化里假日廣場旁","latitude":"23.04211475","longitude":"120.4779976","grade":"特優級","type2":"其他","type":"無障礙廁所","administration":"南化區公所","exec":null,"diaper":null},{"country":"67000","city":"67000250","village":"南化里","number":"D250000093","name":"南化區假日廣場旁性別友善廁","address":"臺南市南化區南化里假日廣場旁","latitude":"23.04209303","longitude":"120.4780124","grade":"特優級","type2":"其他","type":"性別友善廁所","administration":"南化區公所","exec":null,"diaper":null},{"country":"67000","city":"67000010","village":"護鎮里","number":"D010000558","name":"臺南市新營體育場體育館西側2F男廁","address":"臺南市新營區護鎮里長榮路二段７８號","latitude":"23.32060611","longitude":"120.3121183","grade":"特優級","type2":"文化育樂活動場所","type":"男廁所","administration":"臺南市政府體育局","exec":null,"diaper":null},{"country":"67000","city":"67000010","village":"護鎮里","number":"D010000557","name":"臺南市新營體育場體育館西側1F男廁2","address":"臺南市新營區護鎮里長榮路二段７８號","latitude":"23.32060611","longitude":"120.3121183","grade":"特優級","type2":"文化育樂活動場所","type":"男廁所","administration":"臺南市政府體育局","exec":null,"diaper":null},{"country":"67000","city":"67000010","village":"護鎮里","number":"D010000556","name":"臺南市新營體育場體育館西側1F男廁1","address":"臺南市新營區護鎮里長榮路二段７８號","latitude":"23.32060611","longitude":"120.3121183","grade":"特優級","type2":"文化育樂活動場所","type":"男廁所","administration":"臺南市政府體育局","exec":null,"diaper":null},{"country":"67000","city":"67000010","village":"護鎮里","number":"D010000555","name":"臺南市新營體育場體育館東側2F女廁","address":"臺南市新營區護鎮里長榮路二段７８號","latitude":"23.32060611","longitude":"120.3121183","grade":"特優級","type2":"文化育樂活動場所","type":"女廁所","administration":"臺南市政府體育局","exec":null,"diaper":null},{"country":"67000","city":"67000010","village":"護鎮里","number":"D010000545","name":"新營體育場田徑場西南側1F男廁","address":"臺南市新營區護鎮里長榮路二段７８號","latitude":"23.32060611","longitude":"120.3121183","grade":"特優級","type2":"文化育樂活動場所","type":"男廁所","administration":"臺南市政府體育局","exec":null,"diaper":null},{"country":"67000","city":"67000010","village":"護鎮里","number":"D010000544","name":"臺南市新營體育場田徑場南側桌球室女廁","address":"臺南市新營區護鎮里長榮路二段７８號","latitude":"23.32060611","longitude":"120.3121183","grade":"特優級","type2":"文化育樂活動場所","type":"女廁所","administration":"臺南市政府體育局","exec":null,"diaper":null},{"country":"67000","city":"67000010","village":"護鎮里","number":"D010000543","name":"臺南市新營體育場田徑場6號出口下女廁","address":"臺南市新營區護鎮里長榮路二段７８號","latitude":"23.32060611","longitude":"120.3121183","grade":"特優級","type2":"文化育樂活動場所","type":"女廁所","administration":"臺南市政府體育局","exec":null,"diaper":null},{"country":"67000","city":"67000010","village":"護鎮里","number":"D010000542","name":"臺南市新營體育場田徑場6號出口下男廁","address":"臺南市新營區護鎮里長榮路二段７８號","latitude":"23.32060611","longitude":"120.3121183","grade":"特優級","type2":"文化育樂活動場所","type":"男廁所","administration":"臺南市政府體育局","exec":null,"diaper":null},{"country":"67000","city":"67000010","village":"護鎮里","number":"D010000541","name":"臺南市新營體育場田徑場5號出口下女廁","address":"臺南市新營區護鎮里長榮路二段７８號","latitude":"23.32060611","longitude":"120.3121183","grade":"特優級","type2":"文化育樂活動場所","type":"女廁所","administration":"臺南市政府體育局","exec":null,"diaper":null},{"country":"67000","city":"67000010","village":"護鎮里","number":"D010000540","name":"臺南市新營體育場田徑場5號出口下男廁","address":"臺南市新營區護鎮里長榮路二段７８號","latitude":"23.32060611","longitude":"120.3121183","grade":"特優級","type2":"文化育樂活動場所","type":"男廁所","administration":"臺南市政府體育局","exec":null,"diaper":null},{"country":"67000","city":"67000010","village":"護鎮里","number":"D010000539","name":"臺南市新營體育場田徑場4號出口下女廁","address":"臺南市新營區護鎮里長榮路二段７８號","latitude":"23.32060611","longitude":"120.3121183","grade":"特優級","type2":"文化育樂活動場所","type":"女廁所","administration":"臺南市政府體育局","exec":null,"diaper":null},{"country":"67000","city":"67000010","village":"護鎮里","number":"D010000538","name":"臺南市新營體育場田徑場4號出口下男廁","address":"臺南市新營區護鎮里長榮路二段７８號","latitude":"23.32060611","longitude":"120.3121183","grade":"特優級","type2":"文化育樂活動場所","type":"男廁所","administration":"臺南市政府體育局","exec":null,"diaper":null},{"country":"67000","city":"67000310","village":"東灣里","number":"D310000719","name":"遠大加油站無障礙廁","address":"臺南市永康區東灣里民族路","latitude":"23.00077094","longitude":"120.2736561","grade":"特優級","type2":"商業營業場所","type":"無障礙廁所","administration":"經濟部","exec":null,"diaper":null},{"country":"67000","city":"67000270","village":"仁愛里","number":"D270000186","name":"台南仁德秀泰影城無障礙廁","address":"臺南市仁德區仁愛里大同路三段759號","latitude":"22.947288","longitude":"120.219943","grade":"特優級","type2":"文化育樂活動場所","type":"無障礙廁所","administration":"派帝娜實業股份有限公司","exec":null,"diaper":null},{"country":"67000","city":"67000270","village":"仁愛里","number":"D270000185","name":"台南仁德秀泰影城男廁","address":"臺南市仁德區仁愛里大同路三段759號","latitude":"22.947288","longitude":"120.219943","grade":"特優級","type2":"文化育樂活動場所","type":"男廁所","administration":"派帝娜實業股份有限公司","exec":null,"diaper":null},{"country":"67000","city":"67000270","village":"仁愛里","number":"D270000184","name":"台南仁德秀泰影城女廁","address":"臺南市仁德區仁愛里大同路三段759號","latitude":"22.947288","longitude":"120.219943","grade":"特優級","type2":"文化育樂活動場所","type":"女廁所","administration":"派帝娜實業股份有限公司","exec":null,"diaper":null},{"country":"67000","city":"67000260","village":"榮和里","number":"D260000013","name":"左鎮化石園區探索館化石補給站親子廁","address":"臺南市左鎮區榮和里菜寮61號之11","latitude":"23.064416","longitude":"120.389199","grade":"特優級","type2":"文化育樂活動場所","type":"親子廁所","administration":"臺南市政府文化局","exec":null,"diaper":null},{"country":"67000","city":"67000260","village":"榮和里","number":"D260000012","name":"左鎮化石園區探索館化石補給站混合廁","address":"臺南市左鎮區榮和里菜寮61號之11","latitude":"23.064416","longitude":"120.389199","grade":"特優級","type2":"文化育樂活動場所","type":"混合廁所","administration":"臺南市政府文化局","exec":null,"diaper":null},{"country":"67000","city":"67000260","village":"榮和里","number":"D260000011","name":"左鎮化石園區生命演化館3館後方女廁","address":"臺南市左鎮區榮和里菜寮61號之11","latitude":"23.064447","longitude":"120.389","grade":"特優級","type2":"文化育樂活動場所","type":"女廁所","administration":"臺南市政府文化局","exec":null,"diaper":null},{"country":"67000","city":"67000160","village":"忠嘉里","number":"D160000065","name":"將軍分駐所","address":"臺南市將軍區忠嘉里忠興","latitude":"23.199168","longitude":"120.158913","grade":"特優級","type2":"民眾洽公場所","type":"混合廁所","administration":"縣市政府","exec":null,"diaper":null},{"country":"67000","city":"67000160","village":"忠嘉里","number":"D160000064","name":"學甲戶政事務所將軍辦公處混合廁","address":"臺南市將軍區忠嘉里忠興","latitude":"23.199593","longitude":"120.159389","grade":"特優級","type2":"民眾洽公場所","type":"混合廁所","administration":"縣市政府","exec":null,"diaper":null},{"country":"67000","city":"67000370","village":"城隍里","number":"D370000648","name":"新光三越台南中山店13F女廁","address":"臺南市中西區城隍里中山路","latitude":"22.99507","longitude":"120.209871","grade":"特優級","type2":"商業營業場所","type":"女廁所","administration":"其他","exec":null,"diaper":null},{"country":"67000","city":"67000370","village":"城隍里","number":"D370000647","name":"新光三越台南中山店11F親子廁","address":"臺南市中西區城隍里中山路","latitude":"22.99507","longitude":"120.209871","grade":"特優級","type2":"商業營業場所","type":"親子廁所","administration":"其他","exec":null,"diaper":null},{"country":"67000","city":"67000370","village":"城隍里","number":"D370000646","name":"新光三越台南中山店11F女廁","address":"臺南市中西區城隍里中山路","latitude":"22.99507","longitude":"120.209871","grade":"特優級","type2":"商業營業場所","type":"女廁所","administration":"其他","exec":null,"diaper":null},{"country":"67000","city":"67000370","village":"城隍里","number":"D370000645","name":"新光三越台南中山店10F男廁","address":"臺南市中西區城隍里中山路","latitude":"22.99507","longitude":"120.209871","grade":"特優級","type2":"商業營業場所","type":"男廁所","administration":"其他","exec":null,"diaper":null},{"country":"67000","city":"67000370","village":"城隍里","number":"D370000644","name":"新光三越台南中山店10F女廁","address":"臺南市中西區城隍里中山路","latitude":"22.99507","longitude":"120.209871","grade":"特優級","type2":"商業營業場所","type":"女廁所","administration":"其他","exec":null,"diaper":null},{"country":"67000","city":"67000370","village":"城隍里","number":"D370000643","name":"新光三越台南中山店9F男廁","address":"臺南市中西區城隍里中山路","latitude":"22.99507","longitude":"120.209871","grade":"特優級","type2":"商業營業場所","type":"男廁所","administration":"其他","exec":null,"diaper":null},{"country":"67000","city":"67000370","village":"城隍里","number":"D370000642","name":"新光三越台南中山店9F女廁","address":"臺南市中西區城隍里中山路","latitude":"22.99507","longitude":"120.209871","grade":"特優級","type2":"商業營業場所","type":"女廁所","administration":"其他","exec":null,"diaper":null},{"country":"67000","city":"67000370","village":"赤嵌里","number":"D370000162","name":"吳園藝文中心柳屋女廁","address":"臺南市中西區赤嵌里民權路二段","latitude":"22.994286","longitude":"120.206025","grade":"特優級","type2":"觀光地區及風景區","type":"女廁所","administration":"縣市政府","exec":null,"diaper":null},{"country":"67000","city":"67000370","village":"赤嵌里","number":"D370000161","name":"吳園藝文中心公會所旁男廁","address":"臺南市中西區赤嵌里民權路二段","latitude":"22.994286","longitude":"120.206025","grade":"特優級","type2":"觀光地區及風景區","type":"男廁所","administration":"縣市政府","exec":null,"diaper":null},{"country":"67000","city":"67000370","village":"赤嵌里","number":"D370000160","name":"吳園藝文中心公會所旁女廁","address":"臺南市中西區赤嵌里民權路二段","latitude":"22.994286","longitude":"120.206025","grade":"特優級","type2":"觀光地區及風景區","type":"女廁所","administration":"縣市政府","exec":null,"diaper":null},{"country":"67000","city":"67000370","village":"赤嵌里","number":"D370000202","name":"臺灣首廟天壇男廁","address":"臺南市中西區赤嵌里忠義路二段","latitude":"22.99381","longitude":"120.204051","grade":"優等級","type2":"宗教禮儀場所","type":"男廁所","administration":"其他","exec":null,"diaper":null},{"country":"67000","city":"67000370","village":"赤嵌里","number":"D370000201","name":"臺灣首廟天壇女廁","address":"臺南市中西區赤嵌里忠義路二段","latitude":"22.99381","longitude":"120.204051","grade":"優等級","type2":"宗教禮儀場所","type":"女廁所","administration":"其他","exec":null,"diaper":null},{"country":"67000","city":"67000360","village":"王城里","number":"D360000223","name":"湖濱水鳥公園西側女廁","address":"臺南市安平區王城里州平路(西側)","latitude":"23.000584","longitude":"120.150023","grade":"特優級","type2":"公園","type":"女廁所","administration":"縣市政府","exec":null,"diaper":null},{"country":"67000","city":"67000050","village":"竹新里","number":"D050000051","name":"新營服務區北上加油站旁女廁","address":"臺南市後壁區竹新里新厝72號","latitude":"23.339041","longitude":"120.312353","grade":"特優級","type2":"交通","type":"女廁所","administration":"交通部高速公路局南區養護工程分局","exec":null,"diaper":null},{"country":"67000","city":"67000050","village":"竹新里","number":"D050000050","name":"新營服務區北上加油站旁男廁","address":"臺南市後壁區竹新里新厝72號","latitude":"23.339041","longitude":"120.312353","grade":"特優級","type2":"交通","type":"男廁所","administration":"交通部高速公路局南區養護工程分局","exec":null,"diaper":null},{"country":"67000","city":"67000330","village":"喜東里","number":"D330000373","name":"明興路加油站男廁","address":"臺南市南　區喜東里明興路465號","latitude":"22.946903","longitude":"120.183593","grade":"特優級","type2":"商業營業場所","type":"男廁所","administration":"明興發展有限公司","exec":null,"diaper":null},{"country":"67000","city":"67000330","village":"喜東里","number":"D330000372","name":"明興路加油站女廁","address":"臺南市南　區喜東里明興路465號","latitude":"22.946903","longitude":"120.183593","grade":"特優級","type2":"商業營業場所","type":"女廁所","administration":"明興發展有限公司","exec":null,"diaper":null},{"country":"67000","city":"67000200","village":"永就里","number":"D200000282","name":"北基新市加油站女廁","address":"臺南市新市區永就里中山路２２７之３號","latitude":"23.067283","longitude":"120.290744","grade":"特優級","type2":"商業營業場所","type":"女廁所","administration":"北基國際股份有限公司","exec":null,"diaper":null},{"country":"67000","city":"67000190","village":"小新里","number":"D190000216","name":"大成加油站無障礙廁","address":"臺南市善化區小新里成功路５８號","latitude":"23.128379","longitude":"120.314927","grade":"特優級","type2":"商業營業場所","type":"無障礙廁所","administration":"永新加油站股份有限公司","exec":null,"diaper":null},{"country":"67000","city":"67000190","village":"小新里","number":"D190000215","name":"大成加油站男廁","address":"臺南市善化區小新里成功路５８號","latitude":"23.128379","longitude":"120.314927","grade":"特優級","type2":"商業營業場所","type":"男廁所","administration":"永新加油站股份有限公司","exec":null,"diaper":null},{"country":"67000","city":"67000190","village":"小新里","number":"D190000214","name":"大成加油站女廁","address":"臺南市善化區小新里成功路５８號","latitude":"23.128379","longitude":"120.314927","grade":"特優級","type2":"商業營業場所","type":"女廁所","administration":"永新加油站股份有限公司","exec":null,"diaper":null},{"country":"67000","city":"67000280","village":"看東里","number":"D280000422","name":"統好歸仁加油站無障礙廁","address":"臺南市歸仁區看東里中山路一段261號","latitude":"22.965071","longitude":"120.303946","grade":"特優級","type2":"商業營業場所","type":"無障礙廁所","administration":"統好加油站有限公司歸仁加油站","exec":null,"diaper":null},{"country":"67000","city":"67000280","village":"看東里","number":"D280000421","name":"統好歸仁加油站男廁","address":"臺南市歸仁區看東里中山路一段261號","latitude":"22.965071","longitude":"120.303946","grade":"特優級","type2":"商業營業場所","type":"男廁所","administration":"統好加油站有限公司","exec":null,"diaper":null},{"country":"67000","city":"67000190","village":"文正里","number":"D190000213","name":"進學加油站男廁","address":"臺南市善化區文正里進學路１０９號","latitude":"23.137687","longitude":"120.288285","grade":"特優級","type2":"商業營業場所","type":"男廁所","administration":"新松建興業股份有限公司","exec":null,"diaper":null},{"country":"67000","city":"67000190","village":"文正里","number":"D190000212","name":"進學加油站女廁","address":"臺南市善化區文正里進學路１０９號","latitude":"23.137687","longitude":"120.288285","grade":"特優級","type2":"商業營業場所","type":"女廁所","administration":"新松建興業股份有限公司","exec":null,"diaper":null},{"country":"67000","city":"67000160","village":"長沙里","number":"D160000145","name":"將軍交流道加油站男廁","address":"臺南市將軍區長沙里台南市將軍區長沙139號","latitude":"23.214858","longitude":"120.109748","grade":"特優級","type2":"商業營業場所","type":"男廁所","administration":"經濟部","exec":null,"diaper":null},{"country":"67000","city":"67000160","village":"長沙里","number":"D160000144","name":"將軍交流道加油站女廁","address":"臺南市將軍區長沙里台南市將軍區長沙139號","latitude":"23.214858","longitude":"120.109748","grade":"特優級","type2":"商業營業場所","type":"女廁所","administration":"經濟部","exec":null,"diaper":null},{"country":"67000","city":"67000320","village":"莊敬里","number":"D320000852","name":"永昇加油站男廁","address":"臺南市東　區莊敬里中華東路一段","latitude":"22.99793","longitude":"120.23436","grade":"特優級","type2":"商業營業場所","type":"男廁所","administration":"經濟部","exec":null,"diaper":null},{"country":"67000","city":"67000320","village":"莊敬里","number":"D320000851","name":"永昇加油站女廁","address":"臺南市東　區莊敬里中華東路一段","latitude":"22.99793","longitude":"120.23436","grade":"特優級","type2":"商業營業場所","type":"女廁所","administration":"經濟部","exec":null,"diaper":null},{"country":"67000","city":"67000100","village":"烏山頭里","number":"D100000209","name":"順宇加油站男廁","address":"臺南市官田區烏山頭里烏山頭９１號之１００","latitude":"23.216269","longitude":"120.349751","grade":"特優級","type2":"商業營業場所","type":"男廁所","administration":"經濟部","exec":null,"diaper":null},{"country":"67000","city":"67000350","village":"溪心里","number":"D350000479","name":"轂豐加油站男廁","address":"臺南市安南區溪心里安吉路一段４６５號","latitude":"23.047926","longitude":"120.188635","grade":"特優級","type2":"商業營業場所","type":"男廁所","administration":"轂豐加油站有限公司","exec":null,"diaper":null},{"country":"67000","city":"67000350","village":"溪心里","number":"D350000478","name":"轂豐加油站女廁","address":"臺南市安南區溪心里安吉路一段４６５號","latitude":"23.047926","longitude":"120.188635","grade":"特優級","type2":"商業營業場所","type":"女廁所","administration":"轂豐加油站有限公司","exec":null,"diaper":null},{"country":"67000","city":"67000350","village":"溪心里","number":"D350000477","name":"甲上加油站男廁","address":"臺南市安南區溪心里安吉路一段７５９號","latitude":"23.054074","longitude":"120.189865","grade":"特優級","type2":"商業營業場所","type":"男廁所","administration":"甲上加油站有限公司","exec":null,"diaper":null},{"country":"67000","city":"67000350","village":"溪心里","number":"D350000476","name":"甲上加油站女廁","address":"臺南市安南區溪心里安吉路一段７５９號","latitude":"23.054074","longitude":"120.189865","grade":"特優級","type2":"商業營業場所","type":"女廁所","administration":"甲上加油站有限公司","exec":null,"diaper":null},{"country":"67000","city":"67000350","village":"東和里","number":"D350000475","name":"加州加油站男廁","address":"臺南市安南區東和里長和路一段95號","latitude":"23.053984","longitude":"120.236682","grade":"特優級","type2":"商業營業場所","type":"男廁所","administration":"加州加油站有限公司","exec":null,"diaper":null},{"country":"67000","city":"67000150","village":"大埕里","number":"D150000049","name":"七股區調解委員會2F混合廁","address":"臺南市七股區大埕里大埕378號","latitude":"23.140288","longitude":"120.138775","grade":"特優級","type2":"民眾洽公場所","type":"混合廁所","administration":"七股區公所","exec":null,"diaper":null},{"country":"67000","city":"67000150","village":"大埕里","number":"D150000048","name":"七股區調解委員會1F混合廁","address":"臺南市七股區大埕里大埕378號","latitude":"23.140288","longitude":"120.138775","grade":"特優級","type2":"民眾洽公場所","type":"混合廁所","administration":"七股區公所","exec":null,"diaper":null},{"country":"67000","city":"67000320","village":"東智里","number":"D320000475","name":"中油生產路加油站無障礙廁","address":"臺南市東　區東智里中華東路三段","latitude":"22.964363","longitude":"120.216777","grade":"特優級","type2":"商業營業場所","type":"無障礙廁所","administration":"經濟部","exec":null,"diaper":null},{"country":"67000","city":"67000320","village":"東智里","number":"D320000474","name":"中油生產路加油站男廁","address":"臺南市東　區東智里大同路二段","latitude":"22.964363","longitude":"120.216777","grade":"特優級","type2":"商業營業場所","type":"男廁所","administration":"經濟部","exec":null,"diaper":null},{"country":"67000","city":"67000320","village":"東智里","number":"D320000473","name":"中油生產路加油站女廁","address":"臺南市東　區東智里大同路二段","latitude":"22.964363","longitude":"120.216777","grade":"特優級","type2":"商業營業場所","type":"女廁所","administration":"經濟部","exec":null,"diaper":null},{"country":"67000","city":"67000280","village":"武東里","number":"D280000415","name":"沙崙火車站親子廁","address":"臺南市歸仁區武東里歸仁大道102號","latitude":"22.92395","longitude":"120.286302","grade":"特優級","type2":"交通","type":"親子廁所","administration":"國營臺灣鐵路股份有限公司","exec":null,"diaper":null},{"country":"67000","city":"67000280","village":"大潭里","number":"D280000414","name":"長榮大學火車站親子廁","address":"臺南市歸仁區大潭里長大路15號","latitude":"22.907606","longitude":"120.272582","grade":"特優級","type2":"交通","type":"親子廁所","administration":"國營臺灣鐵路股份有限公司","exec":null,"diaper":null},{"country":"67000","city":"67000030","village":"永安里","number":"D030000158","name":"白河張慶芳紀念圖書館1F男廁","address":"臺南市白河區永安里新興路573號","latitude":"23.353425","longitude":"120.414315","grade":"特優級","type2":"文化育樂活動場所","type":"男廁所","administration":"白河區公所","exec":null,"diaper":null},{"country":"67000","city":"67000330","village":"彰南里","number":"D330000358","name":"中油安平工業區加油站無障礙廁","address":"臺南市南　區彰南里中華西路一段65號","latitude":"22.972961","longitude":"120.183442","grade":"特優級","type2":"商業營業場所","type":"無障礙廁所","administration":"中油台南營業處","exec":null,"diaper":null},{"country":"67000","city":"67000330","village":"廣州里","number":"D330000357","name":"水萍塭公園臨金華路無障礙廁","address":"臺南市南　區廣州里夏林路4號","latitude":"22.986923","longitude":"120.192205","grade":"特優級","type2":"公園","type":"無障礙廁所","administration":"臺南市政府工務局","exec":null,"diaper":null},{"country":"67000","city":"67000330","village":"廣州里","number":"D330000356","name":"水萍塭公園臨客家文化館親子廁","address":"臺南市南　區廣州里建南路32號","latitude":"22.985509","longitude":"120.19409","grade":"特優級","type2":"公園","type":"親子廁所","administration":"臺南市政府工務局","exec":null,"diaper":null},{"country":"67000","city":"67000330","village":"廣州里","number":"D330000355","name":"水萍塭公園臨永華路無障礙廁","address":"臺南市南　區廣州里永華路一段109號","latitude":"22.987386","longitude":"120.194203","grade":"特優級","type2":"公園","type":"無障礙廁所","administration":"臺南市政府工務局","exec":null,"diaper":null},{"country":"67000","city":"67000010","village":"護鎮里","number":"D010000500","name":"臺南市新營區體育場體育館1樓北側親子廁","address":"臺南市新營區護鎮里長榮路二段７８號","latitude":"23.32116868","longitude":"120.3095198","grade":"特優級","type2":"民眾洽公場所","type":"親子廁所","administration":"臺南市政府體育局","exec":null,"diaper":null},{"country":"67000","city":"67000010","village":"護鎮里","number":"D010000499","name":"臺南市新營區體育場體育館2樓南側混合廁","address":"臺南市新營區護鎮里長榮路二段７８號","latitude":"23.32116868","longitude":"120.3095198","grade":"特優級","type2":"民眾洽公場所","type":"混合廁所","administration":"臺南市政府體育局","exec":null,"diaper":null},{"country":"67000","city":"67000360","village":"平通里","number":"D360000349","name":"7-11亞萬門市性別友善廁","address":"臺南市安平區平通里永華路二段","latitude":"22.991603","longitude":"120.169107","grade":"特優級","type2":"商業營業場所","type":"性別友善廁所","administration":"其他","exec":null,"diaper":null},{"country":"67000","city":"67000270","village":"中洲里","number":"D270000889","name":"中洲示範公墓祖先牌位室混合廁","address":"臺南市仁德區中洲里中洲路225號","latitude":"22.909041","longitude":"120.260409","grade":"特優級","type2":"宗教禮儀場所","type":"混合廁所","administration":"仁德區公所","exec":null,"diaper":null},{"country":"67000","city":"67000010","village":"護鎮里","number":"D010000515","name":"臺南市新營體育場田徑場檢錄處旁女廁","address":"臺南市新營區護鎮里長榮路二段７８號","latitude":"23.3207204","longitude":"120.3121162","grade":"特優級","type2":"文化育樂活動場所","type":"女廁所","administration":"臺南市體育局","exec":null,"diaper":null},{"country":"67000","city":"67000010","village":"護鎮里","number":"D010000514","name":"臺南市新營體育場田徑場檢錄處旁男廁","address":"臺南市新營區護鎮里長榮路二段７８號","latitude":"23.3207204","longitude":"120.3121162","grade":"特優級","type2":"文化育樂活動場所","type":"男廁所","administration":"臺南市體育局","exec":null,"diaper":null},{"country":"67000","city":"67000010","village":"護鎮里","number":"D010000513","name":"臺南市新營體育場田徑場9號出口下女廁","address":"臺南市新營區護鎮里長榮路二段７８號","latitude":"23.3207204","longitude":"120.3121162","grade":"特優級","type2":"文化育樂活動場所","type":"女廁所","administration":"臺南市體育局","exec":null,"diaper":null},{"country":"67000","city":"67000010","village":"護鎮里","number":"D010000512","name":"臺南市新營體育場田徑場9號出口下性別友善廁","address":"臺南市新營區護鎮里長榮路二段７８號","latitude":"23.3207204","longitude":"120.3121162","grade":"特優級","type2":"文化育樂活動場所","type":"性別友善廁所","administration":"臺南市體育局","exec":null,"diaper":null},{"country":"67000","city":"67000010","village":"護鎮里","number":"D010000511","name":"臺南市新營體育場田徑場8號出口下女廁","address":"臺南市新營區護鎮里長榮路二段７８號","latitude":"23.3207204","longitude":"120.3121162","grade":"特優級","type2":"文化育樂活動場所","type":"女廁所","administration":"臺南市體育局","exec":null,"diaper":null},{"country":"67000","city":"67000010","village":"護鎮里","number":"D010000510","name":"臺南市新營體育場田徑場8號出口下男廁","address":"臺南市新營區護鎮里長榮路二段７８號","latitude":"23.3207204","longitude":"120.3121162","grade":"特優級","type2":"文化育樂活動場所","type":"男廁所","administration":"臺南市體育局","exec":null,"diaper":null},{"country":"67000","city":"67000010","village":"護鎮里","number":"D010000509","name":"臺南市新營體育場田徑場7號出口下女廁","address":"臺南市新營區護鎮里長榮路二段７８號","latitude":"23.3207204","longitude":"120.3121162","grade":"特優級","type2":"文化育樂活動場所","type":"女廁所","administration":"臺南市體育局","exec":null,"diaper":null},{"country":"67000","city":"67000010","village":"護鎮里","number":"D010000508","name":"臺南市新營體育場田徑場7號出口下男廁","address":"臺南市新營區護鎮里長榮路二段７８號","latitude":"23.3207204","longitude":"120.3121162","grade":"特優級","type2":"文化育樂活動場所","type":"男廁所","administration":"臺南市體育局","exec":null,"diaper":null},{"country":"67000","city":"67000020","village":"津城里","number":"D020000208","name":"鹽水文物陳列館1F女廁","address":"臺南市鹽水區津城里武廟路８７號之１","latitude":"23.324065","longitude":"120.265618","grade":"特優級","type2":"文化育樂活動場所","type":"女廁所","administration":"縣市政府","exec":null,"diaper":null},{"country":"67000","city":"67000020","village":"津城里","number":"D020000207","name":"鹽水文物陳列館1F性別友善廁","address":"臺南市鹽水區津城里武廟路８７號之１","latitude":"23.324065","longitude":"120.265618","grade":"特優級","type2":"文化育樂活動場所","type":"性別友善廁所","administration":"縣市政府","exec":null,"diaper":null},{"country":"67000","city":"67000330","village":"喜北里","number":"D330000382","name":"小美軍沙灘親子廁","address":"臺南市南　區喜北里無","latitude":"22.95033","longitude":"120.172485","grade":"特優級","type2":"觀光地區及風景區","type":"親子廁所","administration":"臺南市政府觀光旅遊局","exec":null,"diaper":null},{"country":"67000","city":"67000330","village":"喜北里","number":"D330000381","name":"小美軍沙灘無障礙廁","address":"臺南市南　區喜北里無","latitude":"22.95033","longitude":"120.172485","grade":"特優級","type2":"觀光地區及風景區","type":"無障礙廁所","administration":"臺南市政府觀光旅遊局","exec":null,"diaper":null},{"country":"67000","city":"67000330","village":"喜北里","number":"D330000380","name":"小美軍沙灘男廁","address":"臺南市南　區喜北里無","latitude":"22.95033","longitude":"120.172485","grade":"特優級","type2":"觀光地區及風景區","type":"男廁所","administration":"臺南市政府觀光旅遊局","exec":null,"diaper":null},{"country":"67000","city":"67000330","village":"喜北里","number":"D330000379","name":"小美軍沙灘女廁","address":"臺南市南　區喜北里無","latitude":"22.95033","longitude":"120.172485","grade":"特優級","type2":"觀光地區及風景區","type":"女廁所","administration":"臺南市政府觀光旅遊局","exec":null,"diaper":null},{"country":"67000","city":"67000320","village":"後甲里","number":"D320000862","name":"大益夜市女廁","address":"臺南市東區後甲里平實路１號","latitude":"22.99326","longitude":"120.23437","grade":"特優級","type2":"休閒娛樂場所","type":"女廁所","administration":"縣市政府","exec":null,"diaper":null},{"country":"67000","city":"67000320","village":"後甲里","number":"D320000861","name":"大益夜市男廁","address":"臺南市東區後甲里平實路１號","latitude":"22.99326","longitude":"120.23437","grade":"特優級","type2":"休閒娛樂場所","type":"男廁所","administration":"縣市政府","exec":null,"diaper":null},{"country":"67000","city":"67000320","village":"仁和里","number":"D320000860","name":"仁和社區活動中心1F無障礙廁","address":"臺南市東區仁和里仁和路１１３巷３９號","latitude":"22.971046","longitude":"120.23423","grade":"特優級","type2":"社福機構、集會場所","type":"無障礙廁所","administration":"縣市政府","exec":null,"diaper":null},{"country":"67000","city":"67000320","village":"仁和里","number":"D320000859","name":"仁和社區活動中心1F男廁","address":"臺南市東區仁和里仁和路１１３巷３９號","latitude":"22.971046","longitude":"120.23423","grade":"特優級","type2":"社福機構、集會場所","type":"男廁所","administration":"縣市政府","exec":null,"diaper":null},{"country":"67000","city":"67000320","village":"大學里","number":"D320000855","name":"大學東寧社區聯合活動中心1F男廁","address":"臺南市東區大學里林森路二段２５２號","latitude":"22.992045","longitude":"120.224256","grade":"特優級","type2":"社福機構、集會場所","type":"男廁所","administration":"縣市政府","exec":null,"diaper":null},{"country":"67000","city":"67000370","village":"大涼里","number":"D370000960","name":"中油中華西路南加油站無障礙廁","address":"臺南市中西區大涼里中華西路二段２號","latitude":"22.987145","longitude":"120.186984","grade":"特優級","type2":"","type":"無障礙廁所","administration":"經濟部","exec":null,"diaper":null},{"country":"67000","city":"67000350","village":"鹿耳里","number":"D350000457","name":"媽祖宮公園旁停車場無障礙廁","address":"臺南市安南區鹿耳里無","latitude":"23.03651351","longitude":"120.1251206","grade":"特優級","type2":"公園","type":"無障礙廁所","administration":"臺南市政府交通局","exec":null,"diaper":null},{"country":"67000","city":"67000350","village":"鹿耳里","number":"D350000456","name":"媽祖宮公園旁停車場男廁","address":"臺南市安南區鹿耳里無","latitude":"23.03651351","longitude":"120.1251206","grade":"特優級","type2":"公園","type":"男廁所","administration":"臺南市政府交通局","exec":null,"diaper":null},{"country":"67000","city":"67000350","village":"鹿耳里","number":"D350000455","name":"媽祖宮公園旁停車場女廁","address":"臺南市安南區鹿耳里無","latitude":"23.03651351","longitude":"120.1251206","grade":"特優級","type2":"公園","type":"女廁所","administration":"台南市政府交通局","exec":null,"diaper":null},{"country":"67000","city":"67000070","village":"埤頭里","number":"D070000096","name":"台亞麻豆交流道南站無障礙廁","address":"臺南市麻豆區埤頭里臺南市麻豆區埤頭里苓子林１８號","latitude":"23.178744","longitude":"120.228873","grade":"特優級","type2":"商業營業場所","type":"無障礙廁所","administration":"其他","exec":null,"diaper":null},{"country":"67000","city":"67000080","village":"茅營里","number":"D080000048","name":"下營觀音寺男廁","address":"臺南市下營區茅營里茅港尾81號","latitude":"23.21982","longitude":"120.28376","grade":"優等級","type2":"宗教禮儀場所","type":"男廁所","administration":"下營觀音寺管理委員會","exec":null,"diaper":null},{"country":"67000","city":"67000080","village":"茅營里","number":"D080000047","name":"下營觀音寺女廁","address":"臺南市下營區茅營里茅港尾81號","latitude":"23.219535","longitude":"120.283786","grade":"優等級","type2":"宗教禮儀場所","type":"女廁所","administration":"下營觀音寺管理委員會","exec":null,"diaper":null},{"country":"67000","city":"67000080","village":"茅營里","number":"D080000044","name":"茅港派出所","address":"臺南市下營區茅營里茅港尾298號","latitude":"23.217021","longitude":"120.281717","grade":"特優級","type2":"民眾洽公場所","type":"混合廁所","administration":"臺南市政府警察局","exec":null,"diaper":null},{"country":"67000","city":"67000070","village":"井東里","number":"D070000160","name":"安業加油站男廁","address":"臺南市麻豆區井東里臺南市麻豆區井東里安業２７５號之６","latitude":"23.16275","longitude":"120.246975","grade":"特優級","type2":"商業營業場所","type":"男廁所","administration":"其他","exec":null,"diaper":null},{"country":"67000","city":"67000070","village":"井東里","number":"D070000159","name":"安業加油站女廁","address":"臺南市麻豆區井東里臺南市麻豆區井東里安業２７５號之６","latitude":"23.16275","longitude":"120.246975","grade":"特優級","type2":"商業營業場所","type":"女廁所","administration":"其他","exec":null,"diaper":null},{"country":"67000","city":"67000050","village":"上茄苳里","number":"D050000106","name":"吉克加油站男廁","address":"臺南市後壁區上茄苳里上茄苳146號之48","latitude":"23.390782","longitude":"120.377136","grade":"特優級","type2":"商業營業場所","type":"男廁所","administration":"吉克加油站","exec":null,"diaper":null},{"country":"67000","city":"67000050","village":"上茄苳里","number":"D050000105","name":"吉克加油站女廁","address":"臺南市後壁區上茄苳里上茄苳146號之48","latitude":"23.390782","longitude":"120.377136","grade":"特優級","type2":"商業營業場所","type":"女廁所","administration":"吉克加油站","exec":null,"diaper":null},{"country":"67000","city":"67000030","village":"詔豐里","number":"D030000092","name":"蓮花公園男廁","address":"臺南市白河區詔豐里頂山?7之20號(非停車場)","latitude":"23.387699","longitude":"120.41797","grade":"特優級","type2":"公園","type":"男廁所","administration":"白河區公所","exec":null,"diaper":null},{"country":"67000","city":"67000030","village":"詔豐里","number":"D030000091","name":"蓮花公園女廁","address":"臺南市白河區詔豐里頂山?7之20號(非停車場)","latitude":"23.387699","longitude":"120.41797","grade":"特優級","type2":"公園","type":"女廁所","administration":"白河區公所","exec":null,"diaper":null},{"country":"67000","city":"67000370","village":"小西門里","number":"D370000609","name":"東菜市市場男廁","address":"臺南市中西區小西門里青年路","latitude":"22.991455","longitude":"120.20992","grade":"特優級","type2":"商業營業場所","type":"男廁所","administration":"縣市政府","exec":null,"diaper":null},{"country":"67000","city":"67000370","village":"小西門里","number":"D370000608","name":"東菜市市場女廁","address":"臺南市中西區小西門里青年路","latitude":"22.991455","longitude":"120.20992","grade":"特優級","type2":"商業營業場所","type":"女廁所","administration":"縣市政府","exec":null,"diaper":null},{"country":"67000","city":"67000370","village":"淺草里","number":"D370000541","name":"西門淺草公有零售市場無障礙廁","address":"臺南市中西區淺草里國華街三段","latitude":"22.993764","longitude":"120.197703","grade":"特優級","type2":"商業營業場所","type":"無障礙廁所","administration":"縣市政府","exec":null,"diaper":null},{"country":"67000","city":"67000370","village":"淺草里","number":"D370000540","name":"西門淺草公有零售市場男廁","address":"臺南市中西區淺草里國華街三段","latitude":"22.993764","longitude":"120.197703","grade":"特優級","type2":"商業營業場所","type":"男廁所","administration":"縣市政府","exec":null,"diaper":null},{"country":"67000","city":"67000370","village":"淺草里","number":"D370000539","name":"西門淺草公有零售市場女廁","address":"臺南市中西區淺草里國華街三段","latitude":"22.993764","longitude":"120.197703","grade":"特優級","type2":"商業營業場所","type":"女廁所","administration":"縣市政府","exec":null,"diaper":null},{"country":"67000","city":"67000370","village":"赤嵌里","number":"D370000179","name":"台南遠百威秀影城9F無障礙廁","address":"臺南市中西區赤嵌里公園路","latitude":"22.995446","longitude":"120.205872","grade":"特優級","type2":"休閒娛樂場所","type":"無障礙廁所","administration":"其他","exec":null,"diaper":null},{"country":"67000","city":"67000370","village":"赤嵌里","number":"D370000178","name":"台南遠百威秀影城9F男廁","address":"臺南市中西區赤嵌里公園路","latitude":"22.995446","longitude":"120.205872","grade":"特優級","type2":"休閒娛樂場所","type":"男廁所","administration":"其他","exec":null,"diaper":null},{"country":"67000","city":"67000370","village":"赤嵌里","number":"D370000177","name":"台南遠百威秀影城9F女廁","address":"臺南市中西區赤嵌里公園路","latitude":"22.995446","longitude":"120.205872","grade":"特優級","type2":"休閒娛樂場所","type":"女廁所","administration":"其他","exec":null,"diaper":null},{"country":"67000","city":"67000370","village":"赤嵌里","number":"D370000176","name":"台南遠百威秀影城7F無障礙廁","address":"臺南市中西區赤嵌里公園路","latitude":"22.995446","longitude":"120.205872","grade":"特優級","type2":"休閒娛樂場所","type":"無障礙廁所","administration":"其他","exec":null,"diaper":null},{"country":"67000","city":"67000370","village":"赤嵌里","number":"D370000175","name":"台南遠百威秀影城7F男廁","address":"臺南市中西區赤嵌里公園路","latitude":"22.995446","longitude":"120.205872","grade":"特優級","type2":"休閒娛樂場所","type":"男廁所","administration":"其他","exec":null,"diaper":null},{"country":"67000","city":"67000370","village":"赤嵌里","number":"D370000174","name":"台南遠百威秀影城7F女廁","address":"臺南市中西區赤嵌里公園路","latitude":"22.995446","longitude":"120.205872","grade":"特優級","type2":"休閒娛樂場所","type":"女廁所","administration":"其他","exec":null,"diaper":null},{"country":"67000","city":"67000370","village":"赤嵌里","number":"D370000173","name":"台南遠百威秀影城5F無障礙廁","address":"臺南市中西區赤嵌里公園路","latitude":"22.995446","longitude":"120.205872","grade":"特優級","type2":"休閒娛樂場所","type":"無障礙廁所","administration":"其他","exec":null,"diaper":null},{"country":"67000","city":"67000370","village":"赤嵌里","number":"D370000172","name":"台南遠百威秀影城5F男廁","address":"臺南市中西區赤嵌里公園路","latitude":"22.995446","longitude":"120.205872","grade":"特優級","type2":"休閒娛樂場所","type":"男廁所","administration":"其他","exec":null,"diaper":null},{"country":"67000","city":"67000370","village":"赤嵌里","number":"D370000171","name":"台南遠百威秀影城5F女廁","address":"臺南市中西區赤嵌里公園路","latitude":"22.995446","longitude":"120.205872","grade":"特優級","type2":"休閒娛樂場所","type":"女廁所","administration":"其他","exec":null,"diaper":null},{"country":"67000","city":"67000370","village":"小西門里","number":"D370000687","name":"台南新光影城8F北區無障礙廁","address":"臺南市中西區小西門里西門路一段","latitude":"22.986965","longitude":"120.198833","grade":"特優級","type2":"休閒娛樂場所","type":"無障礙廁所","administration":"其他","exec":null,"diaper":null},{"country":"67000","city":"67000170","village":"三光里","number":"D170000032","name":"三寮灣東隆宮女廁","address":"臺南市北門區三光里臺南市北門區三光里三寮灣９５號","latitude":"23.238739","longitude":"120.111964","grade":"特優級","type2":"觀光地區及風景區","type":"女廁所","administration":"其他","exec":null,"diaper":null},{"country":"67000","city":"67000170","village":"三光里","number":"D170000031","name":"三寮灣東隆宮男廁","address":"臺南市北門區三光里臺南市北門區三光里三寮灣９５號","latitude":"23.238739","longitude":"120.111964","grade":"特優級","type2":"觀光地區及風景區","type":"男廁所","administration":"其他","exec":null,"diaper":null},{"country":"67000","city":"67000320","village":"東光里","number":"D320000121","name":"賓士KTV南紡店A2館8樓北側女廁","address":"臺南市東　區東光里中華東路一段","latitude":"22.990772","longitude":"120.233334","grade":"特優級","type2":"休閒娛樂場所","type":"女廁所","administration":"其他","exec":null,"diaper":null},{"country":"67000","city":"67000320","village":"東光里","number":"D320000118","name":"南紡購物中心A2館7樓東側男廁","address":"臺南市東　區東光里中華東路一段","latitude":"22.990772","longitude":"120.233334","grade":"特優級","type2":"商業營業場所","type":"男廁所","administration":"其他","exec":null,"diaper":null},{"country":"67000","city":"67000320","village":"東光里","number":"D320000117","name":"南紡購物中心A2館7樓東側女廁","address":"臺南市東　區東光里中華東路一段","latitude":"22.990772","longitude":"120.233334","grade":"特優級","type2":"商業營業場所","type":"女廁所","administration":"其他","exec":null,"diaper":null},{"country":"67000","city":"67000320","village":"東光里","number":"D320000114","name":"南紡購物中心A2館6樓北側親子廁","address":"臺南市東　區東光里中華東路一段","latitude":"22.990772","longitude":"120.233334","grade":"特優級","type2":"商業營業場所","type":"親子廁所","administration":"其他","exec":null,"diaper":null},{"country":"67000","city":"67000320","village":"東光里","number":"D320000113","name":"南紡購物中心A2館6樓北側男廁","address":"臺南市東　區東光里中華東路一段","latitude":"22.990772","longitude":"120.233334","grade":"特優級","type2":"商業營業場所","type":"男廁所","administration":"其他","exec":null,"diaper":null},{"country":"67000","city":"67000100","village":"官田里","number":"D100000004","name":"西拉雅風景區管理處官田遊客中心南側販賣部旁男廁","address":"臺南市官田區官田里福田路99號","latitude":"23.188777","longitude":"120.335432","grade":"特優級","type2":"觀光地區及風景區","type":"男廁所","administration":"交通部觀光署西拉雅國家風景區管理處","exec":null,"diaper":null},{"country":"67000","city":"67000100","village":"官田里","number":"D100000018","name":"西拉雅風景區管理處處本部行政中心1F南側無障礙廁","address":"臺南市官田區官田里福田路99號","latitude":"23.188777","longitude":"120.335432","grade":"特優級","type2":"民眾洽公場所","type":"無障礙廁所","administration":"交通部觀光署西拉雅國家風景區管理處","exec":null,"diaper":null},{"country":"67000","city":"67000100","village":"官田里","number":"D100000017","name":"西拉雅風景區管理處處本部行政中心1F南側女廁","address":"臺南市官田區官田里福田路99號","latitude":"23.188777","longitude":"120.335432","grade":"特優級","type2":"民眾洽公場所","type":"女廁所","administration":"交通部觀光署西拉雅國家風景區管理處","exec":null,"diaper":null},{"country":"67000","city":"67000100","village":"官田里","number":"D100000016","name":"西拉雅風景區管理處處本部行政中心1F南側男廁","address":"臺南市官田區官田里福田路99號","latitude":"23.188777","longitude":"120.335432","grade":"特優級","type2":"民眾洽公場所","type":"男廁所","administration":"交通部觀光署西拉雅國家風景區管理處","exec":null,"diaper":null},{"country":"67000","city":"67000100","village":"官田里","number":"D100000015","name":"西拉雅風景區管理處處本部行政中心1F北側秘書室旁女廁","address":"臺南市官田區官田里福田路99號","latitude":"23.188777","longitude":"120.335432","grade":"特優級","type2":"民眾洽公場所","type":"女廁所","administration":"交通部觀光署西拉雅國家風景區管理處","exec":null,"diaper":null},{"country":"67000","city":"67000100","village":"官田里","number":"D100000014","name":"西拉雅風景區管理處處本部行政中心1F北側秘書室旁男廁","address":"臺南市官田區官田里福田路99號","latitude":"23.188777","longitude":"120.335432","grade":"特優級","type2":"民眾洽公場所","type":"男廁所","administration":"交通部觀光署西拉雅國家風景區管理處","exec":null,"diaper":null},{"country":"67000","city":"67000370","village":"赤嵌里","number":"D370000196","name":"中西區北極殿男廁","address":"臺南市中西區赤嵌里民權路二段","latitude":"22.994403","longitude":"120.204706","grade":"優等級","type2":"宗教禮儀場所","type":"男廁所","administration":"其他","exec":null,"diaper":null},{"country":"67000","city":"67000370","village":"赤嵌里","number":"D370000195","name":"中西區北極殿女廁","address":"臺南市中西區赤嵌里民權路二段","latitude":"22.994403","longitude":"120.204706","grade":"優等級","type2":"宗教禮儀場所","type":"女廁所","administration":"其他","exec":null,"diaper":null},{"country":"67000","city":"67000370","village":"兌悅里","number":"D370000499","name":"德州加油站混合廁","address":"臺南市中西區兌悅里民族路三段","latitude":"22.998902","longitude":"120.196257","grade":"特優級","type2":"商業營業場所","type":"混合廁所","administration":"其他","exec":null,"diaper":null},{"country":"67000","city":"67000370","village":"五條港里","number":"D370000534","name":"郭綜合醫院舊大樓小兒科外無障礙廁","address":"臺南市中西區五條港里民生路二段","latitude":"22.994858","longitude":"120.198787","grade":"特優級","type2":"社福機構、集會場所","type":"無障礙廁所","administration":"其他","exec":null,"diaper":null},{"country":"67000","city":"67000370","village":"五條港里","number":"D370000533","name":"郭綜合醫院舊大樓1F親子廁","address":"臺南市中西區五條港里民生路二段","latitude":"22.994858","longitude":"120.198787","grade":"特優級","type2":"社福機構、集會場所","type":"親子廁所","administration":"其他","exec":null,"diaper":null},{"country":"67000","city":"67000370","village":"五條港里","number":"D370000532","name":"郭綜合醫院新大樓1F無障礙廁","address":"臺南市中西區五條港里民生路二段","latitude":"22.994858","longitude":"120.198787","grade":"特優級","type2":"社福機構、集會場所","type":"無障礙廁所","administration":"其他","exec":null,"diaper":null},{"country":"67000","city":"67000370","village":"五條港里","number":"D370000531","name":"郭綜合醫院新大樓B2男廁","address":"臺南市中西區五條港里民生路二段","latitude":"22.994858","longitude":"120.198787","grade":"特優級","type2":"社福機構、集會場所","type":"男廁所","administration":"其他","exec":null,"diaper":null},{"country":"67000","city":"67000370","village":"五條港里","number":"D370000530","name":"郭綜合醫院新大樓B2女廁","address":"臺南市中西區五條港里民生路二段","latitude":"22.994858","longitude":"120.198787","grade":"特優級","type2":"社福機構、集會場所","type":"女廁所","administration":"其他","exec":null,"diaper":null},{"country":"67000","city":"67000370","village":"五條港里","number":"D370000529","name":"郭綜合醫院新大樓B1男廁","address":"臺南市中西區五條港里民生路二段","latitude":"22.994858","longitude":"120.198787","grade":"特優級","type2":"社福機構、集會場所","type":"男廁所","administration":"其他","exec":null,"diaper":null},{"country":"67000","city":"67000370","village":"五條港里","number":"D370000528","name":"郭綜合醫院新大樓B1女廁","address":"臺南市中西區五條港里民生路二段","latitude":"22.994858","longitude":"120.198787","grade":"特優級","type2":"社福機構、集會場所","type":"女廁所","administration":"其他","exec":null,"diaper":null},{"country":"67000","city":"67000370","village":"五條港里","number":"D370000527","name":"郭綜合醫院新大樓4F無障礙廁","address":"臺南市中西區五條港里民生路二段","latitude":"22.994858","longitude":"120.198787","grade":"特優級","type2":"社福機構、集會場所","type":"無障礙廁所","administration":"其他","exec":null,"diaper":null},{"country":"67000","city":"67000370","village":"五條港里","number":"D370000526","name":"郭綜合醫院新大樓4F男廁","address":"臺南市中西區五條港里民生路二段","latitude":"22.994858","longitude":"120.198787","grade":"特優級","type2":"社福機構、集會場所","type":"男廁所","administration":"其他","exec":null,"diaper":null},{"country":"67000","city":"67000370","village":"五條港里","number":"D370000525","name":"郭綜合醫院新大樓4F女廁","address":"臺南市中西區五條港里民生路二段","latitude":"22.994858","longitude":"120.198787","grade":"特優級","type2":"社福機構、集會場所","type":"女廁所","administration":"其他","exec":null,"diaper":null},{"country":"67000","city":"67000370","village":"小西門里","number":"D370000698","name":"新光三越台南西門店2FA區北男廁","address":"臺南市中西區小西門里西門路一段","latitude":"22.986965","longitude":"120.198833","grade":"特優級","type2":"商業營業場所","type":"男廁所","administration":"其他","exec":null,"diaper":null},{"country":"67000","city":"67000370","village":"小西門里","number":"D370000697","name":"新光三越台南西門店2FA區北女廁","address":"臺南市中西區小西門里西門路一段","latitude":"22.986965","longitude":"120.198833","grade":"特優級","type2":"商業營業場所","type":"女廁所","administration":"其他","exec":null,"diaper":null},{"country":"67000","city":"67000370","village":"小西門里","number":"D370000696","name":"新光三越台南西門店1FB區南男廁","address":"臺南市中西區小西門里西門路一段","latitude":"22.986965","longitude":"120.198833","grade":"特優級","type2":"商業營業場所","type":"男廁所","administration":"其他","exec":null,"diaper":null},{"country":"67000","city":"67000370","village":"小西門里","number":"D370000695","name":"新光三越台南西門店1FB區南女廁","address":"臺南市中西區小西門里西門路一段","latitude":"22.986965","longitude":"120.198833","grade":"特優級","type2":"商業營業場所","type":"女廁所","administration":"其他","exec":null,"diaper":null},{"country":"67000","city":"67000370","village":"小西門里","number":"D370000694","name":"新光三越台南西門店1FA區南男廁","address":"臺南市中西區小西門里西門路一段","latitude":"22.986965","longitude":"120.198833","grade":"特優級","type2":"商業營業場所","type":"男廁所","administration":"其他","exec":null,"diaper":null},{"country":"67000","city":"67000370","village":"小西門里","number":"D370000693","name":"新光三越台南西門店1FA區南女廁","address":"臺南市中西區小西門里西門路一段","latitude":"22.986965","longitude":"120.198833","grade":"特優級","type2":"商業營業場所","type":"女廁所","administration":"其他","exec":null,"diaper":null},{"country":"67000","city":"67000370","village":"小西門里","number":"D370000692","name":"新光三越台南西門店1FA區北無障礙廁","address":"臺南市中西區小西門里西門路一段","latitude":"22.986965","longitude":"120.198833","grade":"特優級","type2":"商業營業場所","type":"無障礙廁所","administration":"其他","exec":null,"diaper":null},{"country":"67000","city":"67000370","village":"小西門里","number":"D370000691","name":"新光三越台南西門店1FA區北男廁","address":"臺南市中西區小西門里西門路一段","latitude":"22.986965","longitude":"120.198833","grade":"特優級","type2":"商業營業場所","type":"男廁所","administration":"其他","exec":null,"diaper":null},{"country":"67000","city":"67000370","village":"小西門里","number":"D370000690","name":"新光三越台南西門店1FA區北女廁","address":"臺南市中西區小西門里西門路一段","latitude":"22.986965","longitude":"120.198833","grade":"特優級","type2":"商業營業場所","type":"女廁所","administration":"其他","exec":null,"diaper":null},{"country":"67000","city":"67000130","village":"光華里","number":"D130000033","name":"頭港鎮安宮混合廁","address":"臺南市學甲區光華里頭港子","latitude":"23.260541","longitude":"120.152402","grade":"優等級","type2":"宗教禮儀場所","type":"混合廁所","administration":"其他","exec":null,"diaper":null},{"country":"67000","city":"67000130","village":"光華里","number":"D130000032","name":"巡安宮混合廁","address":"臺南市學甲區光華里新筏子頭","latitude":"23.244792","longitude":"120.167956","grade":"優等級","type2":"宗教禮儀場所","type":"混合廁所","administration":"其他","exec":null,"diaper":null},{"country":"67000","city":"67000130","village":"光華里","number":"D130000031","name":"福安宮女廁","address":"臺南市學甲區光華里過港子","latitude":"23.243795","longitude":"120.166209","grade":"優等級","type2":"宗教禮儀場所","type":"女廁所","administration":"其他","exec":null,"diaper":null},{"country":"67000","city":"67000130","village":"光華里","number":"D130000030","name":"福安宮男廁","address":"臺南市學甲區光華里過港子","latitude":"23.243795","longitude":"120.166209","grade":"優等級","type2":"宗教禮儀場所","type":"男廁所","administration":"其他","exec":null,"diaper":null},{"country":"67000","city":"67000130","village":"光華里","number":"D130000036","name":"蜀葵花田旁無障礙廁","address":"臺南市學甲區光華里過港子","latitude":"23.243104","longitude":"120.166009","grade":"特優級","type2":"其他","type":"無障礙廁所","administration":"其他","exec":null,"diaper":null},{"country":"67000","city":"67000130","village":"光華里","number":"D130000035","name":"蜀葵花田旁女廁","address":"臺南市學甲區光華里過港子","latitude":"23.243104","longitude":"120.166009","grade":"特優級","type2":"其他","type":"女廁所","administration":"其他","exec":null,"diaper":null},{"country":"67000","city":"67000130","village":"光華里","number":"D130000034","name":"蜀葵花田旁男廁","address":"臺南市學甲區光華里過港子","latitude":"23.243104","longitude":"120.166009","grade":"特優級","type2":"其他","type":"男廁所","administration":"其他","exec":null,"diaper":null},{"country":"67000","city":"67000350","village":"四草里","number":"D350000154","name":"台江國家公園管理處生態無障礙廁","address":"臺南市安南區四草里四草大道１１８號","latitude":"23.002202","longitude":"120.139049","grade":"特優級","type2":"觀光地區及風景區","type":"無障礙廁所","administration":"內政部國家公園署","exec":null,"diaper":null},{"country":"67000","city":"67000350","village":"四草里","number":"D350000153","name":"台江國家公園管理處生態女廁","address":"臺南市安南區四草里四草大道１１８號","latitude":"23.002202","longitude":"120.139049","grade":"特優級","type2":"觀光地區及風景區","type":"女廁所","administration":"內政部國家公園署","exec":null,"diaper":null},{"country":"67000","city":"67000350","village":"四草里","number":"D350000152","name":"台江國家公園管理處生態男廁","address":"臺南市安南區四草里四草大道１１８號","latitude":"23.002202","longitude":"120.139049","grade":"特優級","type2":"觀光地區及風景區","type":"男廁所","administration":"內政部國家公園署","exec":null,"diaper":null},{"country":"67000","city":"67000350","village":"四草里","number":"D350000151","name":"台江國家公園管理處遊客中心無障礙廁","address":"臺南市安南區四草里四草大道１１８號","latitude":"23.002202","longitude":"120.139049","grade":"特優級","type2":"觀光地區及風景區","type":"無障礙廁所","administration":"內政部國家公園署","exec":null,"diaper":null},{"country":"67000","city":"67000350","village":"四草里","number":"D350000150","name":"台江國家公園管理處遊客中心女廁","address":"臺南市安南區四草里四草大道１１８號","latitude":"23.002202","longitude":"120.139049","grade":"特優級","type2":"觀光地區及風景區","type":"女廁所","administration":"內政部國家公園署","exec":null,"diaper":null},{"country":"67000","city":"67000320","village":"崇成里","number":"D320000490","name":"臺南市立醫院1F復健科無障礙廁","address":"臺南市東　區崇成里崇德路","latitude":"22.968404","longitude":"120.22653","grade":"特優級","type2":"其他","type":"無障礙廁所","administration":"縣市政府","exec":null,"diaper":null},{"country":"67000","city":"67000350","village":"州南里","number":"D350000289","name":"安南醫院復健大樓2F行政辦公室女廁","address":"臺南市安南區州南里長和路二段６６號","latitude":"23.064444","longitude":"120.223277","grade":"特優級","type2":"社福機構、集會場所","type":"女廁所","administration":"台南市立安南醫院","exec":null,"diaper":null},{"country":"67000","city":"67000350","village":"州南里","number":"D350000288","name":"安南醫院復健大樓2F行政辦公室男廁","address":"臺南市安南區州南里長和路二段６６號","latitude":"23.064444","longitude":"120.223277","grade":"特優級","type2":"社福機構、集會場所","type":"男廁所","administration":"台南市立安南醫院","exec":null,"diaper":null},{"country":"67000","city":"67000350","village":"東和里","number":"D350000474","name":"加州加油站女廁","address":"臺南市安南區東和里長和路一段95號","latitude":"23.053984","longitude":"120.236682","grade":"特優級","type2":"商業營業場所","type":"女廁所","administration":"加州加油站有限公司","exec":null,"diaper":null},{"country":"67000","city":"67000350","village":"淵東里","number":"D350000473","name":"嘉和加油站無障礙廁","address":"臺南市安南區淵東里海佃路四段２０５號","latitude":"23.058166","longitude":"120.176372","grade":"特優級","type2":"商業營業場所","type":"無障礙廁所","administration":"嘉和加油站股份有限公司","exec":null,"diaper":null},{"country":"67000","city":"67000350","village":"淵東里","number":"D350000472","name":"嘉和加油站男廁","address":"臺南市安南區淵東里海佃路四段２０５號","latitude":"23.058166","longitude":"120.176372","grade":"特優級","type2":"商業營業場所","type":"男廁所","administration":"嘉和加油站股份有限公司","exec":null,"diaper":null},{"country":"67000","city":"67000350","village":"淵東里","number":"D350000471","name":"嘉和加油站女廁","address":"臺南市安南區淵東里里海佃路四段２０５號","latitude":"23.058166","longitude":"120.176372","grade":"特優級","type2":"商業營業場所","type":"女廁所","administration":"嘉和加油站股份有限公司","exec":null,"diaper":null},{"country":"67000","city":"67000320","village":"南聖里","number":"D320000850","name":"後甲南聖社區聯合活動中心2F無障礙廁","address":"臺南市東　區南聖里裕農路","latitude":"22.989478","longitude":"120.242722","grade":"特優級","type2":"社福機構、集會場所","type":"無障礙廁所","administration":"縣市政府","exec":null,"diaper":null},{"country":"67000","city":"67000350","village":"城東里","number":"D350000470","name":"土城加油站男廁","address":"臺南市安南區城東里安明路四段826號","latitude":"23.068408","longitude":"120.134691","grade":"特優級","type2":"商業營業場所","type":"男廁所","administration":"土城加油站實業股份有限公司","exec":null,"diaper":null},{"country":"67000","city":"67000350","village":"城東里","number":"D350000469","name":"土城加油站女廁","address":"臺南市安南區城東里安明路四段826號","latitude":"23.068408","longitude":"120.134691","grade":"特優級","type2":"商業營業場所","type":"女廁所","administration":"土城加油站實業股份有限公司","exec":null,"diaper":null},{"country":"67000","city":"67000030","village":"關嶺里","number":"D030000155","name":"關子嶺風景區水火同源小客車停車場女廁","address":"臺南市白河區關嶺里水火同源園區外","latitude":"23.32172533","longitude":"120.4835308","grade":"特優級","type2":"觀光地區及風景區","type":"女廁所","administration":"臺南市政府觀光旅遊局","exec":null,"diaper":null},{"country":"67000","city":"67000030","village":"關嶺里","number":"D030000154","name":"關子嶺風景區水火同源小客車停車場男廁","address":"臺南市白河區關嶺里水火同源園區外","latitude":"23.3218223","longitude":"120.4833263","grade":"特優級","type2":"觀光地區及風景區","type":"男廁所","administration":"臺南市政府觀光旅遊局","exec":null,"diaper":null},{"country":"67000","city":"67000230","village":"玉井里","number":"D230000103","name":"噍吧哖紀念公園親子廁","address":"臺南市玉井區玉井里?吧哖西路旁","latitude":"23.11963066","longitude":"120.4571067","grade":"特優級","type2":"公園","type":"親子廁所","administration":"玉井區公所","exec":null,"diaper":null},{"country":"67000","city":"67000040","village":"士林里","number":"D040000265","name":"柳營祿園殯儀館無障礙廁","address":"臺南市柳營區士林里柳營路一段35號","latitude":"23.260826","longitude":"120.311766","grade":"特優級","type2":"宗教禮儀場所","type":"無障礙廁所","administration":"臺南市政府民政局","exec":null,"diaper":null},{"country":"67000","city":"67000270","village":"保安里","number":"D270000546","name":"仁德火車站無障礙廁","address":"臺南市仁德區保安里永德路10號","latitude":"22.923631","longitude":"120.240613","grade":"特優級","type2":"交通","type":"無障礙廁所","administration":"國營臺灣鐵路股份有限公司","exec":null,"diaper":null},{"country":"67000","city":"67000270","village":"保安里","number":"D270000545","name":"仁德火車站女廁","address":"臺南市仁德區保安里永德路10號","latitude":"22.923631","longitude":"120.240613","grade":"特優級","type2":"交通","type":"女廁所","administration":"國營臺灣鐵路股份有限公司","exec":null,"diaper":null},{"country":"67000","city":"67000040","village":"太康里","number":"D040000219","name":"柳營奇美醫院二樓開刀房旁女廁","address":"臺南市柳營區太康里太康201號","latitude":"23.28928","longitude":"120.324687","grade":"特優級","type2":"社福機構、集會場所","type":"女廁所","administration":"柳營奇美社福機構、集會場所總務室","exec":null,"diaper":null},{"country":"67000","city":"67000040","village":"太康里","number":"D040000196","name":"柳營奇美醫院一樓復健科女廁","address":"臺南市柳營區太康里太康201號","latitude":"23.28928","longitude":"120.324687","grade":"特優級","type2":"社福機構、集會場所","type":"女廁所","administration":"柳營奇美社福機構、集會場所總務室","exec":null,"diaper":null},{"country":"67000","city":"67000070","village":"東角里","number":"D070000345","name":"麻豆國小文昌樓東側女廁","address":"臺南市麻豆區東角里臺南市麻豆區東角里文昌路１８號","latitude":"23.186292","longitude":"120.253325","grade":"特優級","type2":"其他","type":"女廁所","administration":"縣市政府","exec":null,"diaper":null},{"country":"67000","city":"67000330","village":"廣州里","number":"D330000385","name":"臺南市客家文化館1F男廁","address":"臺南市南　區廣州里夏林路４號","latitude":"22.985247","longitude":"120.194406","grade":"特優級","type2":"文化育樂活動場所","type":"男廁所","administration":"臺南市政府客家事務委員會","exec":null,"diaper":null},{"country":"67000","city":"67000330","village":"廣州里","number":"D330000384","name":"臺南市客家文化館1F女廁","address":"臺南市南　區廣州里夏林路４號","latitude":"22.985247","longitude":"120.194406","grade":"特優級","type2":"文化育樂活動場所","type":"女廁所","administration":"臺南市政府客家事務委員會","exec":null,"diaper":null},{"country":"67000","city":"67000310","village":"東橋里","number":"D310000716","name":"臺南市立圖書館新總館6F女廁","address":"臺南市永康區東橋里康橋大道","latitude":"23.024401","longitude":"120.238004","grade":"特優級","type2":"文化育樂活動場所","type":"女廁所","administration":"縣市政府","exec":null,"diaper":null},{"country":"67000","city":"67000310","village":"東橋里","number":"D310000715","name":"臺南市立圖書館新總館6F男廁","address":"臺南市永康區東橋里康橋大道","latitude":"23.024401","longitude":"120.238004","grade":"特優級","type2":"文化育樂活動場所","type":"男廁所","administration":"縣市政府","exec":null,"diaper":null},{"country":"67000","city":"67000310","village":"東橋里","number":"D310000714","name":"臺南市立圖書館新總館4F北側女廁","address":"臺南市永康區東橋里康橋大道","latitude":"23.024401","longitude":"120.238004","grade":"特優級","type2":"文化育樂活動場所","type":"女廁所","administration":"縣市政府","exec":null,"diaper":null},{"country":"67000","city":"67000310","village":"東橋里","number":"D310000713","name":"臺南市立圖書館新總館4F北側男廁","address":"臺南市永康區東橋里康橋大道","latitude":"23.024401","longitude":"120.238004","grade":"特優級","type2":"文化育樂活動場所","type":"男廁所","administration":"縣市政府","exec":null,"diaper":null},{"country":"67000","city":"67000310","village":"東橋里","number":"D310000712","name":"臺南市立圖書館新總館4F南側無障礙廁","address":"臺南市永康區東橋里康橋大道","latitude":"23.024401","longitude":"120.238004","grade":"特優級","type2":"文化育樂活動場所","type":"無障礙廁所","administration":"縣市政府","exec":null,"diaper":null},{"country":"67000","city":"67000310","village":"東橋里","number":"D310000711","name":"臺南市立圖書館新總館4F南側女廁","address":"臺南市永康區東橋里康橋大道","latitude":"23.024401","longitude":"120.238004","grade":"特優級","type2":"文化育樂活動場所","type":"女廁所","administration":"縣市政府","exec":null,"diaper":null},{"country":"67000","city":"67000310","village":"東橋里","number":"D310000710","name":"臺南市立圖書館新總館4F南側男廁","address":"臺南市永康區東橋里康橋大道","latitude":"23.024401","longitude":"120.238004","grade":"特優級","type2":"文化育樂活動場所","type":"男廁所","administration":"縣市政府","exec":null,"diaper":null},{"country":"67000","city":"67000310","village":"東橋里","number":"D310000701","name":"臺南市立圖書館新總館2F南側女廁","address":"臺南市永康區東橋里康橋大道","latitude":"23.024401","longitude":"120.238004","grade":"特優級","type2":"文化育樂活動場所","type":"女廁所","administration":"縣市政府","exec":null,"diaper":null},{"country":"67000","city":"67000310","village":"東橋里","number":"D310000700","name":"臺南市立圖書館新總館2F南側男廁","address":"臺南市永康區東橋里康橋大道","latitude":"23.024401","longitude":"120.238004","grade":"特優級","type2":"文化育樂活動場所","type":"男廁所","administration":"縣市政府","exec":null,"diaper":null},{"country":"67000","city":"67000310","village":"東橋里","number":"D310000699","name":"臺南市立圖書館新總館1F無障礙廁","address":"臺南市永康區東橋里康橋大道","latitude":"23.024401","longitude":"120.238004","grade":"特優級","type2":"文化育樂活動場所","type":"無障礙廁所","administration":"縣市政府","exec":null,"diaper":null},{"country":"67000","city":"67000310","village":"東橋里","number":"D310000698","name":"臺南市立圖書館新總館1F女廁","address":"臺南市永康區東橋里康橋大道","latitude":"23.024401","longitude":"120.238004","grade":"特優級","type2":"文化育樂活動場所","type":"女廁所","administration":"縣市政府","exec":null,"diaper":null},{"country":"67000","city":"67000310","village":"東橋里","number":"D310000697","name":"臺南市立圖書館新總館1F男廁","address":"臺南市永康區東橋里康橋大道","latitude":"23.024401","longitude":"120.238004","grade":"特優級","type2":"文化育樂活動場所","type":"男廁所","administration":"縣市政府","exec":null,"diaper":null},{"country":"67000","city":"67000310","village":"東橋里","number":"D310000696","name":"臺南市立圖書館新總館B1F打咖啡無障礙廁","address":"臺南市永康區東橋里康橋大道","latitude":"23.024401","longitude":"120.238004","grade":"特優級","type2":"文化育樂活動場所","type":"無障礙廁所","administration":"縣市政府","exec":null,"diaper":null},{"country":"67000","city":"67000310","village":"東橋里","number":"D310000695","name":"臺南市立圖書館新總館B1F打咖啡女廁","address":"臺南市永康區東橋里康橋大道","latitude":"23.024401","longitude":"120.238004","grade":"特優級","type2":"文化育樂活動場所","type":"女廁所","administration":"縣市政府","exec":null,"diaper":null},{"country":"67000","city":"67000040","village":"篤農里","number":"D040000277","name":"小腳腿多功能活動中心室外女廁","address":"臺南市柳營區篤農里小脚腿２２６號之１","latitude":"23.290918","longitude":"120.368095","grade":"特優級","type2":"社福機構、集會場所","type":"女廁所","administration":"縣市政府","exec":null,"diaper":null},{"country":"67000","city":"67000040","village":"篤農里","number":"D040000276","name":"小腳腿多功能活動中心室外男廁","address":"臺南市柳營區篤農里小脚腿２２６號之１","latitude":"23.290918","longitude":"120.368095","grade":"特優級","type2":"社福機構、集會場所","type":"男廁所","administration":"縣市政府","exec":null,"diaper":null},{"country":"67000","city":"67000320","village":"大智里","number":"D320000854","name":"東區大智里活動中心3F混合廁","address":"臺南市東區大智里德東街９０號","latitude":"22.961622","longitude":"120.230096","grade":"特優級","type2":"社福機構、集會場所","type":"混合廁所","administration":"縣市政府","exec":null,"diaper":null},{"country":"67000","city":"67000320","village":"大智里","number":"D320000853","name":"東區大智里活動中心2F無障礙廁","address":"臺南市東區大智里德東街９０號","latitude":"22.961622","longitude":"120.230096","grade":"特優級","type2":"社福機構、集會場所","type":"無障礙廁所","administration":"縣市政府","exec":null,"diaper":null},{"country":"67000","city":"67000060","village":"聖賢里","number":"D060000074","name":"東山區田尾社區活動中心混合廁","address":"臺南市東山區聖賢里田尾２７之２號","latitude":"23.305361","longitude":"120.361794","grade":"特優級","type2":"社福機構、集會場所","type":"混合廁所","administration":"縣市政府","exec":null,"diaper":null},{"country":"67000","city":"67000060","village":"東原里","number":"D060000073","name":"東山區東原里聯合辦公處友善混合廁","address":"臺南市東山區東原里前大埔3號","latitude":"23.266102","longitude":"120.445963","grade":"特優級","type2":"社福機構、集會場所","type":"混合廁所","administration":"縣市政府","exec":null,"diaper":null},{"country":"67000","city":"67000060","village":"南溪里","number":"D060000072","name":"東山區南溪里活動中心混合廁","address":"臺南市東山區南溪里二重溪１４號之１１","latitude":"23.274527","longitude":"120.398955","grade":"特優級","type2":"社福機構、集會場所","type":"混合廁所","administration":"縣市政府","exec":null,"diaper":null},{"country":"67000","city":"67000090","village":"六甲里","number":"D090000109","name":"六甲市場2F辦公室女廁","address":"臺南市六甲區六甲里中正路５２２號","latitude":"23.230236","longitude":"120.351552","grade":"特優級","type2":"商業營業場所","type":"女廁所","administration":"縣市政府","exec":null,"diaper":null},{"country":"67000","city":"67000090","village":"六甲里","number":"D090000108","name":"六甲市場2F辦公室性別友善廁","address":"臺南市六甲區六甲里中正路５２２號","latitude":"23.230236","longitude":"120.351552","grade":"特優級","type2":"商業營業場所","type":"性別友善廁所","administration":"縣市政府","exec":null,"diaper":null},{"country":"67000","city":"67000180","village":"武安里","number":"D180000244","name":"新化體育公園操場旁性別友善廁","address":"臺南市新化區武安里公園路１１０號","latitude":"23.029755","longitude":"120.306618","grade":"特優級","type2":"公園","type":"性別友善廁所","administration":"新化區公所","exec":null,"diaper":null},{"country":"67000","city":"67000370","village":"南門里","number":"D370000959","name":"中西區南門里活動中心男廁","address":"臺南市中西區南門里南寧街４７號之２９","latitude":"22.9849","longitude":"120.200327","grade":"特優級","type2":"社福機構、集會場所","type":"男廁所","administration":"縣市政府","exec":null,"diaper":null},{"country":"67000","city":"67000370","village":"南門里","number":"D370000958","name":"中西區南門里活動中心女廁","address":"臺南市中西區南門里南寧街４７號之２９","latitude":"22.9849","longitude":"120.200327","grade":"特優級","type2":"社福機構、集會場所","type":"女廁所","administration":"中西區公所","exec":null,"diaper":null},{"country":"67000","city":"67000340","village":"北門里","number":"D340000436","name":"實踐社區活動中心女廁","address":"臺南市北區北門里大武街１６１號","latitude":"23.013408","longitude":"120.215771","grade":"特優級","type2":"社福機構、集會場所","type":"女廁所","administration":"縣市政府","exec":null,"diaper":null},{"country":"67000","city":"67000340","village":"北門里","number":"D340000435","name":"實踐社區活動中心男廁","address":"臺南市北區北門里大武街１６１號","latitude":"23.013408","longitude":"120.215771","grade":"特優級","type2":"社福機構、集會場所","type":"男廁所","administration":"縣市政府","exec":null,"diaper":null},{"country":"67000","city":"67000060","village":"東山里","number":"D060000064","name":"東山區公所所前路無障礙廁","address":"臺南市東山區東山里東山225號之5","latitude":"23.326052","longitude":"120.403726","grade":"特優級","type2":"其他","type":"無障礙廁所","administration":"東山區公所","exec":null,"diaper":null},{"country":"67000","city":"67000060","village":"東山里","number":"D060000063","name":"東山區公所所前路男廁","address":"臺南市東山區東山里東山225號之5","latitude":"23.326052","longitude":"120.403726","grade":"特優級","type2":"其他","type":"男廁所","administration":"東山區公所","exec":null,"diaper":null},{"country":"67000","city":"67000060","village":"東山里","number":"D060000062","name":"東山區公所所前路女廁","address":"臺南市東山區東山里東山225號之5","latitude":"23.326052","longitude":"120.403726","grade":"特優級","type2":"其他","type":"女廁所","administration":"東山區公所","exec":null,"diaper":null},{"country":"67000","city":"67000340","village":"賢北里","number":"D340000427","name":"台亞中華北路加油站男廁","address":"臺南市北　區賢北里中華北路一段","latitude":"23.007504","longitude":"120.185856","grade":"特優級","type2":"商業營業場所","type":"男廁所","administration":"經濟部","exec":null,"diaper":null},{"country":"67000","city":"67000340","village":"賢北里","number":"D340000426","name":"台亞中華北路加油站女廁","address":"臺南市北　區賢北里中華北路一段","latitude":"23.007504","longitude":"120.185856","grade":"特優級","type2":"商業營業場所","type":"女廁所","administration":"經濟部","exec":null,"diaper":null},{"country":"67000","city":"67000180","village":"東榮里","number":"D180000235","name":"新化果菜市場F區男廁","address":"臺南市新化區東榮里護東路３３５號","latitude":"23.035347","longitude":"120.328861","grade":"特優級","type2":"商業營業場所","type":"男廁所","administration":"臺南市農產運銷股份有限公司","exec":null,"diaper":null},{"country":"67000","city":"67000180","village":"東榮里","number":"D180000234","name":"新化果菜市場F區女廁","address":"臺南市新化區東榮里護東路３３５號","latitude":"23.03489922","longitude":"120.3280377","grade":"特優級","type2":"商業營業場所","type":"女廁所","administration":"臺南市農產運銷股份有限公司","exec":null,"diaper":null},{"country":"67000","city":"67000180","village":"東榮里","number":"D180000233","name":"新化果菜市場E區男廁","address":"臺南市新化區東榮里護東路３３５號","latitude":"23.03452403","longitude":"120.3300494","grade":"特優級","type2":"商業營業場所","type":"男廁所","administration":"臺南市農產運銷股份有限公司","exec":null,"diaper":null},{"country":"67000","city":"67000180","village":"東榮里","number":"D180000232","name":"新化果菜市場E區女廁","address":"臺南市新化區東榮里護東路３３５號","latitude":"23.03441049","longitude":"120.3301299","grade":"特優級","type2":"商業營業場所","type":"女廁所","administration":"臺南市農產運銷股份有限公司","exec":null,"diaper":null},{"country":"67000","city":"67000320","village":"崇德里","number":"D320000834","name":"崇義黃昏市場男廁","address":"臺南市東　區崇德里崇德路","latitude":"22.973773","longitude":"120.227223","grade":"特優級","type2":"商業營業場所","type":"男廁所","administration":"縣市政府","exec":null,"diaper":null},{"country":"67000","city":"67000320","village":"崇德里","number":"D320000833","name":"崇義黃昏市場女廁","address":"臺南市東　區崇德里崇德路","latitude":"22.973773","longitude":"120.227223","grade":"特優級","type2":"商業營業場所","type":"女廁所","administration":"縣市政府","exec":null,"diaper":null},{"country":"67000","city":"67000330","village":"廣州里","number":"D330000347","name":"7-11夏林門市性別友善廁","address":"臺南市南　區廣州里健康路二段114號","latitude":"22.981643","longitude":"120.194515","grade":"特優級","type2":"商業營業場所","type":"性別友善廁所","administration":"統一超商股份有限公司","exec":null,"diaper":null},{"country":"67000","city":"67000180","village":"大坑里","number":"D180000231","name":"大坑休閒農場女廁","address":"臺南市新化區大坑里大坑尾８２號","latitude":"23.009916","longitude":"120.389985","grade":"特優級","type2":"商業營業場所","type":"女廁所","administration":"大坑休閒農場","exec":null,"diaper":null},{"country":"67000","city":"67000190","village":"小新里","number":"D190000150","name":"小新社區活動中心男廁","address":"臺南市善化區小新里小新營１１３號之２４","latitude":"23.122867","longitude":"120.314445","grade":"特優級","type2":"社福機構、集會場所","type":"男廁所","administration":"善化區公所","exec":null,"diaper":null},{"country":"67000","city":"67000190","village":"小新里","number":"D190000149","name":"小新社區活動中心女廁","address":"臺南市善化區小新里小新營１１３號之２４","latitude":"23.122867","longitude":"120.314445","grade":"特優級","type2":"社福機構、集會場所","type":"女廁所","administration":"善化區公所","exec":null,"diaper":null},{"country":"67000","city":"67000190","village":"東關里","number":"D190000015","name":"善化區圖書館4樓男廁","address":"臺南市善化區東關里中山路３７７號","latitude":"23.132162","longitude":"120.291676","grade":"特優級","type2":"文化育樂活動場所","type":"男廁所","administration":"善化區公所","exec":null,"diaper":null},{"country":"67000","city":"67000190","village":"東關里","number":"D190000014","name":"善化區圖書館4樓女廁","address":"臺南市善化區東關里中山路３７７號","latitude":"23.132162","longitude":"120.291676","grade":"特優級","type2":"文化育樂活動場所","type":"女廁所","administration":"善化區公所","exec":null,"diaper":null},{"country":"67000","city":"67000120","village":"六安里","number":"D120000069","name":"佳里區圖書館1F親子廁","address":"臺南市佳里區六安里安北路118號","latitude":"23.168833","longitude":"120.177374","grade":"特優級","type2":"文化育樂活動場所","type":"親子廁所","administration":"佳里區公所","exec":null,"diaper":null},{"country":"67000","city":"67000020","village":"津城里","number":"D020000103","name":"鹽水區公有零售市場女廁","address":"臺南市鹽水區津城里三福路","latitude":"23.321277","longitude":"120.267306","grade":"特優級","type2":"商業營業場所","type":"女廁所","administration":"縣市政府","exec":null,"diaper":null},{"country":"67000","city":"67000010","village":"永平里","number":"D010000270","name":"新營第二公有零售市場混合廁","address":"臺南市新營區永平里長春街２號","latitude":"23.300738","longitude":"120.312463","grade":"特優級","type2":"商業營業場所","type":"混合廁所","administration":"臺南市市場處","exec":null,"diaper":null},{"country":"67000","city":"67000180","village":"武安里","number":"D180000012","name":"新化公有零售市場男廁","address":"臺南市新化區武安里中正路３６９巷４２號之３","latitude":"23.034435","longitude":"120.307566","grade":"特優級","type2":"商業營業場所","type":"男廁所","administration":"臺南市市場處","exec":null,"diaper":null},{"country":"67000","city":"67000180","village":"武安里","number":"D180000011","name":"新化公有零售市場女廁","address":"臺南市新化區武安里中正路３６９巷４２號之３","latitude":"23.034435","longitude":"120.307566","grade":"特優級","type2":"商業營業場所","type":"女廁所","administration":"縣市政府","exec":null,"diaper":null},{"country":"67000","city":"67000340","village":"長興里","number":"D340000280","name":"統一精工小北加油站男廁","address":"臺南市北　區長興里西門路三段","latitude":"23.003563","longitude":"120.204593","grade":"特優級","type2":"商業營業場所","type":"男廁所","administration":"其他","exec":null,"diaper":null},{"country":"67000","city":"67000340","village":"長興里","number":"D340000279","name":"統一精工小北加油站女廁","address":"臺南市北　區長興里西門路三段","latitude":"23.003563","longitude":"120.204593","grade":"特優級","type2":"商業營業場所","type":"女廁所","administration":"其他","exec":null,"diaper":null},{"country":"67000","city":"67000340","village":"立人里","number":"D340000275","name":"連雅堂公園男廁","address":"臺南市北　區立人里公園南路口","latitude":"23.002868","longitude":"120.19883","grade":"特優級","type2":"公園","type":"男廁所","administration":"縣市政府","exec":null,"diaper":null},{"country":"67000","city":"67000340","village":"立人里","number":"D340000274","name":"連雅堂公園女廁","address":"臺南市北　區立人里公園南路口","latitude":"23.002868","longitude":"120.19883","grade":"特優級","type2":"公園","type":"女廁所","administration":"縣市政府","exec":null,"diaper":null},{"country":"67000","city":"67000340","village":"北華里","number":"D340000258","name":"鴨母寮市場男廁","address":"臺南市北　區北華里成功路","latitude":"22.998738","longitude":"120.204493","grade":"特優級","type2":"商業營業場所","type":"男廁所","administration":"縣市政府","exec":null,"diaper":null},{"country":"67000","city":"67000340","village":"北華里","number":"D340000257","name":"鴨母寮市場女廁","address":"臺南市北　區北華里成功路","latitude":"22.998738","longitude":"120.204493","grade":"特優級","type2":"商業營業場所","type":"女廁所","administration":"縣市政府","exec":null,"diaper":null},{"country":"67000","city":"67000260","village":"中正里","number":"D260000033","name":"左鎮區公所2F混合廁","address":"臺南市左鎮區中正里中正171號之4","latitude":"23.056776","longitude":"120.408656","grade":"特優級","type2":"民眾洽公場所","type":"混合廁所","administration":"左鎮區公所","exec":null,"diaper":null},{"country":"67000","city":"67000090","village":"七甲里","number":"D090000103","name":"嘉盈台南分站加油站女廁","address":"臺南市六甲區七甲里中華路４２５號","latitude":"23.222815","longitude":"120.341347","grade":"特優級","type2":"商業營業場所","type":"女廁所","administration":"經濟部","exec":null,"diaper":null},{"country":"67000","city":"67000270","village":"新田里","number":"D270000896","name":"統好加油站男廁","address":"臺南市仁德區新田里勝利路361號","latitude":"22.953826","longitude":"120.270113","grade":"特優級","type2":"商業營業場所","type":"男廁所","administration":"統好加油站有限公司","exec":null,"diaper":null},{"country":"67000","city":"67000270","village":"新田里","number":"D270000895","name":"統好加油站女廁","address":"臺南市仁德區新田里勝利路361號","latitude":"22.953826","longitude":"120.270113","grade":"特優級","type2":"商業營業場所","type":"女廁所","administration":"統好加油站有限公司","exec":null,"diaper":null},{"country":"67000","city":"67000270","village":"中洲里","number":"D270000218","name":"中洲公有零售市場女廁","address":"臺南市仁德區中洲里中洲七街38巷7號","latitude":"22.907079","longitude":"120.250896","grade":"特優級","type2":"商業營業場所","type":"女廁所","administration":"臺南市市場處","exec":null,"diaper":null},{"country":"67000","city":"67000200","village":"大營里","number":"D200000140","name":"南科火車站無障礙廁","address":"臺南市新市區大營里大營２８７之３００號","latitude":"23.107251","longitude":"120.302064","grade":"特優級","type2":"交通","type":"無障礙廁所","administration":"國營臺灣鐵路股份有限公司","exec":null,"diaper":null},{"country":"67000","city":"67000200","village":"大營里","number":"D200000139","name":"南科火車站女廁","address":"臺南市新市區大營里大營２８７之３００號","latitude":"23.107251","longitude":"120.302064","grade":"特優級","type2":"交通","type":"女廁所","administration":"國營臺灣鐵路股份有限公司","exec":null,"diaper":null},