[{"country":"10009","city":"10009020","village":"南昌里","number":"P020000216","name":"斗南鎮第二公有零售市場B棟男廁","address":"雲林縣斗南鎮南昌里光復街36號","administration":"雲林縣斗南鎮公所","latitude":"23.674864","longitude":"120.4778","grade":"特優級","type2":"商業營業場所","type":"男廁所","exec":null,"diaper":null},{"country":"10009","city":"10009010","village":"公正里","number":"P010000687","name":"雲林縣斗六市斗六公園公共廁所-無障礙廁","address":"雲林縣斗六市博愛街旁","administration":"縣市政府","latitude":"23.704","longitude":"120.5486","grade":"特優級","type2":"公園","type":"無障礙廁所","exec":null,"diaper":null},{"country":"10009","city":"10009010","village":"公正里","number":"P010000686","name":"雲林縣斗六市斗六公園公共廁所-女廁","address":"雲林縣斗六市博愛街旁","administration":"縣市政府","latitude":"23.704","longitude":"120.5486","grade":"特優級","type2":"公園","type":"女廁所","exec":null,"diaper":null},{"country":"10009","city":"10009010","village":"公正里","number":"P010000685","name":"雲林縣斗六市斗六公園公共廁所-男廁","address":"雲林縣斗六市博愛街旁","administration":"縣市政府","latitude":"23.704","longitude":"120.5486","grade":"特優級","type2":"公園","type":"男廁所","exec":null,"diaper":null},{"country":"10009","city":"10009030","village":"德興里","number":"P030000393","name":"中油北基虎尾站-女廁","address":"雲林縣虎尾鎮德興里林森路一段530號","administration":"北基國際股份有限公司北基虎尾加油站","latitude":"23.70897","longitude":"120.432569","grade":"特優級","type2":"商業營業場所","type":"女廁所","exec":null,"diaper":null},{"country":"10009","city":"10009030","village":"德興里","number":"P030000392","name":"中油北基虎尾站-無障礙廁","address":"雲林縣虎尾鎮德興里林森路一段530號","administration":"北基國際股份有限公司北基虎尾加油站","latitude":"23.70897","longitude":"120.432569","grade":"特優級","type2":"商業營業場所","type":"無障礙廁所","exec":null,"diaper":null},{"country":"10009","city":"10009190","village":"湖東村","number":"P190000136","name":"口湖鄉公所1F-無障礙廁","address":"雲林縣口湖鄉湖東村中正路一段118號","administration":"縣市政府","latitude":"23.58261179","longitude":"120.1857734","grade":"特優級","type2":"民眾洽公場所","type":"無障礙廁所","exec":null,"diaper":null},{"country":"10009","city":"10009060","village":"新街里","number":"P060000230","name":"中國醫藥大學北港附設醫院2F-女廁","address":"雲林縣北港鎮新街里新德路123號","administration":"縣市政府","latitude":"23.59175598","longitude":"120.3077602","grade":"特優級","type2":"社福機構、集會場所","type":"女廁所","exec":null,"diaper":null},{"country":"10009","city":"10009060","village":"新街里","number":"P060000229","name":"中國醫藥大學北港附設醫院2F-男廁","address":"雲林縣北港鎮新街里新德路123號","administration":"縣市政府","latitude":"23.5902025","longitude":"120.3073311","grade":"特優級","type2":"社福機構、集會場所","type":"男廁所","exec":null,"diaper":null},{"country":"10009","city":"10009040","village":"中和里","number":"P040000181","name":"西螺延平老街停車場-親子廁","address":"雲林縣西螺鎮中和里西螺段","administration":"西螺鎮公所","latitude":"23.801227","longitude":"120.463316","grade":"特優級","type2":"交通","type":"親子廁所","exec":null,"diaper":null},{"country":"10009","city":"10009120","village":"羅厝村","number":"P120000055","name":"千巧谷牛樂園牧場-男廁","address":"雲林縣崙背鄉羅厝村東興路182-32號","administration":"千巧谷牛樂園有限公司","latitude":"23.761127","longitude":"120.3656247","grade":"特優級","type2":"觀光地區及風景區","type":"男廁所","exec":null,"diaper":null},{"country":"10009","city":"10009120","village":"羅厝村","number":"P120000054","name":"千巧谷牛樂園牧場-無障礙廁","address":"雲林縣崙背鄉羅厝村東興路182-32號","administration":"千巧谷牛樂園有限公司","latitude":"23.761127","longitude":"120.3656247","grade":"特優級","type2":"觀光地區及風景區","type":"無障礙廁所","exec":null,"diaper":null},{"country":"10009","city":"10009190","village":"崙東村","number":"P190000063","name":"台灣鯛生態創意園區-女廁","address":"雲林縣口湖鄉崙東村民生路1-88號","administration":"其他","latitude":"23.607853","longitude":"120.171907","grade":"特優級","type2":"觀光地區及風景區","type":"女廁所","exec":null,"diaper":null},{"country":"10009","city":"10009190","village":"崙東村","number":"P190000062","name":"台灣鯛生態創意園區-男廁","address":"雲林縣口湖鄉崙東村民生路1-88號","administration":"其他","latitude":"23.6077679","longitude":"120.1719556","grade":"特優級","type2":"觀光地區及風景區","type":"男廁所","exec":null,"diaper":null},{"country":"10009","city":"10009070","village":"古坑村","number":"P070000316","name":"古坑鄉民代表會三樓-混合廁","address":"雲林縣古坑鄉古坑村中山路47號","administration":"雲林縣古坑鄉公所","latitude":"23.642807","longitude":"120.561689","grade":"特優級","type2":"民眾洽公場所","type":"混合廁所","exec":null,"diaper":null},{"country":"10009","city":"10009070","village":"古坑村","number":"P070000315","name":"古坑鄉民代表會二樓-混合廁","address":"雲林縣古坑鄉古坑村中山路47號","administration":"雲林縣古坑鄉公所","latitude":"23.642807","longitude":"120.561689","grade":"特優級","type2":"民眾洽公場所","type":"混合廁所","exec":null,"diaper":null},{"country":"10009","city":"10009070","village":"古坑村","number":"P070000314","name":"古坑鄉民代表會一樓-混合廁","address":"雲林縣古坑鄉古坑村中山路47號","administration":"雲林縣古坑鄉公所","latitude":"23.642807","longitude":"120.561689","grade":"特優級","type2":"民眾洽公場所","type":"混合廁所","exec":null,"diaper":null},{"country":"10009","city":"10009070","village":"草嶺村","number":"P070000309","name":"雲嶺之丘-女廁","address":"雲林縣古坑鄉草嶺村草嶺村","administration":"石壁休閒農業區發展協會","latitude":"23.62773662","longitude":"120.7131729","grade":"特優級","type2":"觀光地區及風景區","type":"女廁所","exec":null,"diaper":null},{"country":"10009","city":"10009070","village":"草嶺村","number":"P070000308","name":"雲嶺之丘-男廁","address":"雲林縣古坑鄉草嶺村草嶺村","administration":"石壁休閒農業區發展協會","latitude":"23.62755969","longitude":"120.7131729","grade":"特優級","type2":"觀光地區及風景區","type":"親子廁所","exec":null,"diaper":null},{"country":"10009","city":"10009010","village":"鎮西里","number":"P010000684","name":"斗六膨鼠森林公園-親子廁","address":"公園路","administration":"縣市政府","latitude":"23.696888","longitude":"120.5299523","grade":"特優級","type2":"公園","type":"親子廁所","exec":null,"diaper":null},{"country":"10009","city":"10009010","village":"鎮西里","number":"P010000683","name":"斗六膨鼠森林公園-女廁","address":"雲林縣斗六市公園路","administration":"縣市政府","latitude":"23.69687327","longitude":"120.5300521","grade":"特優級","type2":"公園","type":"女廁所","exec":null,"diaper":null},{"country":"10009","city":"10009010","village":"鎮西里","number":"P010000682","name":"斗六膨鼠森林公園-男廁","address":"雲林縣斗六市公園路","administration":"縣市政府","latitude":"23.69679467","longitude":"120.5298482","grade":"特優級","type2":"公園","type":"男廁所","exec":null,"diaper":null},{"country":"10009","city":"10009010","village":"鎮西里","number":"P010000681","name":"斗六金瓜鼠樂園-無障礙廁","address":"雲林縣斗六市大學路三段222號","administration":"縣市政府","latitude":"23.69596452","longitude":"120.5292474","grade":"特優級","type2":"公園","type":"無障礙廁所","exec":null,"diaper":null},{"country":"10009","city":"10009010","village":"鎮西里","number":"P010000680","name":"斗六金瓜鼠樂園-女廁","address":"雲林縣斗六市大學路三段222號","administration":"縣市政府","latitude":"23.69588593","longitude":"120.5291401","grade":"特優級","type2":"公園","type":"女廁所","exec":null,"diaper":null},{"country":"10009","city":"10009010","village":"鎮西里","number":"P010000679","name":"斗六金瓜鼠樂園-男廁","address":"雲林縣斗六市大學路三段222號","administration":"縣市政府","latitude":"23.6959714","longitude":"120.529065","grade":"特優級","type2":"公園","type":"男廁所","exec":null,"diaper":null},{"country":"10009","city":"10009070","village":"水碓村","number":"P070000290","name":"古坑鄉水碓村辦公處-女廁","address":"雲林縣古坑鄉水碓村168號","administration":"古坑鄉公所","latitude":"23.664532","longitude":"120.55981","grade":"特優級","type2":"民眾洽公場所","type":"女廁所","exec":null,"diaper":null},{"country":"10009","city":"10009060","village":"新街里","number":"P060000241","name":"北港鎮立體育館左側-無障礙廁","address":"雲林縣北港鎮新街里成功路1號","administration":"縣市政府","latitude":"23.576597","longitude":"120.305387","grade":"特優級","type2":"文化育樂活動場所","type":"無障礙廁所","exec":null,"diaper":null},{"country":"10009","city":"10009060","village":"新街里","number":"P060000240","name":"北港鎮立體育館左側-女廁","address":"雲林縣北港鎮新街里成功路1號","administration":"縣市政府","latitude":"23.576597","longitude":"120.305387","grade":"特優級","type2":"文化育樂活動場所","type":"女廁所","exec":null,"diaper":null},{"country":"10009","city":"10009060","village":"新街里","number":"P060000239","name":"北港鎮立體育館左側-男廁","address":"雲林縣北港鎮新街里成功路1號","administration":"縣市政府","latitude":"23.576597","longitude":"120.305387","grade":"特優級","type2":"文化育樂活動場所","type":"男廁所","exec":null,"diaper":null},{"country":"10009","city":"10009060","village":"新街里","number":"P060000238","name":"北港鎮立體育館右側-無障礙","address":"雲林縣北港鎮新街里成功路1號","administration":"縣市政府","latitude":"23.576597","longitude":"120.305387","grade":"特優級","type2":"文化育樂活動場所","type":"無障礙廁所","exec":null,"diaper":null},{"country":"10009","city":"10009060","village":"新街里","number":"P060000237","name":"北港鎮立體育館右側-女廁","address":"雲林縣北港鎮新街里成功路1號","administration":"縣市政府","latitude":"23.576597","longitude":"120.305387","grade":"特優級","type2":"文化育樂活動場所","type":"女廁所","exec":null,"diaper":null},{"country":"10009","city":"10009060","village":"新街里","number":"P060000236","name":"北港鎮立體育館右側-男廁","address":"雲林縣北港鎮新街里成功路1號","administration":"縣市政府","latitude":"23.576597","longitude":"120.305387","grade":"特優級","type2":"文化育樂活動場所","type":"男廁所","exec":null,"diaper":null},{"country":"10009","city":"10009060","village":"新街里","number":"P060000235","name":"北港鎮立圖書館2F-男廁","address":"雲林縣北港鎮北辰路2-5號","administration":"縣市政府","latitude":"23.577059","longitude":"120.303529","grade":"特優級","type2":"文化育樂活動場所","type":"男廁所","exec":null,"diaper":null},{"country":"10009","city":"10009060","village":"新街里","number":"P060000234","name":"北港鎮立圖書館2F-親子廁","address":"雲林縣北港鎮北辰路2-5號","administration":"縣市政府","latitude":"23.577059","longitude":"120.303529","grade":"特優級","type2":"文化育樂活動場所","type":"女廁所","exec":null,"diaper":null},{"country":"10009","city":"10009070","village":"崁腳村","number":"P070000297","name":"古坑服務區北上-無障礙廁A","address":"雲林縣古坑鄉崁腳村新興路100 號","administration":"交通部","latitude":"23.60794575","longitude":"120.5433031","grade":"特優級","type2":"交通","type":"無障礙廁所","exec":null,"diaper":null},{"country":"10009","city":"10009070","village":"崁腳村","number":"P070000295","name":"古坑服務區北上-親子廁A","address":"雲林縣古坑鄉崁腳村新興路100 號","administration":"交通部","latitude":"23.60818169","longitude":"120.5445905","grade":"特優級","type2":"交通","type":"親子廁所","exec":null,"diaper":null},{"country":"10009","city":"10009030","village":"廉使里","number":"P030000243","name":"高鐵雲林車站-男廁-站外","address":"雲林縣虎尾鎮廉使里站前東路301號","administration":"交通部","latitude":"23.73634596","longitude":"120.4160786","grade":"特優級","type2":"交通","type":"男廁所","exec":null,"diaper":null},{"country":"10009","city":"10009030","village":"廉使里","number":"P030000242","name":"高鐵雲林車站-女廁-站內","address":"雲林縣虎尾鎮廉使里站前東路301號","administration":"交通部","latitude":"23.73628703","longitude":"120.4161215","grade":"特優級","type2":"交通","type":"女廁所","exec":null,"diaper":null},{"country":"10009","city":"10009130","village":"麥豐村","number":"P130000126","name":"台灣中油麥寮站-無障礙廁","address":"雲林縣麥寮鄉麥豐村中山路12號","administration":"經濟部","latitude":"23.75021774","longitude":"120.2612883","grade":"特優級","type2":"","type":"無障礙廁所","exec":null,"diaper":null},{"country":"10009","city":"10009130","village":"橋頭村","number":"P130000124","name":"台亞石油麥寮橋頭站-女廁","address":"雲林縣麥寮鄉橋頭村工業路5號","administration":"經濟部","latitude":"23.787915","longitude":"120.275283","grade":"特優級","type2":"商業營業場所","type":"女廁所","exec":null,"diaper":null},{"country":"10009","city":"10009130","village":"橋頭村","number":"P130000123","name":"台亞石油麥寮橋頭站-男廁","address":"雲林縣麥寮鄉橋頭村工業路5號","administration":"經濟部","latitude":"23.787915","longitude":"120.275283","grade":"特優級","type2":"商業營業場所","type":"男廁所","exec":null,"diaper":null},{"country":"10009","city":"10009180","village":"湖西村","number":"P180000131","name":"四湖鄉公有零售市場-無障礙廁","address":"雲林縣四湖鄉湖西村新市街102號","administration":"縣市政府","latitude":"23.636725","longitude":"120.225206","grade":"特優級","type2":"","type":"無障礙廁所","exec":null,"diaper":null},{"country":"10009","city":"10009060","village":"東華里","number":"P060000222","name":"北港第一公有零售市場-女廁","address":"雲林縣北港鎮東華里中山路168號","administration":"縣市政府","latitude":"23.567474","longitude":"120.305214","grade":"特優級","type2":"","type":"女廁所","exec":null,"diaper":null},{"country":"10009","city":"10009040","village":"中興里","number":"P040000180","name":"西螺東南觀光夜市西側-女廁","address":"雲林縣西螺鎮中興里東南路","administration":"東南夜市管理委員會","latitude":"23.80244587","longitude":"120.449633","grade":"特優級","type2":"商業營業場所","type":"女廁所","exec":null,"diaper":null},{"country":"10009","city":"10009040","village":"中興里","number":"P040000179","name":"西螺東南觀光夜市西側-男廁","address":"雲林縣西螺鎮中興里東南路","administration":"東南夜市管理委員會","latitude":"23.80243605","longitude":"120.4496437","grade":"特優級","type2":"商業營業場所","type":"男廁所","exec":null,"diaper":null},{"country":"10009","city":"10009040","village":"中興里","number":"P040000178","name":"西螺東南觀光夜市東側-女廁","address":"雲林縣西螺鎮中興里東南路","administration":"東南夜市管理委員會","latitude":"23.80244096","longitude":"120.449633","grade":"特優級","type2":"商業營業場所","type":"女廁所","exec":null,"diaper":null},{"country":"10009","city":"10009040","village":"中興里","number":"P040000177","name":"西螺東南觀光夜市東側-男廁","address":"雲林縣西螺鎮中興里東南路","administration":"東南夜市管理委員會","latitude":"23.80231826","longitude":"120.4496491","grade":"特優級","type2":"商業營業場所","type":"男廁所","exec":null,"diaper":null},{"country":"10009","city":"10009040","village":"安定里","number":"P040000165","name":"西螺鎮清潔隊-混合廁","address":"雲林縣西螺鎮安定里雲24鄉道","administration":"西螺鎮公所","latitude":"23.81129248","longitude":"120.4435396","grade":"特優級","type2":"民眾洽公場所","type":"混合廁所","exec":null,"diaper":null},{"country":"10009","city":"10009190","village":"湖口村","number":"P190000096","name":"宜梧滯洪池南側女廁","address":"雲林縣口湖鄉湖口村湖口村","administration":"縣市政府","latitude":"23.52999573","longitude":"120.1702595","grade":"特優級","type2":"觀光地區及風景區","type":"女廁所","exec":null,"diaper":null},{"country":"10009","city":"10009190","village":"湖口村","number":"P190000095","name":"宜梧滯洪池南側男廁","address":"雲林縣口湖鄉湖口村湖口村","administration":"縣市政府","latitude":"23.52999573","longitude":"120.1702595","grade":"特優級","type2":"觀光地區及風景區","type":"男廁所","exec":null,"diaper":null},{"country":"10009","city":"10009190","village":"港西村","number":"P190000087","name":"海口故事館-無障礙廁","address":"雲林縣口湖鄉港西村海豐路50-12號","administration":"縣市政府","latitude":"23.58215948","longitude":"120.1422143","grade":"特優級","type2":"觀光地區及風景區","type":"無障礙廁所","exec":null,"diaper":null},{"country":"10009","city":"10009190","village":"港西村","number":"P190000086","name":"海口故事館-女廁","address":"雲林縣口湖鄉港西村海豐路50-12號","administration":"縣市政府","latitude":"23.57558114","longitude":"120.14112","grade":"特優級","type2":"觀光地區及風景區","type":"女廁所","exec":null,"diaper":null},{"country":"10009","city":"10009190","village":"港西村","number":"P190000085","name":"海口故事館-男廁","address":"雲林縣口湖鄉港西村海豐路50-12號","administration":"縣市政府","latitude":"23.58221848","longitude":"120.1422143","grade":"特優級","type2":"觀光地區及風景區","type":"男廁所","exec":null,"diaper":null},{"country":"10009","city":"10009190","village":"港西村","number":"P190000084","name":"金湖臨海園-女廁","address":"雲林縣口湖鄉港西村無","administration":"縣市政府","latitude":"23.57316212","longitude":"120.1413775","grade":"特優級","type2":"觀光地區及風景區","type":"女廁所","exec":null,"diaper":null},{"country":"10009","city":"10009190","village":"港西村","number":"P190000083","name":"金湖臨海園-男廁","address":"雲林縣口湖鄉港西村無","administration":"縣市政府","latitude":"23.57370296","longitude":"120.1406908","grade":"特優級","type2":"觀光地區及風景區","type":"男廁所","exec":null,"diaper":null},{"country":"10009","city":"10009010","village":"信義里","number":"P010000019","name":"斗六火車站1F-親子廁","address":"雲林縣斗六市民生路187號","administration":"交通部","latitude":"23.71168343","longitude":"120.541231","grade":"特優級","type2":"交通","type":"親子廁所","exec":null,"diaper":null},{"country":"10009","city":"10009040","village":"埤頭里","number":"P040000190","name":"西螺鎮埤頭里活動中心1F-女廁","address":"雲林縣西螺鎮埤頭里埤頭1-1號","administration":"西螺鎮公所","latitude":"23.773053","longitude":"120.475084","grade":"特優級","type2":"社福機構、集會場所","type":"女廁所","exec":null,"diaper":null},{"country":"10009","city":"10009040","village":"埤頭里","number":"P040000189","name":"西螺鎮埤頭里活動中心1F-男廁","address":"雲林縣西螺鎮埤頭里埤頭1-1號","administration":"西螺鎮公所","latitude":"23.773053","longitude":"120.475084","grade":"特優級","type2":"社福機構、集會場所","type":"男廁所","exec":null,"diaper":null},{"country":"10009","city":"10009040","village":"福興里","number":"P040000188","name":"西螺鎮福興里活動中心2F右側-女廁","address":"雲林縣西螺鎮福興里中市路31號","administration":"西螺鎮福興里辦公處","latitude":"23.80234","longitude":"120.45974","grade":"特優級","type2":"社福機構、集會場所","type":"女廁所","exec":null,"diaper":null},{"country":"10009","city":"10009040","village":"福興里","number":"P040000187","name":"西螺鎮福興里活動中心2F左側廁所-混合廁","address":"雲林縣西螺鎮福興里中市路31號","administration":"西螺鎮公所","latitude":"23.80234","longitude":"120.45974","grade":"特優級","type2":"社福機構、集會場所","type":"混合廁所","exec":null,"diaper":null},{"country":"10009","city":"10009040","village":"大園里","number":"P040000186","name":"西螺鎮大園里活動中心1F廁所-混合廁","address":"雲林縣西螺鎮大園里光復東路95號","administration":"西螺鎮公所","latitude":"23.798304","longitude":"120.472485","grade":"特優級","type2":"社福機構、集會場所","type":"混合廁所","exec":null,"diaper":null},{"country":"10009","city":"10009020","village":"小東里","number":"P020000218","name":"斗南鎮小東社區活動中心-男廁","address":"雲林縣斗南鎮小東里小東南路21號","administration":"雲林縣斗南鎮公所","latitude":"23.689094","longitude":"120.46704","grade":"特優級","type2":"社福機構、集會場所","type":"男廁所","exec":null,"diaper":null},{"country":"10009","city":"10009130","village":"麥津村","number":"P130000054","name":"麥寮鄉公所5F-無障礙廁","address":"雲林縣麥寮鄉麥津村中興路119號","administration":"縣市政府","latitude":"23.75387572","longitude":"120.2517278","grade":"特優級","type2":"民眾洽公場所","type":"無障礙廁所","exec":null,"diaper":null},{"country":"10009","city":"10009130","village":"麥津村","number":"P130000053","name":"麥寮鄉公所5F-女廁","address":"雲林縣麥寮鄉麥津村中興路119號","administration":"縣市政府","latitude":"23.75394446","longitude":"120.2517064","grade":"特優級","type2":"民眾洽公場所","type":"女廁所","exec":null,"diaper":null},{"country":"10009","city":"10009130","village":"麥津村","number":"P130000052","name":"麥寮鄉公所5F-男廁","address":"雲林縣麥寮鄉麥津村中興路119號","administration":"縣市政府","latitude":"23.75387572","longitude":"120.2517815","grade":"特優級","type2":"民眾洽公場所","type":"男廁所","exec":null,"diaper":null},{"country":"10009","city":"10009130","village":"麥津村","number":"P130000051","name":"麥寮鄉公所4F-無障礙廁","address":"雲林縣麥寮鄉麥津村中興路119號","administration":"縣市政府","latitude":"23.753915","longitude":"120.2517064","grade":"特優級","type2":"民眾洽公場所","type":"無障礙廁所","exec":null,"diaper":null},{"country":"10009","city":"10009130","village":"麥津村","number":"P130000050","name":"麥寮鄉公所4F-女廁","address":"雲林縣麥寮鄉麥津村中興路119號","administration":"縣市政府","latitude":"23.753915","longitude":"120.2515991","grade":"特優級","type2":"民眾洽公場所","type":"女廁所","exec":null,"diaper":null},{"country":"10009","city":"10009130","village":"麥津村","number":"P130000049","name":"麥寮鄉公所4F-男廁","address":"雲林縣麥寮鄉麥津村中興路119號","administration":"縣市政府","latitude":"23.75394446","longitude":"120.2517707","grade":"特優級","type2":"民眾洽公場所","type":"男廁所","exec":null,"diaper":null},{"country":"10009","city":"10009070","village":"草嶺村","number":"P070000091","name":"草嶺遊客中心(無障礙廁所)","address":"雲林縣古坑鄉草嶺村40-2號","administration":"古坑鄉公所","latitude":"23.584935","longitude":"120.694124","grade":"特優級","type2":"民眾洽公場所","type":"無障礙廁所","exec":null,"diaper":null},{"country":"10009","city":"10009070","village":"草嶺村","number":"P070000090","name":"草嶺遊客中心(男廁)","address":"雲林縣古坑鄉草嶺村40-2號","administration":"古坑鄉公所","latitude":"23.584935","longitude":"120.694124","grade":"特優級","type2":"民眾洽公場所","type":"男廁所","exec":null,"diaper":null},{"country":"10009","city":"10009070","village":"草嶺村","number":"P070000089","name":"草嶺遊客中心(女廁)","address":"雲林縣古坑鄉草嶺村40-2號","administration":"古坑鄉公所","latitude":"23.584935","longitude":"120.694124","grade":"特優級","type2":"民眾洽公場所","type":"女廁所","exec":null,"diaper":null},{"country":"10009","city":"10009070","village":"華山村","number":"P070000088","name":"華山村民活動中心(男廁)","address":"雲林縣古坑鄉華山村荷苞厝103號","administration":"古坑鄉公所","latitude":"23.594938","longitude":"120.596733","grade":"特優級","type2":"社福機構、集會場所","type":"男廁所","exec":null,"diaper":null},{"country":"10009","city":"10009070","village":"荷苞村","number":"P070000053","name":"荷苞村荷苞桐花公園-男廁","address":"雲林縣古坑鄉荷苞村荷苞厝103號","administration":"古坑鄉公所","latitude":"23.66412862","longitude":"120.5863547","grade":"特優級","type2":"公園","type":"男廁所","exec":null,"diaper":null},{"country":"10009","city":"10009060","village":"新街里","number":"P060000243","name":"北港運動公園-男廁","address":"雲林縣北港鎮新街里北辰路1號","administration":"北港鎮公所民政課","latitude":"23.57689416","longitude":"120.3033169","grade":"優等級","type2":"公園","type":"男廁所","exec":null,"diaper":null},{"country":"10009","city":"10009060","village":"新街里","number":"P060000242","name":"北港運動公園-女廁","address":"雲林縣北港鎮新街里北辰路1號","administration":"北港鎮公所民政課","latitude":"23.57689416","longitude":"120.3033169","grade":"優等級","type2":"公園","type":"女廁所","exec":null,"diaper":null},{"country":"10009","city":"10009060","village":"新街里","number":"P060000226","name":"中國醫藥大學北港附設醫院1F-性別友善廁","address":"雲林縣北港鎮新街里新德路123號","administration":"縣市政府","latitude":"23.591763","longitude":"120.30782","grade":"特優級","type2":"社福機構、集會場所","type":"性別友善廁所","exec":null,"diaper":null},{"country":"10009","city":"10009060","village":"新街里","number":"P060000225","name":"中國醫藥大學北港附設醫院1F-男廁","address":"雲林縣北港鎮新街里新德路123號","administration":"縣市政府","latitude":"23.591763","longitude":"120.30782","grade":"特優級","type2":"社福機構、集會場所","type":"男廁所","exec":null,"diaper":null},{"country":"10009","city":"10009060","village":"新街里","number":"P060000224","name":"中國醫藥大學北港附設醫院1F-女廁","address":"雲林縣北港鎮新街里新德路123號","administration":"縣市政府","latitude":"23.591763","longitude":"120.30782","grade":"特優級","type2":"社福機構、集會場所","type":"女廁所","exec":null,"diaper":null},{"country":"10009","city":"10009130","village":"中興村","number":"P130000122","name":"台亞石油六輕二站-無障礙廁","address":"雲林縣麥寮鄉中興村仁德西路2段131號","administration":"經濟部","latitude":"23.797271","longitude":"120.239984","grade":"特優級","type2":"商業營業場所","type":"無障礙廁所","exec":null,"diaper":null},{"country":"10009","city":"10009130","village":"中興村","number":"P130000120","name":"台亞石油六輕二站-混合廁","address":"雲林縣麥寮鄉中興村仁德西路2段131號","administration":"經濟部","latitude":"23.797271","longitude":"120.239984","grade":"特優級","type2":"商業營業場所","type":"混合廁所","exec":null,"diaper":null},{"country":"10009","city":"10009050","village":"順天里","number":"P050000163","name":"土庫公墓土庫納骨塔-男廁","address":"雲林縣土庫鎮順天里中央路100號","administration":"土庫鎮公所","latitude":"23.672049","longitude":"120.3861","grade":"特優級","type2":"宗教禮儀場所","type":"男廁所","exec":null,"diaper":null},{"country":"10009","city":"10009010","village":"鎮西里","number":"P010000595","name":"雲林縣政府第一辦公大樓1F右側-親子廁","address":"雲林縣斗六市雲林路二段515號","administration":"縣市政府","latitude":"23.698963","longitude":"120.526314","grade":"特優級","type2":"民眾洽公場所","type":"親子廁所","exec":null,"diaper":null},{"country":"10009","city":"10009010","village":"鎮西里","number":"P010000594","name":"雲林縣政府第一辦公大樓1F右側-無障礙廁","address":"雲林縣斗六市雲林路二段515號","administration":"縣市政府","latitude":"23.698963","longitude":"120.526314","grade":"特優級","type2":"民眾洽公場所","type":"無障礙廁所","exec":null,"diaper":null},{"country":"10009","city":"10009070","village":"湳仔村","number":"P070000284","name":"崎坪坵公墓-男廁","address":"雲林縣古坑鄉湳仔村湳仔18-30號","administration":"古坑鄉公所","latitude":"23.648337","longitude":"120.551311","grade":"特優級","type2":"宗教禮儀場所","type":"男廁所","exec":null,"diaper":null},{"country":"10009","city":"10009010","village":"鎮西里","number":"P010000572","name":"雲林縣政府第一辦公大樓3F右側-女廁","address":"雲林縣斗六市雲林路二段515號","administration":"縣市政府","latitude":"23.698963","longitude":"120.526314","grade":"特優級","type2":"民眾洽公場所","type":"女廁所","exec":null,"diaper":null},{"country":"10009","city":"10009010","village":"鎮西里","number":"P010000571","name":"雲林縣政府第一辦公大樓3F左側-男廁","address":"雲林縣斗六市雲林路二段515號","administration":"縣市政府","latitude":"23.698963","longitude":"120.526314","grade":"特優級","type2":"民眾洽公場所","type":"男廁所","exec":null,"diaper":null},{"country":"10009","city":"10009010","village":"鎮西里","number":"P010000570","name":"雲林縣政府第一辦公大樓2F右側-女廁","address":"雲林縣斗六市雲林路二段515號","administration":"縣市政府","latitude":"23.698963","longitude":"120.526314","grade":"特優級","type2":"民眾洽公場所","type":"女廁所","exec":null,"diaper":null},{"country":"10009","city":"10009010","village":"鎮西里","number":"P010000569","name":"雲林縣政府第一辦公大樓2F左側-女廁","address":"雲林縣斗六市雲林路二段515號","administration":"縣市政府","latitude":"23.698963","longitude":"120.526314","grade":"特優級","type2":"民眾洽公場所","type":"女廁所","exec":null,"diaper":null},{"country":"10009","city":"10009010","village":"鎮西里","number":"P010000568","name":"雲林縣政府第一辦公大樓2F右側-男廁","address":"雲林縣斗六市雲林路二段515號","administration":"縣市政府","latitude":"23.698963","longitude":"120.526314","grade":"特優級","type2":"民眾洽公場所","type":"男廁所","exec":null,"diaper":null},{"country":"10009","city":"10009010","village":"鎮西里","number":"P010000567","name":"雲林縣政府第一辦公大樓1F右側-男廁","address":"雲林縣斗六市雲林路二段515號","administration":"縣市政府","latitude":"23.698963","longitude":"120.526314","grade":"特優級","type2":"民眾洽公場所","type":"男廁所","exec":null,"diaper":null},{"country":"10009","city":"10009010","village":"鎮西里","number":"P010000566","name":"雲林縣政府第一辦公大樓1F左側-女廁","address":"雲林縣斗六市雲林路二段515號","administration":"縣市政府","latitude":"23.698963","longitude":"120.526314","grade":"特優級","type2":"民眾洽公場所","type":"女廁所","exec":null,"diaper":null},{"country":"10009","city":"10009010","village":"鎮西里","number":"P010000565","name":"雲林縣政府第一辦公大樓1F左側-男廁","address":"雲林縣斗六市雲林路二段515號","administration":"縣市政府","latitude":"23.69876442","longitude":"120.5263066","grade":"特優級","type2":"民眾洽公場所","type":"男廁所","exec":null,"diaper":null},{"country":"10009","city":"10009140","village":"東南村","number":"P140000025","name":"東勢賜安宮-混合廁","address":"雲林縣東勢鄉東南村四安路25號","administration":"其他","latitude":"23.67416136","longitude":"120.2549154","grade":"特優級","type2":"宗教禮儀場所","type":"混合廁所","exec":null,"diaper":null},{"country":"10009","city":"10009010","village":"社口里","number":"P010000678","name":"機十二汽車立體停車場-女廁","address":"雲林縣斗六市斗六市社口里府前街32號","administration":"縣市政府","latitude":"23.70638376","longitude":"120.5413946","grade":"特優級","type2":"交通","type":"女廁所","exec":null,"diaper":null},{"country":"10009","city":"10009010","village":"社口里","number":"P010000676","name":"機十二汽車立體停車場-無障礙廁","address":"雲林縣斗六市斗六市社口里府前街32號","administration":"縣市政府","latitude":"23.70633857","longitude":"120.5413544","grade":"特優級","type2":"交通","type":"無障礙廁所","exec":null,"diaper":null},{"country":"10009","city":"10009010","village":"社口里","number":"P010000675","name":"機十二汽車立體停車場-男廁","address":"雲林縣斗六市斗六市社口里府前街32號","administration":"縣市政府","latitude":"23.70633218","longitude":"120.5413141","grade":"特優級","type2":"交通","type":"男廁所","exec":null,"diaper":null},{"country":"10009","city":"10009050","village":"興新里","number":"P050000172","name":"土庫公墓順天納骨堂公廁-混合廁","address":"雲林縣土庫鎮興新里中央路100號","administration":"雲林縣土庫鎮公所","latitude":"23.6691","longitude":"120.38183","grade":"特優級","type2":"宗教禮儀場所","type":"混合廁所","exec":null,"diaper":null},{"country":"10009","city":"10009020","village":"南昌里","number":"P020000224","name":"斗南鎮第二公有零售市場B棟女廁","address":"雲林縣斗南鎮南昌里光復街36號","administration":"雲林縣斗南鎮公所","latitude":"23.674864","longitude":"120.4778","grade":"特優級","type2":"","type":"女廁所","exec":null,"diaper":null},{"country":"10009","city":"10009020","village":"南昌里","number":"P020000223","name":"斗南鎮第二公有零售市場C棟男廁","address":"雲林縣斗南鎮南昌里光復街36號","administration":"雲林縣斗南鎮公所","latitude":"23.674864","longitude":"120.4778","grade":"特優級","type2":"商業營業場所","type":"男廁所","exec":null,"diaper":null},{"country":"10009","city":"10009020","village":"南昌里","number":"P020000222","name":"斗南鎮第二公有零售市場C棟女廁","address":"雲林縣斗南鎮南昌里光復街36號","administration":"雲林縣斗南鎮公所","latitude":"23.674864","longitude":"120.4778","grade":"特優級","type2":"商業營業場所","type":"女廁所","exec":null,"diaper":null},{"country":"10009","city":"10009040","village":"振興里","number":"P040000164","name":"西螺服務區北上-性別友善廁","address":"雲林縣西螺鎮振興里2號","administration":"交通部高速公路局中區養護工程分局","latitude":"23.792127","longitude":"120.475498","grade":"特優級","type2":"交通","type":"性別友善廁所","exec":null,"diaper":null},{"country":"10009","city":"10009040","village":"振興里","number":"P040000163","name":"西螺服務區南下-性別友善廁","address":"雲林縣西螺鎮振興里1號","administration":"交通部高速公路局中區養護工程分局","latitude":"23.792127","longitude":"120.475498","grade":"特優級","type2":"交通","type":"性別友善廁所","exec":null,"diaper":null},{"country":"10009","city":"10009010","village":"鎮西里","number":"P010000654","name":"斗六柚子公園-男廁","address":"雲林縣斗六市南昌街72號","administration":"縣市政府","latitude":"23.70184521","longitude":"120.5358639","grade":"特優級","type2":"公園","type":"男廁所","exec":null,"diaper":null},{"country":"10009","city":"10009010","village":"鎮西里","number":"P010000653","name":"斗六柚子公園-女廁","address":"雲林縣斗六市南昌街72號","administration":"縣市政府","latitude":"23.70196408","longitude":"120.5358778","grade":"特優級","type2":"公園","type":"女廁所","exec":null,"diaper":null},{"country":"10009","city":"10009130","village":"麥豐村","number":"P130000070","name":"麥寮公有市場-女廁","address":"雲林縣麥寮鄉麥豐村表福路97號","administration":"縣市政府","latitude":"23.7474985","longitude":"120.2542534","grade":"特優級","type2":"商業營業場所","type":"女廁所","exec":null,"diaper":null},{"country":"10009","city":"10009130","village":"麥豐村","number":"P130000069","name":"麥寮公有市場-男廁","address":"雲林縣麥寮鄉麥豐村表福路97號","administration":"縣市政府","latitude":"23.74784614","longitude":"120.2541525","grade":"特優級","type2":"商業營業場所","type":"男廁所","exec":null,"diaper":null},{"country":"10009","city":"10009130","village":"橋頭村","number":"P130000101","name":"麥寮橋頭零售市場-無障礙廁","address":"雲林縣麥寮鄉橋頭村仁德路","administration":"縣市政府","latitude":"23.7955527","longitude":"120.2741511","grade":"特優級","type2":"商業營業場所","type":"無障礙廁所","exec":null,"diaper":null},{"country":"10009","city":"10009130","village":"橋頭村","number":"P130000100","name":"麥寮橋頭零售市場-女廁","address":"雲林縣麥寮鄉橋頭村仁德路","administration":"縣市政府","latitude":"23.79595519","longitude":"120.2762003","grade":"特優級","type2":"商業營業場所","type":"女廁所","exec":null,"diaper":null},{"country":"10009","city":"10009130","village":"橋頭村","number":"P130000099","name":"麥寮橋頭零售市場-男廁","address":"雲林縣麥寮鄉橋頭村仁德路","administration":"縣市政府","latitude":"23.79637535","longitude":"120.2761402","grade":"特優級","type2":"商業營業場所","type":"男廁所","exec":null,"diaper":null},{"country":"10009","city":"10009010","village":"鎮西里","number":"P010000667","name":"雲林縣稅務局1F北側-親子廁","address":"雲林縣斗六市府文路35號","administration":"財政部","latitude":"23.697588","longitude":"120.528051","grade":"特優級","type2":"民眾洽公場所","type":"親子廁所","exec":null,"diaper":null},{"country":"10009","city":"10009010","village":"鎮西里","number":"P010000666","name":"雲林縣稅務局1F北側-女廁","address":"雲林縣斗六市府文路35號","administration":"財政部","latitude":"23.697588","longitude":"120.528051","grade":"特優級","type2":"民眾洽公場所","type":"女廁所","exec":null,"diaper":null},{"country":"10009","city":"10009010","village":"鎮西里","number":"P010000665","name":"雲林縣稅務局1F南側-無障礙廁","address":"雲林縣斗六市府文路35號","administration":"財政部","latitude":"23.697588","longitude":"120.528051","grade":"特優級","type2":"民眾洽公場所","type":"無障礙廁所","exec":null,"diaper":null},{"country":"10009","city":"10009010","village":"鎮西里","number":"P010000664","name":"雲林縣稅務局1F南側-女廁","address":"雲林縣斗六市府文路35號","administration":"財政部","latitude":"23.697588","longitude":"120.528051","grade":"特優級","type2":"民眾洽公場所","type":"女廁所","exec":null,"diaper":null},{"country":"10009","city":"10009010","village":"保庄里","number":"P010000663","name":"斗六市水資源回收中心公園區-混合廁","address":"雲林縣斗六市保源二街199號","administration":"縣市政府","latitude":"23.71330178","longitude":"120.530824","grade":"特優級","type2":"公園","type":"混合廁所","exec":null,"diaper":null},{"country":"10009","city":"10009040","village":"新豐里","number":"P040000172","name":"西螺鎮果菜市場北側-女廁","address":"雲林縣西螺鎮福來路38號","administration":"西螺鎮公所","latitude":"23.783931","longitude":"120.4505102","grade":"特優級","type2":"商業營業場所","type":"女廁所","exec":null,"diaper":null},{"country":"10009","city":"10009040","village":"新豐里","number":"P040000171","name":"西螺鎮果菜市場北側-男廁","address":"雲林縣西螺鎮福來路38號","administration":"西螺鎮公所","latitude":"23.78393046","longitude":"120.4504968","grade":"特優級","type2":"商業營業場所","type":"男廁所","exec":null,"diaper":null},{"country":"10009","city":"10009030","village":"平和里","number":"P030000398","name":"中油台糖光明站-無障礙廁","address":"雲林縣虎尾鎮平和里光明路105號","administration":"台灣糖業股份有限公司","latitude":"23.7077","longitude":"120.44894","grade":"特優級","type2":"商業營業場所","type":"無障礙廁所","exec":null,"diaper":null},{"country":"10009","city":"10009100","village":"林中村","number":"P100000114","name":"林內鄉市場-女廁","address":"雲林縣林內鄉林中村中正路","administration":"林內鄉公所","latitude":"23.75848119","longitude":"120.615145","grade":"特優級","type2":"商業營業場所","type":"女廁所","exec":null,"diaper":null},{"country":"10009","city":"10009030","village":"廉使里","number":"P030000239","name":"高鐵雲林車站-男廁-站內","address":"雲林縣虎尾鎮廉使里站前東路301號","administration":"交通部","latitude":"23.73624775","longitude":"120.4160786","grade":"特優級","type2":"交通","type":"男廁所","exec":null,"diaper":null},{"country":"10009","city":"10009030","village":"廉使里","number":"P030000238","name":"高鐵雲林站-女廁-站外","address":"雲林縣虎尾鎮廉使里站前東路301號","administration":"交通部","latitude":"23.73618882","longitude":"120.4163629","grade":"特優級","type2":"交通","type":"女廁所","exec":null,"diaper":null},{"country":"10009","city":"10009030","village":"廉使里","number":"P030000237","name":"高鐵雲林車站-親子廁所-站外","address":"雲林縣虎尾鎮廉使里站前東路301號","administration":"交通部","latitude":"23.73626739","longitude":"120.4160571","grade":"特優級","type2":"交通","type":"親子廁所","exec":null,"diaper":null},{"country":"10009","city":"10009030","village":"廉使里","number":"P030000236","name":"高鐵雲林車站-無障礙廁所-站外","address":"雲林縣虎尾鎮廉使里站前東路301號","administration":"交通部","latitude":"23.73626739","longitude":"120.4161215","grade":"特優級","type2":"交通","type":"無障礙廁所","exec":null,"diaper":null},{"country":"10009","city":"10009130","village":"麥津村","number":"P130000007","name":"麥寮運動公園環保示範公廁-無障礙廁","address":"雲林縣麥寮鄉麥津村泰順路","administration":"縣市政府","latitude":"23.75306852","longitude":"120.2556524","grade":"特優級","type2":"公園","type":"無障礙廁所","exec":null,"diaper":null},{"country":"10009","city":"10009130","village":"麥津村","number":"P130000006","name":"麥寮運動公園環保示範公廁-女廁","address":"雲林縣麥寮鄉麥津村泰順路","administration":"縣市政府","latitude":"23.75309209","longitude":"120.2535925","grade":"特優級","type2":"公園","type":"女廁所","exec":null,"diaper":null},{"country":"10009","city":"10009130","village":"麥津村","number":"P130000005","name":"麥寮運動公園環保示範公廁-男廁","address":"雲林縣麥寮鄉麥津村泰順路","administration":"縣市政府","latitude":"23.75294964","longitude":"120.2542186","grade":"特優級","type2":"公園","type":"男廁所","exec":null,"diaper":null},{"country":"10009","city":"10009090","village":"莿桐村","number":"P090000127","name":"莿桐公有零售市場-混合廁","address":"雲林縣莿桐鄉莿桐村中山路100號","administration":"莿桐鄉公所","latitude":"23.756587","longitude":"120.500491","grade":"特優級","type2":"商業營業場所","type":"混合廁所","exec":null,"diaper":null},{"country":"10009","city":"10009120","village":"南陽村","number":"P120000105","name":"崙背鄉公有零售市場-女廁","address":"雲林縣崙背鄉南陽村永昌路1號","administration":"崙背鄉公所","latitude":"23.75983","longitude":"120.352647","grade":"特優級","type2":"","type":"女廁所","exec":null,"diaper":null},{"country":"10009","city":"10009070","village":"永昌村","number":"P070000293","name":"永光公有零售市場-女廁","address":"雲林縣古坑鄉永昌村永興路24號","administration":"古坑鄉公所","latitude":"23.626555","longitude":"120.552146","grade":"特優級","type2":"商業營業場所","type":"女廁所","exec":null,"diaper":null},{"country":"10009","city":"10009070","village":"永昌村","number":"P070000292","name":"永光公有零售市場-男廁","address":"雲林縣古坑鄉永昌村永興路24號","administration":"古坑鄉公所","latitude":"23.626555","longitude":"120.552146","grade":"特優級","type2":"商業營業場所","type":"男廁所","exec":null,"diaper":null},{"country":"10009","city":"10009070","village":"東和村","number":"P070000291","name":"東和公有零售市場-混合廁","address":"雲林縣古坑鄉東和村文化路76號","administration":"古坑鄉公所","latitude":"23.68338","longitude":"120.56967","grade":"特優級","type2":"商業營業場所","type":"混合廁所","exec":null,"diaper":null},{"country":"10009","city":"10009060","village":"東華里","number":"P060000223","name":"北港第一公有零售市場-男廁","address":"雲林縣北港鎮東華里中山路168號","administration":"縣市政府","latitude":"23.567474","longitude":"120.305214","grade":"特優級","type2":"","type":"男廁所","exec":null,"diaper":null},{"country":"10009","city":"10009020","village":"明昌里","number":"P020000215","name":"斗南中興夜市後側-女廁","address":"雲林縣斗南鎮明昌里中興路187號","administration":"斗南鎮公所農經課","latitude":"23.6769","longitude":"120.46783","grade":"特優級","type2":"商業營業場所","type":"女廁所","exec":null,"diaper":null},{"country":"10009","city":"10009020","village":"明昌里","number":"P020000214","name":"斗南中興夜市後側-男廁","address":"雲林縣斗南鎮明昌里中興路187號","administration":"斗南鎮公所農經課","latitude":"23.6769","longitude":"120.46783","grade":"特優級","type2":"商業營業場所","type":"男廁所","exec":null,"diaper":null},{"country":"10009","city":"10009020","village":"明昌里","number":"P020000213","name":"斗南中興夜市前側-女廁","address":"雲林縣斗南鎮明昌里中興路187號","administration":"斗南鎮公所農經課","latitude":"23.6777838","longitude":"120.46729","grade":"特優級","type2":"商業營業場所","type":"女廁所","exec":null,"diaper":null},{"country":"10009","city":"10009050","village":"南平里","number":"P050000167","name":"馬光公有零售市場-女廁","address":"雲林縣土庫鎮南平里忠孝街35號","administration":"土庫鎮公所","latitude":"23.705027","longitude":"120.355886","grade":"特優級","type2":"","type":"女廁所","exec":null,"diaper":null},{"country":"10009","city":"10009050","village":"越港里","number":"P050000166","name":"土庫第三公有零售市場-女廁","address":"雲林縣土庫鎮越港里仁美街290號","administration":"土庫鎮公所","latitude":"23.674209","longitude":"120.393079","grade":"特優級","type2":"","type":"女廁所","exec":null,"diaper":null},{"country":"10009","city":"10009050","village":"越港里","number":"P050000165","name":"土庫第三公有零售市場-無障礙廁","address":"雲林縣土庫鎮越港里仁美街290號","administration":"縣市政府","latitude":"23.674209","longitude":"120.393079","grade":"特優級","type2":"","type":"無障礙廁所","exec":null,"diaper":null},{"country":"10009","city":"10009040","village":"福興里","number":"P040000081","name":"西螺鎮立網球場公廁女廁","address":"雲林縣西螺鎮福興里中市路27號","administration":"西螺鎮公所","latitude":"23.802149","longitude":"120.460775","grade":"特優級","type2":"文化育樂活動場所","type":"女廁所","exec":null,"diaper":null},{"country":"10009","city":"10009040","village":"福興里","number":"P040000080","name":"西螺鎮立網球場公廁男廁","address":"雲林縣西螺鎮福興里中市路27號","administration":"西螺鎮公所","latitude":"23.802149","longitude":"120.460775","grade":"特優級","type2":"文化育樂活動場所","type":"男廁所","exec":null,"diaper":null},{"country":"10009","city":"10009020","village":"北銘里","number":"P020000067","name":"台灣中油斗南站-無障礙廁","address":"雲林縣斗南鎮北銘里延平路二段165號","administration":"台灣中油股份有限公司","latitude":"23.680064","longitude":"120.481205","grade":"特優級","type2":"商業營業場所","type":"無障礙廁所","exec":null,"diaper":null},{"country":"10009","city":"10009010","village":"公正里","number":"P010000625","name":"中正路145巷公正驛站-無障礙廁","address":"雲林縣斗六市中正路145巷2-20","administration":"縣市政府","latitude":"23.706217","longitude":"120.5448677","grade":"特優級","type2":"民眾洽公場所","type":"無障礙廁所","exec":null,"diaper":null},{"country":"10009","city":"10009010","village":"公正里","number":"P010000624","name":"中正路145巷公正驛站-女廁","address":"雲林縣斗六市中正路145巷2-20","administration":"縣市政府","latitude":"23.70621046","longitude":"120.544802","grade":"特優級","type2":"民眾洽公場所","type":"女廁所","exec":null,"diaper":null},{"country":"10009","city":"10009010","village":"公正里","number":"P010000623","name":"中正路145巷公正驛站-男廁","address":"雲林縣斗六市中正路145巷2-20","administration":"縣市政府","latitude":"23.70620658","longitude":"120.5448789","grade":"特優級","type2":"民眾洽公場所","type":"男廁所","exec":null,"diaper":null},{"country":"10009","city":"10009090","village":"麻園村","number":"P090000118","name":"台塑石油翔鴻站-無障礙廁","address":"雲林縣莿桐鄉麻園村榮貫101之11號","administration":"翔鴻加油站有限公司","latitude":"23.77248448","longitude":"120.5387418","grade":"特優級","type2":"","type":"無障礙廁所","exec":null,"diaper":null},{"country":"10009","city":"10009090","village":"埔子村","number":"P090000081","name":"福懋中正加油站-無障礙廁","address":"雲林縣莿桐鄉埔子村中正路20號","administration":"福懋興業股份有限公司","latitude":"23.756295","longitude":"120.504505","grade":"特優級","type2":"商業營業場所","type":"無障礙廁所","exec":null,"diaper":null},{"country":"10009","city":"10009090","village":"莿桐村","number":"P090000008","name":"台灣中油莿桐站-無障礙廁","address":"雲林縣莿桐鄉莿桐村中山路251號","administration":"台灣中油股份有限公司","latitude":"23.75502465","longitude":"120.4989052","grade":"特優級","type2":"商業營業場所","type":"無障礙廁所","exec":null,"diaper":null},{"country":"10009","city":"10009190","village":"梧南村","number":"P190000102","name":"口湖遊客中心-女廁","address":"雲林縣口湖鄉梧南村光明路163號","administration":"交通部","latitude":"23.54754823","longitude":"120.1819646","grade":"特優級","type2":"民眾洽公場所","type":"女廁所","exec":null,"diaper":null},{"country":"10009","city":"10009190","village":"梧南村","number":"P190000101","name":"口湖遊客中心-男廁","address":"雲林縣口湖鄉梧南村光明路163號","administration":"交通部","latitude":"23.54722858","longitude":"120.1824474","grade":"特優級","type2":"民眾洽公場所","type":"男廁所","exec":null,"diaper":null},{"country":"10009","city":"10009050","village":"宮北里","number":"P050000005","name":"土庫長青公園-無障礙廁","address":"雲林縣土庫鎮宮北里新建路1-6號","administration":"土庫鎮公所","latitude":"23.675899","longitude":"120.387649","grade":"特優級","type2":"公園","type":"無障礙廁所","exec":null,"diaper":null},{"country":"10009","city":"10009050","village":"宮北里","number":"P050000004","name":"土庫長青公園-女廁","address":"雲林縣土庫鎮宮北里新建路1-6號","administration":"土庫鎮公所","latitude":"23.675899","longitude":"120.387649","grade":"特優級","type2":"公園","type":"女廁所","exec":null,"diaper":null},{"country":"10009","city":"10009180","village":"崙北村","number":"P180000104","name":"三條崙海清宮停車場-女廁","address":"雲林縣四湖鄉崙北村海清路93號","administration":"其他","latitude":"23.65563661","longitude":"120.1525366","grade":"特優級","type2":"宗教禮儀場所","type":"女廁所","exec":null,"diaper":null},{"country":"10009","city":"10009180","village":"崙北村","number":"P180000103","name":"三條崙海清宮停車場-男廁","address":"雲林縣四湖鄉崙北村海清路93號","administration":"其他","latitude":"23.65563661","longitude":"120.1525366","grade":"特優級","type2":"宗教禮儀場所","type":"男廁所","exec":null,"diaper":null},{"country":"10009","city":"10009190","village":"湖東村","number":"P190000018","name":"口湖鄉立圖書館-混合廁","address":"雲林縣口湖鄉湖東村中正路一段43號","administration":"縣市政府","latitude":"23.58041414","longitude":"120.1867068","grade":"特優級","type2":"文化育樂活動場所","type":"混合廁所","exec":null,"diaper":null},{"country":"10009","city":"10009140","village":"東南村","number":"P140000022","name":"東勢鄉立圖書館1F-無障礙廁","address":"雲林縣東勢鄉東南村東榮路29巷1號","administration":"縣市政府","latitude":"23.67416259","longitude":"120.2555215","grade":"特優級","type2":"文化育樂活動場所","type":"無障礙廁所","exec":null,"diaper":null},{"country":"10009","city":"10009050","village":"宮北里","number":"P050000039","name":"土庫鎮立圖書館-無障礙廁","address":"雲林縣土庫鎮順天里中正路69-1號","administration":"土庫鎮公所","latitude":"23.675084","longitude":"120.389354","grade":"特優級","type2":"文化育樂活動場所","type":"無障礙廁所","exec":null,"diaper":null},{"country":"10009","city":"10009050","village":"順天里","number":"P050000038","name":"土庫鎮立圖書館-女廁","address":"雲林縣土庫鎮順天里中正路69-1號","administration":"土庫鎮公所","latitude":"23.675084","longitude":"120.389354","grade":"特優級","type2":"文化育樂活動場所","type":"女廁所","exec":null,"diaper":null},{"country":"10009","city":"10009120","village":"南陽村","number":"P120000053","name":"崙背鄉立圖書館-混合廁","address":"雲林縣崙背鄉南陽村南光路9號","administration":"崙背鄉公所","latitude":"23.75864676","longitude":"120.3530096","grade":"特優級","type2":"文化育樂活動場所","type":"混合廁所","exec":null,"diaper":null},{"country":"10009","city":"10009010","village":"長安里","number":"P010000370","name":"統一超商晟業門市-混合廁","address":"雲林縣斗六市萬年路592號","administration":"縣市政府","latitude":"23.73108988","longitude":"120.5524744","grade":"特優級","type2":"商業營業場所","type":"混合廁所","exec":null,"diaper":null},{"country":"10009","city":"10009010","village":"長安里","number":"P010000369","name":"萊爾富斗六萬年店-混合廁","address":"雲林縣斗六市長安里萬年路632號","administration":"經濟部","latitude":"23.73175855","longitude":"120.5528666","grade":"特優級","type2":"商業營業場所","type":"混合廁所","exec":null,"diaper":null},{"country":"10009","city":"10009030","village":"新興里","number":"P030000007","name":"虎尾鎮公有零售第三市場-混合廁","address":"雲林縣虎尾鎮新興里中正路162號","administration":"虎尾鎮公所","latitude":"23.708548","longitude":"120.433006","grade":"優等級","type2":"商業營業場所","type":"混合廁所","exec":null,"diaper":null},{"country":"10009","city":"10009030","village":"新興里","number":"P030000006","name":"虎尾鎮公有零售第一市場-女廁","address":"雲林縣虎尾鎮新興里中正路64號","administration":"虎尾鎮公所","latitude":"23.7092038","longitude":"120.43519","grade":"優等級","type2":"商業營業場所","type":"女廁所","exec":null,"diaper":null},{"country":"10009","city":"10009030","village":"新興里","number":"P030000005","name":"虎尾鎮公有零售第一市場-男廁","address":"雲林縣虎尾鎮新興里中正路64號","administration":"虎尾鎮公所","latitude":"23.7092038","longitude":"120.43519","grade":"優等級","type2":"商業營業場所","type":"男廁所","exec":null,"diaper":null},{"country":"10009","city":"10009030","village":"平和里","number":"P030000014","name":"虎尾鎮立圖書館1F館內-女廁","address":"632雲林縣虎尾鎮光明路68號","administration":"虎尾鎮立圖書館","latitude":"23.70689851","longitude":"120.4471225","grade":"特優級","type2":"文化育樂活動場所","type":"女廁所","exec":null,"diaper":null},{"country":"10009","city":"10009030","village":"平和里","number":"P030000013","name":"虎尾鎮立圖書館1F館內-男廁","address":"雲林縣虎尾鎮新興里光明路68號","administration":"虎尾鎮立圖書館","latitude":"23.70686904","longitude":"120.4470849","grade":"特優級","type2":"文化育樂活動場所","type":"男廁所","exec":null,"diaper":null},{"country":"10009","city":"10009030","village":"新興里","number":"P030000029","name":"虎尾廳3F-女廁","address":"雲林縣虎尾鎮新興里行政路6號","administration":"虎尾鎮公所","latitude":"23.708366","longitude":"120.445084","grade":"特優級","type2":"民眾洽公場所","type":"女廁所","exec":null,"diaper":null},{"country":"10009","city":"10009030","village":"新興里","number":"P030000028","name":"虎尾廳3F-男廁","address":"雲林縣虎尾鎮新興里行政路6號","administration":"虎尾鎮公所","latitude":"23.708366","longitude":"120.445084","grade":"特優級","type2":"民眾洽公場所","type":"男廁所","exec":null,"diaper":null},{"country":"10009","city":"10009030","village":"新興里","number":"P030000027","name":"虎尾鎮公所3F-女廁","address":"雲林縣虎尾鎮新興里行政路6號","administration":"虎尾鎮公所","latitude":"23.70834255","longitude":"120.4451725","grade":"特優級","type2":"民眾洽公場所","type":"女廁所","exec":null,"diaper":null},{"country":"10009","city":"10009030","village":"新興里","number":"P030000026","name":"虎尾鎮公所3F-男廁","address":"雲林縣虎尾鎮新興里行政路6號","administration":"虎尾鎮公所","latitude":"23.708366","longitude":"120.445084","grade":"特優級","type2":"民眾洽公場所","type":"男廁所","exec":null,"diaper":null},{"country":"10009","city":"10009090","village":"莿桐村","number":"P090000039","name":"莿桐鄉立圖書館3F-男廁","address":"雲林縣莿桐鄉莿桐村和平路53之1號","administration":"莿桐鄉公所","latitude":"23.76118623","longitude":"120.5026369","grade":"特優級","type2":"文化育樂活動場所","type":"男廁所","exec":null,"diaper":null},{"country":"10009","city":"10009090","village":"莿桐村","number":"P090000038","name":"莿桐鄉立圖書館3F-無障礙廁","address":"雲林縣莿桐鄉莿桐村和平路53之1號","administration":"莿桐鄉公所","latitude":"23.76119505","longitude":"120.5026365","grade":"特優級","type2":"文化育樂活動場所","type":"無障礙廁所","exec":null,"diaper":null},{"country":"10009","city":"10009090","village":"莿桐村","number":"P090000037","name":"莿桐鄉立圖書館3F-女廁","address":"雲林縣莿桐鄉莿桐村和平路53之1號","administration":"莿桐鄉公所","latitude":"23.76119873","longitude":"120.5026271","grade":"特優級","type2":"文化育樂活動場所","type":"女廁所","exec":null,"diaper":null},{"country":"10009","city":"10009090","village":"莿桐村","number":"P090000036","name":"莿桐鄉立圖書館2F-混合廁","address":"雲林縣莿桐鄉莿桐村和平路53之1號","administration":"莿桐鄉公所","latitude":"23.76118155","longitude":"120.5026369","grade":"特優級","type2":"文化育樂活動場所","type":"混合廁所","exec":null,"diaper":null},{"country":"10009","city":"10009090","village":"莿桐村","number":"P090000035","name":"莿桐鄉立圖書館2F-親子廁","address":"雲林縣莿桐鄉莿桐村和平路53之1號","administration":"莿桐鄉公所","latitude":"23.76119449","longitude":"120.5026288","grade":"特優級","type2":"文化育樂活動場所","type":"親子廁所","exec":null,"diaper":null},{"country":"10009","city":"10009180","village":"湖西村","number":"P180000056","name":"四湖鄉調解委員會-混合廁","address":"雲林縣四湖鄉湖西村中山西路44號","administration":"縣市政府","latitude":"23.63808357","longitude":"120.2243224","grade":"特優級","type2":"民眾洽公場所","type":"混合廁所","exec":null,"diaper":null},{"country":"10009","city":"10009030","village":"平和里","number":"P030000185","name":"虎尾多功能活動中心-無障礙廁","address":"雲林縣虎尾鎮平和里大成街123號","administration":"虎尾鎮公所","latitude":"23.71188203","longitude":"120.4478684","grade":"特優級","type2":"社福機構、集會場所","type":"無障礙廁所","exec":null,"diaper":null},{"country":"10009","city":"10009010","village":"鎮西里","number":"P010000593","name":"雲林縣政府第二辦公大樓五樓女廁（後側）","address":"雲林縣斗六市鎮西里雲林路二段515號","administration":"縣市政府","latitude":"23.698662","longitude":"120.5266768","grade":"特優級","type2":"民眾洽公場所","type":"女廁所","exec":null,"diaper":null},{"country":"10009","city":"10009010","village":"鎮西里","number":"P010000591","name":"雲林縣政府第二辦公大樓5F前側-女廁","address":"雲林縣斗六市鎮西里雲林路二段515號","administration":"縣市政府","latitude":"23.698662","longitude":"120.5266768","grade":"特優級","type2":"民眾洽公場所","type":"女廁所","exec":null,"diaper":null},{"country":"10009","city":"10009010","village":"鎮西里","number":"P010000590","name":"雲林縣政府第二辦公大樓五樓男廁（前側）","address":"雲林縣斗六市鎮西里雲林路二段515號","administration":"縣市政府","latitude":"23.698662","longitude":"120.5266768","grade":"特優級","type2":"民眾洽公場所","type":"男廁所","exec":null,"diaper":null},{"country":"10009","city":"10009010","village":"鎮西里","number":"P010000589","name":"雲林縣政府第二辦公大樓4F後側-女廁","address":"雲林縣斗六市鎮西里雲林路二段515號","administration":"縣市政府","latitude":"23.698662","longitude":"120.5266768","grade":"特優級","type2":"民眾洽公場所","type":"女廁所","exec":null,"diaper":null},{"country":"10009","city":"10009010","village":"鎮西里","number":"P010000588","name":"雲林縣政府第二辦公大樓4F後側-男廁","address":"雲林縣斗六市鎮西里雲林路二段515號","administration":"縣市政府","latitude":"23.698662","longitude":"120.5266768","grade":"特優級","type2":"民眾洽公場所","type":"男廁所","exec":null,"diaper":null},{"country":"10009","city":"10009010","village":"鎮西里","number":"P010000587","name":"雲林縣政府第二辦公大樓4F前側-女廁","address":"雲林縣斗六市鎮西里雲林路二段515號","administration":"縣市政府","latitude":"23.698662","longitude":"120.5266768","grade":"特優級","type2":"民眾洽公場所","type":"女廁所","exec":null,"diaper":null},{"country":"10009","city":"10009050","village":"忠正里","number":"P050000045","name":"第一木構市場-無障礙廁","address":"雲林縣土庫鎮忠正里大同路62號","administration":"土庫鎮公所","latitude":"23.676149","longitude":"120.391068","grade":"特優級","type2":"","type":"無障礙廁所","exec":null,"diaper":null},{"country":"10009","city":"10009070","village":"湳仔村","number":"P070000283","name":"228公廁(親子廁)","address":"雲林縣古坑鄉湳仔村台三線","administration":"古坑鄉公所公園路燈管理所","latitude":"23.65490233","longitude":"120.5437517","grade":"特優級","type2":"公園","type":"親子廁所","exec":null,"diaper":null},{"country":"10009","city":"10009070","village":"湳仔村","number":"P070000282","name":"228公廁(女廁)","address":"雲林縣古坑鄉湳仔村台三線","administration":"古坑鄉公所公園路燈管理所","latitude":"23.65492198","longitude":"120.5437303","grade":"特優級","type2":"公園","type":"女廁所","exec":null,"diaper":null},{"country":"10009","city":"10009110","village":"港後村","number":"P110000061","name":"二崙自強果菜市場-無障礙廁","address":"雲林縣二崙鄉港後村太平路1-7號","administration":"二崙鄉公所","latitude":"23.816747","longitude":"120.395115","grade":"特優級","type2":"商業營業場所","type":"無障礙廁所","exec":null,"diaper":null},{"country":"10009","city":"10009070","village":"湳仔村","number":"P070000286","name":"崎坪坵公墓-無障礙廁","address":"雲林縣古坑鄉湳仔村湳仔18-30號","administration":"古坑鄉公所","latitude":"23.646971","longitude":"120.550001","grade":"特優級","type2":"宗教禮儀場所","type":"無障礙廁所","exec":null,"diaper":null},{"country":"10009","city":"10009030","village":"頂溪里","number":"P030000316","name":"虎尾持法媽祖宮-男廁","address":"雲林縣虎尾鎮頂溪里西園46號","administration":"虎尾持法媽祖宮","latitude":"23.738422","longitude":"120.461206","grade":"特優級","type2":"宗教禮儀場所","type":"男廁所","exec":null,"diaper":null},{"country":"10009","city":"10009060","village":"光復里","number":"P060000059","name":"中油台糖北港站-無障礙廁","address":"雲林縣北港鎮光復里華南路66號","administration":"經濟部","latitude":"23.569612","longitude":"120.29987","grade":"特優級","type2":"","type":"無障礙廁所","exec":null,"diaper":null},{"country":"10009","city":"10009070","village":"永光村","number":"P070000198","name":"劍湖山世界第4座劍湖樓餐廳旁-親子廁","address":"雲林縣古坑鄉永光村大湖口67號","administration":"劍湖山世界","latitude":"23.61660924","longitude":"120.579586","grade":"特優級","type2":"觀光地區及風景區","type":"親子廁所","exec":null,"diaper":null},{"country":"10009","city":"10009070","village":"崁腳村","number":"P070000207","name":"古坑服務區北上-女廁","address":"雲林縣古坑鄉崁腳村新興路100 號","administration":"交通部","latitude":"23.60803697","longitude":"120.5431938","grade":"特優級","type2":"交通","type":"女廁所","exec":null,"diaper":null},{"country":"10009","city":"10009040","village":"振興里","number":"P040000008","name":"西螺服務區北上-親子廁","address":"雲林縣西螺鎮振興里2號","administration":"交通部","latitude":"23.789317","longitude":"120.477208","grade":"特優級","type2":"交通","type":"親子廁所","exec":null,"diaper":null},{"country":"10009","city":"10009040","village":"振興里","number":"P040000007","name":"西螺服務區北上-無障礙廁","address":"雲林縣西螺鎮振興里2號","administration":"交通部","latitude":"23.789317","longitude":"120.477208","grade":"特優級","type2":"交通","type":"無障礙廁所","exec":null,"diaper":null},{"country":"10009","city":"10009040","village":"振興里","number":"P040000006","name":"西螺服務區北上-女廁","address":"雲林縣西螺鎮振興里2號","administration":"交通部","latitude":"23.789317","longitude":"120.477208","grade":"特優級","type2":"交通","type":"女廁所","exec":null,"diaper":null},{"country":"10009","city":"10009010","village":"鎮南里","number":"P010000152","name":"斗六環保運動公園-女廁","address":"雲林縣斗六市公明路41-43","administration":"縣市政府","latitude":"23.69747107","longitude":"120.5311083","grade":"特優級","type2":"公園","type":"女廁所","exec":null,"diaper":null},{"country":"10009","city":"10009010","village":"鎮南里","number":"P010000151","name":"斗六環保運動公園-男廁","address":"雲林縣斗六市公明路41-43","administration":"縣市政府","latitude":"23.6974104","longitude":"120.5311322","grade":"特優級","type2":"公園","type":"男廁所","exec":null,"diaper":null},{"country":"10009","city":"10009180","village":"湖西村","number":"P180000038","name":"四湖鄉運動公園-男廁","address":"雲林縣四湖鄉湖西村環湖西路","administration":"縣市政府","latitude":"23.63394873","longitude":"120.2244282","grade":"特優級","type2":"公園","type":"男廁所","exec":null,"diaper":null},{"country":"10009","city":"10009010","village":"鎮西里","number":"P010000612","name":"雲林縣婦女福利服務中心6F-無障礙廁","address":"雲林縣斗六市府文路22號","administration":"縣市政府","latitude":"23.698277","longitude":"120.527069","grade":"特優級","type2":"民眾洽公場所","type":"無障礙廁所","exec":null,"diaper":null},{"country":"10009","city":"10009010","village":"鎮西里","number":"P010000611","name":"雲林縣婦女福利服務中心6F-男廁","address":"雲林縣斗六市府文路22號","administration":"縣市政府","latitude":"23.698277","longitude":"120.527069","grade":"特優級","type2":"民眾洽公場所","type":"男廁所","exec":null,"diaper":null},{"country":"10009","city":"10009010","village":"鎮西里","number":"P010000610","name":"雲林縣婦女福利服務中心6F-女廁","address":"雲林縣斗六市府文路22號","administration":"縣市政府","latitude":"23.698277","longitude":"120.527069","grade":"特優級","type2":"民眾洽公場所","type":"女廁所","exec":null,"diaper":null},{"country":"10009","city":"10009010","village":"鎮西里","number":"P010000600","name":"雲林縣婦女福利服務中心1F-親子廁","address":"雲林縣斗六市府文路22號","administration":"縣市政府","latitude":"23.698277","longitude":"120.527069","grade":"特優級","type2":"民眾洽公場所","type":"親子廁所","exec":null,"diaper":null},{"country":"10009","city":"10009010","village":"鎮西里","number":"P010000599","name":"雲林縣婦女福利服務中心1F-男廁","address":"雲林縣斗六市府文路22號","administration":"縣市政府","latitude":"23.698277","longitude":"120.527069","grade":"特優級","type2":"民眾洽公場所","type":"男廁所","exec":null,"diaper":null},{"country":"10009","city":"10009010","village":"鎮西里","number":"P010000598","name":"雲林縣婦女福利服務中心1F-女廁","address":"雲林縣斗六市府文路22號","administration":"縣市政府","latitude":"23.698277","longitude":"120.527069","grade":"特優級","type2":"民眾洽公場所","type":"女廁所","exec":null,"diaper":null},{"country":"10009","city":"10009020","village":"南昌里","number":"P020000060","name":"斗南火車站後站-女廁","address":"雲林縣斗南鎮南昌里中山路2號","administration":"國營台灣鐵路股份有限公司南區營運處高雄運務段斗南站","latitude":"23.67255143","longitude":"120.4811503","grade":"特優級","type2":"交通","type":"女廁所","exec":null,"diaper":null},{"country":"10009","city":"10009020","village":"南昌里","number":"P020000059","name":"斗南火車站後站-男廁","address":"雲林縣斗南鎮南昌里中山路2號","administration":"國營台灣鐵路股份有限公司南區營運處高雄運務段斗南站","latitude":"23.67255143","longitude":"120.4811503","grade":"特優級","type2":"交通","type":"男廁所","exec":null,"diaper":null},{"country":"10009","city":"10009020","village":"南昌里","number":"P020000058","name":"斗南火車站站內-無障礙廁","address":"雲林縣斗南鎮南昌里中山路2號","administration":"國營台灣鐵路股份有限公司南區營運處高雄運務段斗南站","latitude":"23.67280101","longitude":"120.4811077","grade":"特優級","type2":"交通","type":"無障礙廁所","exec":null,"diaper":null},{"country":"10009","city":"10009020","village":"南昌里","number":"P020000057","name":"斗南火車站站內-女廁","address":"雲林縣斗南鎮南昌里中山路2號","administration":"國營台灣鐵路股份有限公司南區營運處高雄運務段斗南站","latitude":"23.67280101","longitude":"120.4811077","grade":"特優級","type2":"交通","type":"女廁所","exec":null,"diaper":null},{"country":"10009","city":"10009020","village":"南昌里","number":"P020000056","name":"斗南火車站站內-男廁","address":"雲林縣斗南鎮南昌里中山路2號","administration":"國營台灣鐵路股份有限公司南區營運處高雄運務段斗南站","latitude":"23.67280101","longitude":"120.4811077","grade":"特優級","type2":"交通","type":"男廁所","exec":null,"diaper":null},{"country":"10009","city":"10009070","village":"古坑村","number":"P070000240","name":"古坑鄉立圖書館3樓男廁","address":"雲林縣古坑鄉古坑村中山路31號","administration":"古坑鄉公所","latitude":"23.642009","longitude":"120.5614909","grade":"特優級","type2":"文化育樂活動場所","type":"男廁所","exec":null,"diaper":null},{"country":"10009","city":"10009070","village":"古坑村","number":"P070000239","name":"古坑鄉立圖書館2樓親子廁","address":"雲林縣古坑鄉古坑村中山路31號","administration":"古坑鄉公所","latitude":"23.64201721","longitude":"120.5614865","grade":"特優級","type2":"文化育樂活動場所","type":"親子廁所","exec":null,"diaper":null},{"country":"10009","city":"10009070","village":"古坑村","number":"P070000238","name":"古坑鄉立圖書館1樓混合廁","address":"雲林縣古坑鄉古坑村中山路31號","administration":"古坑鄉公所","latitude":"23.64200979","longitude":"120.5615115","grade":"特優級","type2":"文化育樂活動場所","type":"混合廁所","exec":null,"diaper":null},{"country":"10009","city":"10009070","village":"崁腳村","number":"P070000210","name":"台灣中油古坑服務區站-無障礙廁","address":"雲林縣古坑鄉崁腳村新興100號","administration":"台灣中油股份有限公司","latitude":"23.61004246","longitude":"120.5449748","grade":"特優級","type2":"商業營業場所","type":"無障礙廁所","exec":null,"diaper":null},{"country":"10009","city":"10009070","village":"崁腳村","number":"P070000209","name":"台灣中油古坑服務區站-女廁","address":"雲林縣古坑鄉崁腳村新興100號","administration":"台灣中油股份有限公司","latitude":"23.61178249","longitude":"120.5437839","grade":"特優級","type2":"商業營業場所","type":"女廁所","exec":null,"diaper":null},{"country":"10009","city":"10009070","village":"崁腳村","number":"P070000208","name":"台灣中油古坑服務區加油站男廁","address":"雲林縣古坑鄉崁腳村新興100號","administration":"台灣中油股份有限公司","latitude":"23.6100228","longitude":"120.5449963","grade":"特優級","type2":"商業營業場所","type":"男廁所","exec":null,"diaper":null},{"country":"10009","city":"10009010","village":"鎮西里","number":"P010000475","name":"星巴克斗六門市-無障礙廁","address":"雲林縣斗六市雲林路二段190號","administration":"私人","latitude":"23.70328342","longitude":"120.5312204","grade":"特優級","type2":"商業營業場所","type":"無障礙廁所","exec":null,"diaper":null},{"country":"10009","city":"10009010","village":"鎮西里","number":"P010000474","name":"星巴克斗六門市-女廁","address":"雲林縣斗六市雲林路二段190號","administration":"私人","latitude":"23.70316553","longitude":"120.5311883","grade":"特優級","type2":"商業營業場所","type":"女廁所","exec":null,"diaper":null},{"country":"10009","city":"10009040","village":"廣福里","number":"P040000068","name":"西螺鎮調解委員會3F-女廁","address":"雲林縣西螺鎮廣福里民生路20號","administration":"西螺鎮公所","latitude":"23.798093","longitude":"120.465254","grade":"特優級","type2":"民眾洽公場所","type":"女廁所","exec":null,"diaper":null},{"country":"10009","city":"10009040","village":"廣福里","number":"P040000067","name":"西螺鎮調解委員會3F-男廁","address":"雲林縣西螺鎮廣福里民生路20號","administration":"西螺鎮公所","latitude":"23.798093","longitude":"120.465254","grade":"特優級","type2":"民眾洽公場所","type":"男廁所","exec":null,"diaper":null},{"country":"10009","city":"10009040","village":"廣福里","number":"P040000066","name":"西螺鎮調解委員會2F-女廁","address":"雲林縣西螺鎮廣福里民生路20號","administration":"西螺鎮公所","latitude":"23.798093","longitude":"120.465254","grade":"特優級","type2":"民眾洽公場所","type":"女廁所","exec":null,"diaper":null},{"country":"10009","city":"10009040","village":"廣福里","number":"P040000065","name":"西螺鎮調解委員會2樓男廁","address":"雲林縣西螺鎮廣福里民生路20號","administration":"西螺鎮公所","latitude":"23.798093","longitude":"120.465254","grade":"特優級","type2":"民眾洽公場所","type":"男廁所","exec":null,"diaper":null},{"country":"10009","city":"10009040","village":"廣福里","number":"P040000064","name":"西螺鎮調解委員會1F-女廁","address":"雲林縣西螺鎮廣福里民生路20號","administration":"縣市政府","latitude":"23.798093","longitude":"120.465254","grade":"特優級","type2":"民眾洽公場所","type":"女廁所","exec":null,"diaper":null},{"country":"10009","city":"10009040","village":"廣福里","number":"P040000063","name":"西螺鎮調解委員會1F-男廁","address":"雲林縣西螺鎮廣福里民生路20號","administration":"西螺鎮公所","latitude":"23.798093","longitude":"120.465254","grade":"特優級","type2":"民眾洽公場所","type":"男廁所","exec":null,"diaper":null},{"country":"10009","city":"10009070","village":"湳仔村","number":"P070000280","name":"古坑綠隧驛站西側-親子廁","address":"雲林縣古坑鄉湳仔村湳仔村23-32號","administration":"雲林縣城鄉發展處","latitude":"23.65408781","longitude":"120.5438256","grade":"特優級","type2":"觀光地區及風景區","type":"親子廁所","exec":null,"diaper":null},{"country":"10009","city":"10009070","village":"湳仔村","number":"P070000279","name":"古坑綠隧驛站西側-無障礙廁","address":"雲林縣古坑鄉湳仔村湳仔村23-32號","administration":"雲林縣城鄉發展處","latitude":"23.65409518","longitude":"120.5438055","grade":"特優級","type2":"觀光地區及風景區","type":"無障礙廁所","exec":null,"diaper":null},{"country":"10009","city":"10009070","village":"湳仔村","number":"P070000278","name":"古坑綠隧驛站西側-女廁","address":"雲林縣古坑鄉湳仔村湳仔村23-32號","administration":"雲林縣城鄉發展處","latitude":"23.65406952","longitude":"120.5438229","grade":"特優級","type2":"觀光地區及風景區","type":"女廁所","exec":null,"diaper":null},{"country":"10009","city":"10009070","village":"湳仔村","number":"P070000277","name":"古坑綠隧驛站西側-男廁","address":"雲林縣古坑鄉湳仔村湳仔村23-32號","administration":"雲林縣城鄉發展處","latitude":"23.6541173","longitude":"120.5438122","grade":"特優級","type2":"觀光地區及風景區","type":"男廁所","exec":null,"diaper":null},{"country":"10009","city":"10009070","village":"湳仔村","number":"P070000276","name":"古坑綠隧驛站東側-親子廁","address":"雲林縣古坑鄉湳仔村湳仔村23-32號","administration":"雲林縣城鄉發展處","latitude":"23.65476762","longitude":"120.5433749","grade":"特優級","type2":"商業營業場所","type":"親子廁所","exec":null,"diaper":null},{"country":"10009","city":"10009070","village":"湳仔村","number":"P070000275","name":"古坑綠隧驛站東側-無障礙廁","address":"雲林縣古坑鄉湳仔村湳仔村23-32號","administration":"雲林縣城鄉發展處","latitude":"23.65416411","longitude":"120.5430786","grade":"特優級","type2":"觀光地區及風景區","type":"無障礙廁所","exec":null,"diaper":null},{"country":"10009","city":"10009070","village":"湳仔村","number":"P070000274","name":"古坑綠隧驛站東側-女廁","address":"雲林縣古坑鄉湳仔村湳仔村23-32號","administration":"雲林縣城鄉發展處","latitude":"23.65418479","longitude":"120.5431378","grade":"特優級","type2":"觀光地區及風景區","type":"女廁所","exec":null,"diaper":null},{"country":"10009","city":"10009070","village":"湳仔村","number":"P070000273","name":"古坑綠隧驛站東側-男廁","address":"雲林縣古坑鄉湳仔村湳仔村23-32號","administration":"雲林縣城鄉發展處","latitude":"23.6541476","longitude":"120.54308","grade":"特優級","type2":"觀光地區及風景區","type":"男廁所","exec":null,"diaper":null},{"country":"10009","city":"10009040","village":"漢光里","number":"P040000097","name":"西螺鎮立圖書館3F-女廁","address":"雲林縣西螺鎮漢光里平和路111-1號","administration":"西螺鎮公所","latitude":"23.798944","longitude":"120.457904","grade":"特優級","type2":"文化育樂活動場所","type":"女廁所","exec":null,"diaper":null},{"country":"10009","city":"10009040","village":"大新里","number":"P040000020","name":"中油西螺服務區北上站-無障礙廁","address":"雲林縣西螺鎮大新里高速公路加油站2-2號","administration":"北極星能源股份有限公司","latitude":"23.78893798","longitude":"120.4797006","grade":"特優級","type2":"商業營業場所","type":"無障礙廁所","exec":null,"diaper":null},{"country":"10009","city":"10009040","village":"大新里","number":"P040000019","name":"中油西螺服務區北上站-女廁","address":"雲林縣西螺鎮大新里高速公路加油站2-2號","administration":"北極星能源股份有限公司","latitude":"23.78885","longitude":"120.47631","grade":"特優級","type2":"商業營業場所","type":"女廁所","exec":null,"diaper":null},{"country":"10009","city":"10009040","village":"漢光里","number":"P040000095","name":"西螺鎮立圖書館2F-混合廁","address":"雲林縣西螺鎮漢光里平和路111-1號","administration":"西螺鎮公所","latitude":"23.79906545","longitude":"120.457417","grade":"特優級","type2":"文化育樂活動場所","type":"混合廁所","exec":null,"diaper":null},{"country":"10009","city":"10009040","village":"漢光里","number":"P040000094","name":"西螺鎮立圖書館1F-女廁","address":"雲林縣西螺鎮漢光里平和路111-1號","administration":"西螺鎮公所","latitude":"23.79905853","longitude":"120.4573822","grade":"特優級","type2":"文化育樂活動場所","type":"女廁所","exec":null,"diaper":null},{"country":"10009","city":"10009040","village":"漢光里","number":"P040000093","name":"西螺鎮立圖書館1F-男廁","address":"雲林縣西螺鎮漢光里平和路111-1號","administration":"西螺鎮公所","latitude":"23.79906299","longitude":"120.4573982","grade":"特優級","type2":"文化育樂活動場所","type":"男廁所","exec":null,"diaper":null},{"country":"10009","city":"10009130","village":"中興村","number":"P130000117","name":"台塑石油山隆麥寮站-男廁","address":"雲林縣麥寮鄉中興村工業路651號","administration":"經濟部","latitude":"23.79070017","longitude":"120.2467078","grade":"特優級","type2":"","type":"男廁所","exec":null,"diaper":null},{"country":"10009","city":"10009120","village":"羅厝村","number":"P120000056","name":"千巧谷牛樂園牧場-女廁","address":"雲林縣崙背鄉羅厝村東興路182-32號","administration":"千巧谷牛樂園有限公司","latitude":"23.761127","longitude":"120.3656247","grade":"特優級","type2":"觀光地區及風景區","type":"女廁所","exec":null,"diaper":null},{"country":"10009","city":"10009190","village":"崙東村","number":"P190000061","name":"台灣鯛生態創意園區-無障礙廁","address":"雲林縣口湖鄉崙東村民生路1-88號","administration":"其他","latitude":"23.6080468","longitude":"120.1716435","grade":"特優級","type2":"觀光地區及風景區","type":"無障礙廁所","exec":null,"diaper":null},{"country":"10009","city":"10009040","village":"振興里","number":"P040000014","name":"台亞石油西螺站-女廁","address":"雲林縣西螺鎮振興里3號","administration":"台亞石油股份有限公司","latitude":"23.78885944","longitude":"120.4770184","grade":"特優級","type2":"商業營業場所","type":"女廁所","exec":null,"diaper":null},{"country":"10009","city":"10009100","village":"林中村","number":"P100000112","name":"林內鄉公所清潔隊旁3F-男廁","address":"雲林縣林內鄉林中村中正路340號","administration":"林內鄉公所","latitude":"23.75622644","longitude":"120.6129127","grade":"特優級","type2":"民眾洽公場所","type":"男廁所","exec":null,"diaper":null},{"country":"10009","city":"10009100","village":"林中村","number":"P100000111","name":"林內鄉公所大禮堂後3F-女廁","address":"雲林縣林內鄉林中村中正路340號","administration":"縣市政府","latitude":"23.75621898","longitude":"120.6129058","grade":"特優級","type2":"民眾洽公場所","type":"女廁所","exec":null,"diaper":null},{"country":"10009","city":"10009100","village":"林中村","number":"P100000110","name":"林內鄉公所調解室旁2F-女廁","address":"雲林縣林內鄉林中村中正路340號","administration":"林內鄉公所","latitude":"23.75625949","longitude":"120.6129661","grade":"特優級","type2":"民眾洽公場所","type":"女廁所","exec":null,"diaper":null},{"country":"10009","city":"10009100","village":"林中村","number":"P100000109","name":"林內鄉公所西側1F-無障礙廁","address":"雲林縣林內鄉林中村中正路340號","administration":"林內鄉公所","latitude":"23.75618984","longitude":"120.6129315","grade":"特優級","type2":"民眾洽公場所","type":"無障礙廁所","exec":null,"diaper":null},{"country":"10009","city":"10009030","village":"安慶里","number":"P030000395","name":"虎尾糖廠-男廁","address":"雲林縣虎尾鎮安慶里民主三路1號","administration":"台灣糖業股份有限公司","latitude":"23.70328185","longitude":"120.4362678","grade":"特優級","type2":"觀光地區及風景區","type":"男廁所","exec":null,"diaper":null},{"country":"10009","city":"10009040","village":"東興里","number":"P040000182","name":"西螺鎮東興公墓納骨塔-女廁","address":"雲林縣西螺鎮東興里埤頭79之2號","administration":"西螺鎮公所","latitude":"23.77170477","longitude":"120.4805394","grade":"特優級","type2":"宗教禮儀場所","type":"女廁所","exec":null,"diaper":null},{"country":"10009","city":"10009010","village":"崙峯里","number":"P010000692","name":"中油台糖綠揚站-無障礙","address":"雲林縣斗六市仁義路110號","administration":"經濟部","latitude":"23.67597484","longitude":"120.5376378","grade":"特優級","type2":"商業營業場所","type":"無障礙廁所","exec":null,"diaper":null},{"country":"10009","city":"10009010","village":"公正里","number":"P010000694","name":"斗六市立繪本圖書館2F-女廁","address":"雲林縣斗六市莊敬路66號","administration":"縣市政府","latitude":"23.703921","longitude":"120.549588","grade":"特優級","type2":"文化育樂活動場所","type":"女廁所","exec":null,"diaper":null},{"country":"10009","city":"10009010","village":"公正里","number":"P010000693","name":"斗六市立繪本圖書館2F-男廁","address":"雲林縣斗六市莊敬路66號","administration":"縣市政府","latitude":"23.703921","longitude":"120.549588","grade":"特優級","type2":"文化育樂活動場所","type":"男廁所","exec":null,"diaper":null},{"country":"10009","city":"10009070","village":"永光村","number":"P070000303","name":"劍湖山世界第1座第7停車場-性別友善廁","address":"雲林縣古坑鄉永光村大湖口67號","administration":"劍湖山世界","latitude":"23.615831","longitude":"120.579616","grade":"特優級","type2":"觀光地區及風景區","type":"性別友善廁所","exec":null,"diaper":null},{"country":"10009","city":"10009140","village":"東南村","number":"P140000072","name":"東勢鄉立圖書館1F-女廁","address":"雲林縣東勢鄉東南村東榮路29巷1號","administration":"縣市政府","latitude":"23.674208","longitude":"120.255691","grade":"特優級","type2":"文化育樂活動場所","type":"女廁所","exec":null,"diaper":null},{"country":"10009","city":"10009140","village":"東南村","number":"P140000071","name":"東勢鄉立圖書館1F-男廁","address":"雲林縣東勢鄉東南村東榮路29巷1號","administration":"縣市政府","latitude":"23.674208","longitude":"120.255691","grade":"特優級","type2":"文化育樂活動場所","type":"男廁所","exec":null,"diaper":null},{"country":"10009","city":"10009170","village":"長南村","number":"P170000083","name":"元長鄉立圖書館2F-女廁","address":"雲林縣元長鄉長南村仁愛街2號","administration":"元長鄉公所","latitude":"23.6500448","longitude":"120.3147714","grade":"特優級","type2":"文化育樂活動場所","type":"女廁所","exec":null,"diaper":null},{"country":"10009","city":"10009170","village":"長南村","number":"P170000082","name":"元長鄉立圖書館2F-男廁","address":"雲林縣元長鄉長南村仁愛街2號","administration":"元長鄉公所","latitude":"23.6500448","longitude":"120.3147714","grade":"特優級","type2":"文化育樂活動場所","type":"男廁所","exec":null,"diaper":null},{"country":"10009","city":"10009170","village":"長南村","number":"P170000081","name":"元長鄉立圖書館1F-無障礙廁","address":"雲林縣元長鄉長南村仁愛街2號","administration":"元長鄉公所","latitude":"23.6500448","longitude":"120.3147714","grade":"特優級","type2":"文化育樂活動場所","type":"無障礙廁所","exec":null,"diaper":null},{"country":"10009","city":"10009100","village":"林中村","number":"P100000113","name":"台灣中油林內站-親子廁","address":"雲林縣林內鄉林中村中正路532號","administration":"台灣中油股份有限公司","latitude":"23.75224737","longitude":"120.6105875","grade":"特優級","type2":"商業營業場所","type":"親子廁所","exec":null,"diaper":null},{"country":"10009","city":"10009080","village":"南和村","number":"P080000044","name":"妮姑庵社區活動中心-混合廁","address":"雲林縣大埤鄉南和村中正路2號","administration":"大埤鄉公所","latitude":"23.64186743","longitude":"120.4153171","grade":"特優級","type2":"社福機構、集會場所","type":"混合廁所","exec":null,"diaper":null},{"country":"10009","city":"10009180","village":"湖西村","number":"P180000053","name":"四湖鄉公所3F-男廁","address":"雲林縣四湖鄉湖西村中山西路44號","administration":"縣市政府","latitude":"23.638093","longitude":"120.224344","grade":"特優級","type2":"民眾洽公場所","type":"男廁所","exec":null,"diaper":null},{"country":"10009","city":"10009180","village":"湖西村","number":"P180000052","name":"四湖鄉公所2F-女廁","address":"雲林縣四湖鄉湖西村中山西路44號","administration":"縣市政府","latitude":"23.638093","longitude":"120.224344","grade":"特優級","type2":"民眾洽公場所","type":"女廁所","exec":null,"diaper":null},{"country":"10009","city":"10009180","village":"湖西村","number":"P180000051","name":"四湖鄉公所2F-男廁","address":"雲林縣四湖鄉湖西村中山西路44號","administration":"縣市政府","latitude":"23.638093","longitude":"120.224344","grade":"特優級","type2":"民眾洽公場所","type":"男廁所","exec":null,"diaper":null},{"country":"10009","city":"10009180","village":"湖西村","number":"P180000050","name":"四湖鄉公所1F-女廁","address":"雲林縣四湖鄉湖西村中山西路44號","administration":"縣市政府","latitude":"23.638093","longitude":"120.224344","grade":"特優級","type2":"民眾洽公場所","type":"女廁所","exec":null,"diaper":null},{"country":"10009","city":"10009180","village":"湖西村","number":"P180000049","name":"四湖鄉公所1F-男廁","address":"雲林縣四湖鄉湖西村中山西路44號","administration":"縣市政府","latitude":"23.638093","longitude":"120.224344","grade":"特優級","type2":"民眾洽公場所","type":"男廁所","exec":null,"diaper":null},{"country":"10009","city":"10009170","village":"長南村","number":"P170000037","name":"元長鄉公所2F-男廁","address":"雲林縣元長鄉長南村仁愛街2號","administration":"元長鄉公所","latitude":"23.64972382","longitude":"120.3148269","grade":"特優級","type2":"民眾洽公場所","type":"男廁所","exec":null,"diaper":null},{"country":"10009","city":"10009170","village":"長南村","number":"P170000036","name":"元長鄉公所1F-女廁","address":"雲林縣元長鄉長南村仁愛街2號","administration":"元長鄉公所","latitude":"23.64972382","longitude":"120.3148269","grade":"特優級","type2":"民眾洽公場所","type":"女廁所","exec":null,"diaper":null},{"country":"10009","city":"10009150","village":"中民村","number":"P150000009","name":"褒忠鄉公所2F-女廁","address":"雲林縣褒忠鄉中民村中正路451號","administration":"褒忠鄉公所","latitude":"23.691192","longitude":"120.303956","grade":"特優級","type2":"民眾洽公場所","type":"女廁所","exec":null,"diaper":null},{"country":"10009","city":"10009120","village":"東明村","number":"P120000030","name":"崙背鄉公所3F-無障礙廁","address":"雲林縣崙背鄉東明村行政街1號","administration":"崙背鄉公所","latitude":"23.761986","longitude":"120.359167","grade":"特優級","type2":"民眾洽公場所","type":"無障礙廁所","exec":null,"diaper":null},{"country":"10009","city":"10009120","village":"東明村","number":"P120000029","name":"崙背鄉公所3F-女廁","address":"雲林縣崙背鄉東明村行政街1號","administration":"崙背鄉公所","latitude":"23.761986","longitude":"120.359167","grade":"特優級","type2":"民眾洽公場所","type":"女廁所","exec":null,"diaper":null},{"country":"10009","city":"10009120","village":"東明村","number":"P120000028","name":"崙背鄉公所3F-男廁","address":"雲林縣崙背鄉東明村行政街1號","administration":"崙背鄉公所","latitude":"23.761986","longitude":"120.359167","grade":"特優級","type2":"民眾洽公場所","type":"男廁所","exec":null,"diaper":null},{"country":"10009","city":"10009120","village":"東明村","number":"P120000027","name":"崙背鄉公所2F-無障礙廁","address":"雲林縣崙背鄉東明村行政街1號","administration":"崙背鄉公所","latitude":"23.761986","longitude":"120.359167","grade":"特優級","type2":"民眾洽公場所","type":"無障礙廁所","exec":null,"diaper":null},{"country":"10009","city":"10009120","village":"東明村","number":"P120000026","name":"崙背鄉公所2F-女廁","address":"雲林縣崙背鄉東明村行政街1號","administration":"崙背鄉公所","latitude":"23.761986","longitude":"120.359167","grade":"特優級","type2":"民眾洽公場所","type":"女廁所","exec":null,"diaper":null},{"country":"10009","city":"10009120","village":"東明村","number":"P120000025","name":"崙背鄉公所2F-男廁","address":"雲林縣崙背鄉東明村行政街1號","administration":"崙背鄉公所","latitude":"23.761986","longitude":"120.359167","grade":"特優級","type2":"民眾洽公場所","type":"男廁所","exec":null,"diaper":null},{"country":"10009","city":"10009120","village":"東明村","number":"P120000024","name":"崙背鄉公所1F-無障礙廁","address":"雲林縣崙背鄉東明村行政街1號","administration":"崙背鄉公所","latitude":"23.761986","longitude":"120.359167","grade":"特優級","type2":"民眾洽公場所","type":"無障礙廁所","exec":null,"diaper":null},{"country":"10009","city":"10009120","village":"東明村","number":"P120000023","name":"崙背鄉公所1F-女廁","address":"雲林縣崙背鄉東明村行政街1號","administration":"崙背鄉公所","latitude":"23.761986","longitude":"120.359167","grade":"特優級","type2":"民眾洽公場所","type":"女廁所","exec":null,"diaper":null},{"country":"10009","city":"10009100","village":"林中村","number":"P100000029","name":"林內鄉公所東側2F-男廁","address":"雲林縣林內鄉林中村中正路340號","administration":"林內鄉公所","latitude":"23.756152","longitude":"120.61297","grade":"特優級","type2":"民眾洽公場所","type":"男廁所","exec":null,"diaper":null},{"country":"10009","city":"10009100","village":"林中村","number":"P100000028","name":"林內鄉公所西側1F-女廁","address":"雲林縣林內鄉林中村中正路340號","administration":"林內鄉公所","latitude":"23.756152","longitude":"120.61297","grade":"特優級","type2":"民眾洽公場所","type":"女廁所","exec":null,"diaper":null},{"country":"10009","city":"10009100","village":"林中村","number":"P100000027","name":"林內鄉公所西側1F-男廁","address":"雲林縣林內鄉林中村中正路340號","administration":"林內鄉公所","latitude":"23.756152","longitude":"120.61297","grade":"特優級","type2":"民眾洽公場所","type":"男廁所","exec":null,"diaper":null},{"country":"10009","city":"10009100","village":"林中村","number":"P100000026","name":"林內鄉公所東側1F-女廁","address":"雲林縣林內鄉林中村中正路340號","administration":"林內鄉公所","latitude":"23.756152","longitude":"120.61297","grade":"特優級","type2":"民眾洽公場所","type":"女廁所","exec":null,"diaper":null},{"country":"10009","city":"10009100","village":"林中村","number":"P100000025","name":"林內鄉公所東側1F-男廁","address":"雲林縣林內鄉林中村中正路340號","administration":"林內鄉公所","latitude":"23.756152","longitude":"120.61297","grade":"特優級","type2":"民眾洽公場所","type":"男廁所","exec":null,"diaper":null},{"country":"10009","city":"10009090","village":"莿桐村","number":"P090000049","name":"莿桐鄉公所4F-女廁","address":"雲林縣莿桐鄉莿桐村和平路53號","administration":"莿桐鄉公所","latitude":"23.76096552","longitude":"120.5024594","grade":"特優級","type2":"民眾洽公場所","type":"女廁所","exec":null,"diaper":null},{"country":"10009","city":"10009090","village":"莿桐村","number":"P090000048","name":"莿桐鄉公所4F-男廁","address":"雲林縣莿桐鄉莿桐村和平路53號","administration":"莿桐鄉公所","latitude":"23.76096909","longitude":"120.5025023","grade":"特優級","type2":"民眾洽公場所","type":"男廁所","exec":null,"diaper":null},{"country":"10009","city":"10009090","village":"莿桐村","number":"P090000047","name":"莿桐鄉公所3F-女廁","address":"雲林縣莿桐鄉莿桐村和平路53號","administration":"莿桐鄉公所","latitude":"23.76096909","longitude":"120.5025023","grade":"特優級","type2":"民眾洽公場所","type":"女廁所","exec":null,"diaper":null},{"country":"10009","city":"10009090","village":"莿桐村","number":"P090000046","name":"莿桐鄉公所3F-男廁","address":"雲林縣莿桐鄉莿桐村和平路53號","administration":"莿桐鄉公所","latitude":"23.76095659","longitude":"120.5024808","grade":"特優級","type2":"民眾洽公場所","type":"男廁所","exec":null,"diaper":null},{"country":"10009","city":"10009090","village":"莿桐村","number":"P090000045","name":"莿桐鄉公所2F-女廁","address":"雲林縣莿桐鄉莿桐村和平路53號","administration":"莿桐鄉公所","latitude":"23.76138775","longitude":"120.5024242","grade":"特優級","type2":"民眾洽公場所","type":"女廁所","exec":null,"diaper":null},{"country":"10009","city":"10009080","village":"北和村","number":"P080000011","name":"大埤鄉公所2F-女廁","address":"雲林縣大埤鄉北和村中山路8號","administration":"大埤鄉公所","latitude":"23.64579817","longitude":"120.4313618","grade":"特優級","type2":"民眾洽公場所","type":"女廁所","exec":null,"diaper":null},{"country":"10009","city":"10009080","village":"北和村","number":"P080000010","name":"大埤鄉公所2F-男廁","address":"雲林縣大埤鄉北和村中山路8號","administration":"大埤鄉公所","latitude":"23.64579817","longitude":"120.4313618","grade":"特優級","type2":"民眾洽公場所","type":"男廁所","exec":null,"diaper":null},{"country":"10009","city":"10009080","village":"北和村","number":"P080000009","name":"大埤鄉公所1F-女廁","address":"雲林縣大埤鄉北和村中山路8號","administration":"大埤鄉公所","latitude":"23.64579817","longitude":"120.4313618","grade":"特優級","type2":"民眾洽公場所","type":"女廁所","exec":null,"diaper":null},{"country":"10009","city":"10009080","village":"北和村","number":"P080000008","name":"大埤鄉公所1F-男廁","address":"雲林縣大埤鄉北和村中山路8號","administration":"大埤鄉公所","latitude":"23.64579817","longitude":"120.4313618","grade":"特優級","type2":"民眾洽公場所","type":"男廁所","exec":null,"diaper":null},{"country":"10009","city":"10009070","village":"湳仔村","number":"P070000248","name":"古坑綠色隧道公園-女廁","address":"雲林縣古坑鄉湳仔村湳仔路","administration":"古坑鄉公所","latitude":"23.642657","longitude":"120.561975","grade":"特優級","type2":"公園","type":"女廁所","exec":null,"diaper":null},{"country":"10009","city":"10009070","village":"湳仔村","number":"P070000232","name":"古坑綠色隧道公園-男廁","address":"雲林縣古坑鄉湳仔村湳仔路","administration":"古坑鄉公所","latitude":"23.642657","longitude":"120.561975","grade":"特優級","type2":"公園","type":"男廁所","exec":null,"diaper":null},{"country":"10009","city":"10009070","village":"古坑村","number":"P070000247","name":"古坑鄉公所3樓女廁","address":"雲林縣古坑鄉古坑村中山路40號","administration":"古坑鄉公所","latitude":"23.642657","longitude":"120.561975","grade":"特優級","type2":"民眾洽公場所","type":"女廁所","exec":null,"diaper":null},{"country":"10009","city":"10009070","village":"古坑村","number":"P070000246","name":"古坑鄉公所3樓男廁","address":"雲林縣古坑鄉古坑村中山路40號","administration":"古坑鄉公所","latitude":"23.642657","longitude":"120.561975","grade":"特優級","type2":"民眾洽公場所","type":"男廁所","exec":null,"diaper":null},{"country":"10009","city":"10009070","village":"古坑村","number":"P070000245","name":"古坑鄉公所2樓女廁","address":"雲林縣古坑鄉古坑村中山路40號","administration":"古坑鄉公所","latitude":"23.642657","longitude":"120.561975","grade":"特優級","type2":"民眾洽公場所","type":"女廁所","exec":null,"diaper":null},{"country":"10009","city":"10009070","village":"古坑村","number":"P070000244","name":"古坑鄉公所2樓男廁","address":"雲林縣古坑鄉古坑村中山路40號","administration":"古坑鄉公所","latitude":"23.642657","longitude":"120.561975","grade":"特優級","type2":"民眾洽公場所","type":"男廁所","exec":null,"diaper":null},{"country":"10009","city":"10009070","village":"古坑村","number":"P070000243","name":"古坑鄉公所1樓女廁","address":"雲林縣古坑鄉古坑村中山路40號","administration":"古坑鄉公所","latitude":"23.642657","longitude":"120.561975","grade":"特優級","type2":"民眾洽公場所","type":"女廁所","exec":null,"diaper":null},{"country":"10009","city":"10009050","village":"石廟里","number":"P050000131","name":"土庫鎮公所西側2F-無障礙廁","address":"雲林縣土庫鎮石廟里中興路175號","administration":"土庫鎮公所","latitude":"23.68161043","longitude":"120.3895354","grade":"特優級","type2":"民眾洽公場所","type":"無障礙廁所","exec":null,"diaper":null},{"country":"10009","city":"10009050","village":"石廟里","number":"P050000130","name":"土庫鎮公所西側2F-女廁","address":"雲林縣土庫鎮石廟里中興路175號","administration":"土庫鎮公所","latitude":"23.68157113","longitude":"120.389514","grade":"特優級","type2":"民眾洽公場所","type":"女廁所","exec":null,"diaper":null},{"country":"10009","city":"10009050","village":"石廟里","number":"P050000129","name":"土庫鎮公所西側2F-男廁","address":"雲林縣土庫鎮石廟里中興路175號","administration":"土庫鎮公所","latitude":"23.68164974","longitude":"120.3894711","grade":"特優級","type2":"民眾洽公場所","type":"男廁所","exec":null,"diaper":null},{"country":"10009","city":"10009050","village":"石廟里","number":"P050000128","name":"土庫鎮公所東側2F-無障礙廁","address":"雲林縣土庫鎮石廟里中興路175號","administration":"土庫鎮公所","latitude":"23.68163008","longitude":"120.3895783","grade":"特優級","type2":"民眾洽公場所","type":"無障礙廁所","exec":null,"diaper":null},{"country":"10009","city":"10009050","village":"石廟里","number":"P050000127","name":"土庫鎮公所東側2F-女廁","address":"雲林縣土庫鎮石廟里中興路175號","administration":"土庫鎮公所","latitude":"23.68159078","longitude":"120.3894281","grade":"特優級","type2":"民眾洽公場所","type":"女廁所","exec":null,"diaper":null},{"country":"10009","city":"10009050","village":"石廟里","number":"P050000126","name":"土庫鎮公所東側2F-男廁","address":"雲林縣土庫鎮石廟里中興路175號","administration":"土庫鎮公所","latitude":"23.68159078","longitude":"120.3895354","grade":"特優級","type2":"民眾洽公場所","type":"男廁所","exec":null,"diaper":null},{"country":"10009","city":"10009050","village":"石廟里","number":"P050000125","name":"土庫鎮公所西側1F-無障礙廁","address":"雲林縣土庫鎮石廟里中興路175號","administration":"土庫鎮公所","latitude":"23.68158096","longitude":"120.3895032","grade":"特優級","type2":"民眾洽公場所","type":"無障礙廁所","exec":null,"diaper":null},{"country":"10009","city":"10009050","village":"石廟里","number":"P050000124","name":"土庫鎮公所西側1F-女廁","address":"雲林縣土庫鎮石廟里中興路175號","administration":"土庫鎮公所","latitude":"23.68157113","longitude":"120.3895354","grade":"特優級","type2":"民眾洽公場所","type":"女廁所","exec":null,"diaper":null},{"country":"10009","city":"10009050","village":"石廟里","number":"P050000123","name":"土庫鎮公所西側1F-男廁","address":"雲林縣土庫鎮石廟里中興路175號","administration":"土庫鎮公所","latitude":"23.68163008","longitude":"120.3895569","grade":"特優級","type2":"民眾洽公場所","type":"男廁所","exec":null,"diaper":null},{"country":"10009","city":"10009050","village":"石廟里","number":"P050000122","name":"土庫鎮公所東側1F-無障礙廁","address":"雲林縣土庫鎮石廟里中興路175號","administration":"土庫鎮公所","latitude":"23.68168904","longitude":"120.3894925","grade":"特優級","type2":"民眾洽公場所","type":"無障礙廁所","exec":null,"diaper":null},{"country":"10009","city":"10009050","village":"石廟里","number":"P050000121","name":"土庫鎮公所東側1F-女廁","address":"雲林縣土庫鎮石廟里中興路175號","administration":"土庫鎮公所","latitude":"23.68159078","longitude":"120.3895783","grade":"特優級","type2":"民眾洽公場所","type":"女廁所","exec":null,"diaper":null},{"country":"10009","city":"10009030","village":"新興里","number":"P030000023","name":"虎尾廳2F-女廁","address":"雲林縣虎尾鎮新興里行政路6號","administration":"虎尾鎮公所","latitude":"23.708366","longitude":"120.445084","grade":"特優級","type2":"民眾洽公場所","type":"女廁所","exec":null,"diaper":null},{"country":"10009","city":"10009030","village":"新興里","number":"P030000022","name":"虎尾廳2F-男廁","address":"雲林縣虎尾鎮新興里行政路6號","administration":"虎尾鎮公所","latitude":"23.708366","longitude":"120.445084","grade":"特優級","type2":"民眾洽公場所","type":"男廁所","exec":null,"diaper":null},{"country":"10009","city":"10009030","village":"新興里","number":"P030000021","name":"虎尾廳1F-女廁","address":"雲林縣虎尾鎮新興里行政路6號","administration":"虎尾鎮公所","latitude":"23.708366","longitude":"120.445084","grade":"特優級","type2":"民眾洽公場所","type":"女廁所","exec":null,"diaper":null},{"country":"10009","city":"10009030","village":"新興里","number":"P030000020","name":"虎尾廳1F-男廁","address":"雲林縣虎尾鎮新興里行政路6號","administration":"虎尾鎮公所","latitude":"23.708366","longitude":"120.445084","grade":"特優級","type2":"民眾洽公場所","type":"男廁所","exec":null,"diaper":null},{"country":"10009","city":"10009030","village":"新興里","number":"P030000019","name":"虎尾鎮公所2F-女廁","address":"雲林縣虎尾鎮新興里行政街6號","administration":"虎尾鎮公所","latitude":"23.708366","longitude":"120.445084","grade":"特優級","type2":"民眾洽公場所","type":"女廁所","exec":null,"diaper":null},{"country":"10009","city":"10009030","village":"新興里","number":"P030000018","name":"虎尾鎮公所2F-男廁","address":"雲林縣虎尾鎮新興里行政路6號","administration":"虎尾鎮公所","latitude":"23.708366","longitude":"120.445084","grade":"特優級","type2":"民眾洽公場所","type":"男廁所","exec":null,"diaper":null},{"country":"10009","city":"10009030","village":"新興里","number":"P030000017","name":"虎尾鎮公所1F-女廁","address":"雲林縣虎尾鎮新興里行政路6號","administration":"虎尾鎮公所","latitude":"23.708366","longitude":"120.445084","grade":"特優級","type2":"民眾洽公場所","type":"女廁所","exec":null,"diaper":null},{"country":"10009","city":"10009030","village":"新興里","number":"P030000016","name":"虎尾鎮公所1F-男廁","address":"雲林縣虎尾鎮新興里行政路6號","administration":"虎尾鎮公所","latitude":"23.708366","longitude":"120.445084","grade":"特優級","type2":"民眾洽公場所","type":"男廁所","exec":null,"diaper":null},{"country":"10009","city":"10009020","village":"西岐里","number":"P020000050","name":"斗南鎮公所3樓男廁","address":"雲林縣斗南鎮西岐里文昌路200號","administration":"斗南鎮公所","latitude":"23.68021086","longitude":"120.4774491","grade":"特優級","type2":"民眾洽公場所","type":"男廁所","exec":null,"diaper":null},{"country":"10009","city":"10009010","village":"鎮西里","number":"P010000548","name":"斗六市調解委員會1F-無障礙廁","address":"雲林縣斗六市府文路38號","administration":"縣市政府","latitude":"23.696936","longitude":"120.527104","grade":"特優級","type2":"民眾洽公場所","type":"無障礙廁所","exec":null,"diaper":null},{"country":"10009","city":"10009010","village":"鎮西里","number":"P010000547","name":"斗六市調解委員會1F-女廁","address":"雲林縣斗六市府文路38號","administration":"縣市政府","latitude":"23.696936","longitude":"120.527104","grade":"特優級","type2":"民眾洽公場所","type":"女廁所","exec":null,"diaper":null},{"country":"10009","city":"10009010","village":"鎮西里","number":"P010000546","name":"斗六市調解委員會1F-男廁","address":"雲林縣斗六市府文路38號","administration":"縣市政府","latitude":"23.696936","longitude":"120.527104","grade":"特優級","type2":"民眾洽公場所","type":"男廁所","exec":null,"diaper":null},{"country":"10009","city":"10009010","village":"鎮西里","number":"P010000545","name":"斗六市公所西側3F-女廁","address":"雲林縣斗六市府文路38號","administration":"縣市政府","latitude":"23.696936","longitude":"120.527104","grade":"特優級","type2":"民眾洽公場所","type":"女廁所","exec":null,"diaper":null},{"country":"10009","city":"10009010","village":"鎮西里","number":"P010000544","name":"斗六市公所西側3F-男廁","address":"雲林縣斗六市府文路38號","administration":"縣市政府","latitude":"23.696936","longitude":"120.527104","grade":"特優級","type2":"民眾洽公場所","type":"男廁所","exec":null,"diaper":null},{"country":"10009","city":"10009010","village":"鎮西里","number":"P010000543","name":"斗六市公所東側3F-女廁","address":"雲林縣斗六市府文路38號","administration":"縣市政府","latitude":"23.696936","longitude":"120.527104","grade":"特優級","type2":"民眾洽公場所","type":"女廁所","exec":null,"diaper":null},{"country":"10009","city":"10009010","village":"鎮西里","number":"P010000542","name":"斗六市公所東側3F-男廁","address":"雲林縣斗六市府文路38號","administration":"縣市政府","latitude":"23.696936","longitude":"120.527104","grade":"特優級","type2":"民眾洽公場所","type":"男廁所","exec":null,"diaper":null},{"country":"10009","city":"10009010","village":"鎮西里","number":"P010000541","name":"斗六市公所西側2F-女廁","address":"雲林縣斗六市府文路38號","administration":"縣市政府","latitude":"23.696936","longitude":"120.527104","grade":"特優級","type2":"民眾洽公場所","type":"女廁所","exec":null,"diaper":null},{"country":"10009","city":"10009160","village":"海北村","number":"P160000043","name":"中油全民站-男廁","address":"雲林縣臺西鄉海北村海豐路398號","administration":"經濟部","latitude":"23.70870379","longitude":"120.1936525","grade":"特優級","type2":"","type":"男廁所","exec":null,"diaper":null},{"country":"10009","city":"10009160","village":"臺西村","number":"P160000001","name":"台灣中油台西站-男廁","address":"雲林縣臺西鄉臺西村中山路36號","administration":"經濟部","latitude":"23.699087","longitude":"120.202796","grade":"特優級","type2":"商業營業場所","type":"男廁所","exec":null,"diaper":null},{"country":"10009","city":"10009150","village":"潮厝村","number":"P150000052","name":"中油台糖龍林站-男廁","address":"雲林縣褒忠鄉潮厝村潮厝46-18號","administration":"台灣糖業股份有限公司","latitude":"23.71970769","longitude":"120.3275979","grade":"特優級","type2":"","type":"男廁所","exec":null,"diaper":null},{"country":"10009","city":"10009150","village":"埔姜村","number":"P150000011","name":"台灣中油褒忠站-男廁","address":"雲林縣褒忠鄉埔姜村三民路231號","administration":"台灣中油股份有限公司","latitude":"23.70160554","longitude":"120.3164938","grade":"特優級","type2":"","type":"男廁所","exec":null,"diaper":null},{"country":"10009","city":"10009140","village":"復興村","number":"P140000040","name":"台灣中油雲林東勢站-男廁","address":"雲林縣東勢鄉復興村文化路2-10號","administration":"經濟部","latitude":"23.67748265","longitude":"120.2693105","grade":"特優級","type2":"","type":"男廁所","exec":null,"diaper":null},{"country":"10009","city":"10009140","village":"東南村","number":"P140000001","name":"中油東興站-男廁","address":"雲林縣東勢鄉東南村東勢西路268號","administration":"經濟部","latitude":"23.68024716","longitude":"120.2483681","grade":"特優級","type2":"","type":"男廁所","exec":null,"diaper":null},{"country":"10009","city":"10009130","village":"橋頭村","number":"P130000095","name":"台灣中油橋南站-男廁","address":"雲林縣麥寮鄉橋頭村1鄰橋頭34號","administration":"經濟部","latitude":"23.78935031","longitude":"120.2714968","grade":"特優級","type2":"","type":"男廁所","exec":null,"diaper":null},{"country":"10009","city":"10009130","village":"中興村","number":"P130000088","name":"台亞石油六輕站-男廁","address":"雲林縣麥寮鄉中興村仁德西路2段442號","administration":"經濟部","latitude":"23.797699","longitude":"120.22909","grade":"特優級","type2":"商業營業場所","type":"男廁所","exec":null,"diaper":null},{"country":"10009","city":"10009130","village":"中興村","number":"P130000087","name":"台塑石油春田站-混合廁","address":"雲林縣麥寮鄉中興村仁德西路2段78號","administration":"經濟部","latitude":"23.7975131","longitude":"120.2419174","grade":"特優級","type2":"","type":"混合廁所","exec":null,"diaper":null},{"country":"10009","city":"10009130","village":"後安村","number":"P130000077","name":"台塑石油久井麥寮站-混合廁","address":"雲林縣麥寮鄉後安村後安路222-36號","administration":"經濟部","latitude":"23.788425","longitude":"120.23561","grade":"特優級","type2":"商業營業場所","type":"混合廁所","exec":null,"diaper":null},{"country":"10009","city":"10009100","village":"九芎村","number":"P100000044","name":"中油山隆林內站-男廁","address":"雲林縣林內鄉九芎村大埔路3-5號","administration":"山隆通運股份有限公司","latitude":"23.734779","longitude":"120.597208","grade":"特優級","type2":"商業營業場所","type":"男廁所","exec":null,"diaper":null},{"country":"10009","city":"10009100","village":"林中村","number":"P100000005","name":"台灣中油林內站-男廁","address":"雲林縣林內鄉林中村中正路532號","administration":"台灣中油股份有限公司","latitude":"23.75227015","longitude":"120.6106031","grade":"特優級","type2":"","type":"男廁所","exec":null,"diaper":null},{"country":"10009","city":"10009090","village":"麻園村","number":"P090000114","name":"台塑石油翔鴻站-男廁","address":"雲林縣莿桐鄉麻園村榮貫101之11號","administration":"翔鴻加油站有限公司","latitude":"23.77247644","longitude":"120.5387579","grade":"特優級","type2":"","type":"男廁所","exec":null,"diaper":null},{"country":"10009","city":"10009090","village":"義和村","number":"P090000074","name":"台灣中油義和站-男廁","address":"雲林縣莿桐鄉義和村三和37之5號","administration":"台灣中油股份有限公司","latitude":"23.77552688","longitude":"120.4790783","grade":"特優級","type2":"交通","type":"男廁所","exec":null,"diaper":null},{"country":"10009","city":"10009090","village":"莿桐村","number":"P090000001","name":"台灣中油莿桐站-男廁","address":"雲林縣莿桐鄉莿桐村中山路251號","administration":"台灣中油股份有限公司","latitude":"23.75998358","longitude":"120.4976399","grade":"特優級","type2":"","type":"男廁所","exec":null,"diaper":null},{"country":"10009","city":"10009080","village":"豐田村","number":"P080000051","name":"中油公準站-混合廁","address":"雲林縣大埤鄉豐田村延平路3段12號","administration":"公準加油站股份有限公司","latitude":"23.66062329","longitude":"120.47358","grade":"特優級","type2":"","type":"混合廁所","exec":null,"diaper":null},{"country":"10009","city":"10009080","village":"尚義村","number":"P080000017","name":"台灣中油大埤站-混合廁","address":"631雲林縣大埤鄉大埤路543號","administration":"台灣中油股份有限公司","latitude":"23.64603436","longitude":"120.4348328","grade":"特優級","type2":"","type":"混合廁所","exec":null,"diaper":null},{"country":"10009","city":"10009080","village":"北和村","number":"P080000002","name":"福懋大埤加油站-男廁","address":"雲林縣大埤鄉北和村大埤路546號","administration":"福懋興業股份有限公司","latitude":"23.64609311","longitude":"120.4341623","grade":"特優級","type2":"","type":"男廁所","exec":null,"diaper":null},{"country":"10009","city":"10009070","village":"西平村","number":"P070000269","name":"台灣中油古坑站-男廁","address":"雲林縣古坑鄉西平村中山路291號","administration":"台灣中油股份有限公司","latitude":"23.650299","longitude":"120.560372","grade":"特優級","type2":"商業營業場所","type":"男廁所","exec":null,"diaper":null},{"country":"10009","city":"10009050","village":"宮北里","number":"P050000046","name":"台灣中油土庫站-男廁","address":"雲林縣土庫鎮宮北里建國路131號","administration":"台灣中油股份有限公司","latitude":"23.67873","longitude":"120.393512","grade":"特優級","type2":"商業營業場所","type":"男廁所","exec":null,"diaper":null},{"country":"10009","city":"10009040","village":"埤頭里","number":"P040000137","name":"台塑石油三和站-男廁","address":"雲林縣西螺鎮埤頭里埤頭78號","administration":"三和加油站企業有限公司","latitude":"23.77376939","longitude":"120.4789925","grade":"特優級","type2":"商業營業場所","type":"男廁所","exec":null,"diaper":null},{"country":"10009","city":"10009040","village":"河南里","number":"P040000119","name":"良禹有限公司-大通加油站男廁","address":"雲林縣西螺鎮河南里埔心路250號","administration":"良禹有限公司","latitude":"23.79718916","longitude":"120.4322257","grade":"特優級","type2":"","type":"男廁所","exec":null,"diaper":null},{"country":"10009","city":"10009040","village":"新豐里","number":"P040000101","name":"台塑石油順歷站-男廁","address":"雲林縣西螺鎮新豐里福來路3號","administration":"順歷實業有限公司","latitude":"23.78964103","longitude":"120.4481366","grade":"特優級","type2":"","type":"男廁所","exec":null,"diaper":null},{"country":"10009","city":"10009040","village":"大園里","number":"P040000026","name":"台灣中油西螺站-男廁","address":"雲林縣西螺鎮大園里大同路38號","administration":"台灣中油股份有限公司","latitude":"23.79854875","longitude":"120.4663003","grade":"特優級","type2":"商業營業場所","type":"男廁所","exec":null,"diaper":null},{"country":"10009","city":"10009040","village":"振興里","number":"P040000009","name":"車城加油站有限公司-車城加油站男廁","address":"雲林縣西螺鎮振興里振興路52-2號","administration":"車城加油站有限公司","latitude":"23.79086216","longitude":"120.4696906","grade":"特優級","type2":"商業營業場所","type":"男廁所","exec":null,"diaper":null},{"country":"10009","city":"10009030","village":"廉使里","number":"P030000230","name":"福懋興業(股)公司-福懋虎尾加油站男廁","address":"雲林縣虎尾鎮廉使里文科路1131號","administration":"福懋虎尾加油站","latitude":"23.717036","longitude":"120.424973","grade":"特優級","type2":"商業營業場所","type":"男廁所","exec":null,"diaper":null},{"country":"10009","city":"10009030","village":"安溪里","number":"P030000205","name":"中油金泉站-混合廁","address":"雲林縣虎尾鎮安溪里林森路一段96號","administration":"金泉加油站興業有限公司","latitude":"23.717626","longitude":"120.441022","grade":"特優級","type2":"","type":"混合廁所","exec":null,"diaper":null},{"country":"10009","city":"10009030","village":"埒內里","number":"P030000204","name":"中油大華站-男廁","address":"雲林縣虎尾鎮埒內里文科路409號","administration":"大驊加油站實業有限公司","latitude":"23.715717","longitude":"120.442734","grade":"特優級","type2":"商業營業場所","type":"男廁所","exec":null,"diaper":null},{"country":"10009","city":"10009070","village":"永光村","number":"P070000120","name":"劍湖山渡假大飯店西餐廳入口前7F-女廁","address":"雲林縣古坑鄉永光村大湖口67號","administration":"劍湖山渡假飯店","latitude":"23.61506342","longitude":"120.5768395","grade":"特優級","type2":"觀光地區及風景區","type":"女廁所","exec":null,"diaper":null},{"country":"10009","city":"10009070","village":"永光村","number":"P070000119","name":"劍湖山渡假大飯店西餐廳入口前7F-男廁","address":"雲林縣古坑鄉永光村大湖口67號","administration":"劍湖山渡假飯店","latitude":"23.61506342","longitude":"120.5768395","grade":"特優級","type2":"觀光地區及風景區","type":"男廁所","exec":null,"diaper":null},{"country":"10009","city":"10009070","village":"永光村","number":"P070000114","name":"劍湖山渡假大飯店會議廳2F-男廁","address":"雲林縣古坑鄉永光村大湖口67號","administration":"劍湖山渡假大飯店","latitude":"23.61506342","longitude":"120.5768395","grade":"特優級","type2":"其他","type":"男廁所","exec":null,"diaper":null},{"country":"10009","city":"10009070","village":"永光村","number":"P070000113","name":"劍湖山渡假大飯店宴會廳旁1F-女廁","address":"雲林縣古坑鄉永光村大湖口67號","administration":"劍湖山渡假大飯店","latitude":"23.61506342","longitude":"120.5768395","grade":"特優級","type2":"其他","type":"女廁所","exec":null,"diaper":null},{"country":"10009","city":"10009070","village":"永光村","number":"P070000112","name":"劍湖山渡假大飯店宴會廳旁1F-男廁","address":"雲林縣古坑鄉永光村大湖口67號","administration":"劍湖山渡假大飯店","latitude":"23.61506342","longitude":"120.5768395","grade":"特優級","type2":"其他","type":"男廁所","exec":null,"diaper":null},{"country":"10009","city":"10009070","village":"永光村","number":"P070000111","name":"劍湖山渡假大飯店宴會廳前1F-無障礙廁","address":"雲林縣古坑鄉永光村大湖口67號","administration":"劍湖山渡假大飯店","latitude":"23.61506342","longitude":"120.5768395","grade":"特優級","type2":"其他","type":"無障礙廁所","exec":null,"diaper":null},{"country":"10009","city":"10009070","village":"永光村","number":"P070000110","name":"劍湖山渡假大飯店宴會廳前1F-女廁","address":"雲林縣古坑鄉永光村大湖口67號","administration":"其他","latitude":"23.61506342","longitude":"120.5768395","grade":"特優級","type2":"其他","type":"女廁所","exec":null,"diaper":null},{"country":"10009","city":"10009070","village":"永光村","number":"P070000109","name":"劍湖山渡假大飯店宴會廳前1F-男廁","address":"雲林縣古坑鄉永光村大湖口67號","administration":"劍湖山渡假大飯店","latitude":"23.61506342","longitude":"120.5768395","grade":"特優級","type2":"其他","type":"男廁所","exec":null,"diaper":null},{"country":"10009","city":"10009070","village":"永光村","number":"P070000108","name":"劍湖山渡假大飯店大廳櫃台1F-無障礙廁","address":"雲林縣古坑鄉永光村大湖口67號","administration":"劍湖山渡假大飯店","latitude":"23.61506342","longitude":"120.5768395","grade":"特優級","type2":"其他","type":"無障礙廁所","exec":null,"diaper":null},{"country":"10009","city":"10009070","village":"永光村","number":"P070000107","name":"劍湖山渡假大飯店大廳櫃台1F-女廁","address":"雲林縣古坑鄉永光村大湖口67號","administration":"劍湖山渡假大飯店","latitude":"23.61506342","longitude":"120.5768395","grade":"特優級","type2":"其他","type":"女廁所","exec":null,"diaper":null},{"country":"10009","city":"10009070","village":"永光村","number":"P070000106","name":"劍湖山渡假大飯店大廳櫃台1F-男廁","address":"雲林縣古坑鄉永光村大湖口67號","administration":"劍湖山渡假大飯店","latitude":"23.61506342","longitude":"120.5768395","grade":"特優級","type2":"其他","type":"男廁所","exec":null,"diaper":null},{"country":"10009","city":"10009030","village":"穎川里","number":"P030000189","name":"福懋林森加油站-男廁","address":"雲林縣虎尾鎮穎川里頂南19號","administration":"福懋興業股份有限公司福懋林森加油站","latitude":"23.69515129","longitude":"120.4208801","grade":"特優級","type2":"商業營業場所","type":"男廁所","exec":null,"diaper":null},{"country":"10009","city":"10009020","village":"南昌里","number":"P020000008","name":"斗南火車站前站-無障礙廁","address":"雲林縣斗南鎮南昌里中山路2號","administration":"國營台灣鐵路股份有限公司南區營運處高雄運務段斗南站","latitude":"23.67310138","longitude":"120.4808378","grade":"特優級","type2":"交通","type":"無障礙廁所","exec":null,"diaper":null},{"country":"10009","city":"10009140","village":"東南村","number":"P140000024","name":"東勢鄉立圖書館2F-女廁","address":"雲林縣東勢鄉東南村東榮路29巷1號","administration":"縣市政府","latitude":"23.67419206","longitude":"120.2554947","grade":"特優級","type2":"文化育樂活動場所","type":"女廁所","exec":null,"diaper":null},{"country":"10009","city":"10009150","village":"埔姜村","number":"P150000032","name":"褒忠鄉立圖書館2F-女廁","address":"雲林縣褒忠鄉埔姜村中勝路70號","administration":"褒忠鄉立圖書館","latitude":"23.699137","longitude":"120.309777","grade":"特優級","type2":"文化育樂活動場所","type":"女廁所","exec":null,"diaper":null},{"country":"10009","city":"10009150","village":"埔姜村","number":"P150000031","name":"褒忠鄉立圖書館2F-男廁","address":"雲林縣褒忠鄉埔姜村中勝路70號","administration":"褒忠鄉立圖書館","latitude":"23.699137","longitude":"120.309777","grade":"特優級","type2":"文化育樂活動場所","type":"男廁所","exec":null,"diaper":null},{"country":"10009","city":"10009150","village":"埔姜村","number":"P150000030","name":"褒忠鄉立圖書館1F-無障礙廁","address":"雲林縣褒忠鄉埔姜村中勝路70號","administration":"褒忠鄉立圖書館","latitude":"23.699137","longitude":"120.309777","grade":"特優級","type2":"文化育樂活動場所","type":"無障礙廁所","exec":null,"diaper":null},{"country":"10009","city":"10009010","village":"長安里","number":"P010000371","name":"萬年宮-混和廁","address":"雲林縣斗六市萬年路416巷49號","administration":"私人","latitude":"23.72665128","longitude":"120.5509537","grade":"特優級","type2":"宗教禮儀場所","type":"混合廁所","exec":null,"diaper":null},{"country":"10009","city":"10009030","village":"平和里","number":"P030000162","name":"中油平和橋站-女廁","address":"雲林縣虎尾鎮平和里平和24-80號","administration":"平和橋企業股份有限公司","latitude":"23.69788516","longitude":"120.4607615","grade":"特優級","type2":"","type":"女廁所","exec":null,"diaper":null},